     2.11           OBSERVATION DATA    M (MIXED)           RINEX VERSION / TYPE
teqc  2011Oct11                         20200526 04:00:23UTCPGM / RUN BY / DATE
HKWS                                                        MARKER NAME
23019M001                                                   MARKER NUMBER
SMO                 Lands Department HKSAR                  OBSERVER / AGENCY
1870257             LEICA GR50          4.31/7.403          REC # / TYPE / VERS
725198              LEIAR25.R4      LEIT                    ANT # / TYPE
 -2430579.0108  5374285.6738  2418956.3331                  APPROX POSITION XYZ
        0.0083        0.0000        0.0000                  ANTENNA: DELTA H/E/N
     1     1                                                WAVELENGTH FACT L1/2
     6    C1    L1    P2    L2    C5    L5                  # / TYPES OF OBSERV
    30.0000                                                 INTERVAL
    18                                                      LEAP SECONDS
Linux 2.4.21-27.ELsmp|Opteron|gcc|Linux x86_64|=+           COMMENT
Spider v7.4.1.8151  SMO                 2020 05 26 00:14    COMMENT
BIT 2 OF LLI FLAGS DATA COLLECTED UNDER A/S CONDITION       COMMENT
SNR is mapped to RINEX snr flag value [1-9]                 COMMENT
LX:    >= 25dBHz -> 1; 26-27dBHz -> 2; 28-31dBHz -> 3       COMMENT
       32-35dBHz -> 4; 36-38dBHz -> 5; 39-41dBHz -> 6       COMMENT
       42-44dBHz -> 7; 45-48dBHz -> 8; >= 49dBHz -> 9       COMMENT
Forced Modulo Decimation to 30 seconds                      COMMENT
  2020     5    25     0     0    0.0000000     GPS         TIME OF FIRST OBS
                                                            END OF HEADER
 20  5 25  0  0  0.0000000  0 22G03G04G08G09G11G14G16G18G21G22G26G27
                                G31R06R07R08R09R10R16R18R19R20
  24206915.100   127208178.091 7  24206917.860    99123257.10947  24206918.180
  94993120.168 8
  21585819.680   113434258.470 8  21585820.460    88390331.10848  21585823.120
  84707409.459 9
  22059091.960   115921319.919 8  22059093.940    90328307.13048  22059092.080
  86564623.624 9
  24423850.040   128348185.688 7  24423851.660   100011579.92947  24423851.820
  95844436.587 8
  25431444.460   133643139.267 6  25431445.440   104137520.41944

  23124858.080   121521924.473 8  23124858.320    94692399.87046

  20762545.640   109107898.866 9  20762544.020    85019126.60148

  25469418.460   133842693.456 7  25469419.540   104293012.14945  25469424.640
  99947491.457 7
  24851389.460   130594931.997 7  24851389.820   101762293.84145

  24675733.700   129671836.836 8  24675731.080   101042968.43746

  22130789.940   116298071.318 8  22130792.580    90621871.13848  22130790.500
  86845953.923 9
  20465775.820   107548373.028 9  20465777.520    83803919.96149  20465777.000
  80312089.258 9
  22778364.020   119701086.534 9  22778363.340    93273553.19047

  22774532.900   121529264.616 7

  20638113.880   110477443.419 9  20638113.920    85926893.390 8

  21870867.600   117117518.762 9  21870868.480    91091398.198 7

  21149059.860   112934786.872 9  21149060.780    87838165.916 8

  21996320.980   117252748.954 8

  23650088.380   126334486.648 7  23650091.320    98260145.486 4

  24235754.080   129372090.965 7  24235759.060   100622730.745 5

  21409187.840   114524733.489 5  21409189.060    89074790.928 7

  21472772.200   114824563.232 6  21472776.040    89308011.399 8

 20  5 25  0  0 30.0000000  0 22G03G04G08G09G11G14G16G18G21G22G26G27
                                G31R06R07R08R09R10R16R18R19R20
  24217350.040   127263015.322 7  24217352.940    99165987.44147  24217353.140
  95034070.077 8
  21574536.120   113374962.550 8  21574536.740    88344126.50748  21574539.420
  84663130.055 9
  22041001.720   115826253.545 9  22041003.400    90254229.42249  22041001.640
  86493632.493 9
  24405528.320   128251903.254 7  24405529.660    99936554.66447  24405529.920
  95772537.398 8
  25414536.400   133554288.436 6  25414537.500   104068286.00944

  23144121.720   121623155.403 8  23144122.020    94771281.10046

  20769252.200   109143141.735 9  20769250.540    85046588.57148

  25468204.500   133836314.634 6  25468205.860   104288041.67144  25468210.440
  99942728.088 6
  24851964.600   130597954.404 7  24851964.760   101764649.04845

  24685531.260   129723321.863 8  24685528.540   101083086.62445

  22142729.420   116360812.852 8  22142731.940    90670760.62548  22142730.080
  86892806.346 9
  20456630.460   107500314.055 9  20456632.080    83766471.40949  20456631.660
  80276201.068 9
  22785982.460   119741120.887 9  22785981.560    93304748.77647

  22797153.800   121649974.527 7

  20649542.100   110538621.040 9  20649542.520    85974475.963 8

  21863170.500   117076299.609 9  21863170.980    91059338.878 7

  21149601.580   112937679.336 9  21149602.540    87840415.591 8

  21991089.820   117224862.514 8

  23658427.460   126379033.385 6  23658430.280    98294792.914 4

  24252855.620   129463379.776 7  24252860.400   100693733.089 5

  21411343.660   114536266.204 5  21411344.900    89083760.827 7

  21454311.400   114725845.343 6  21454315.260    89231230.846 8

 20  5 25  0  1  0.0000000  0 22G03G04G08G09G11G14G16G18G21G22G26G27
                                G31R06R07R08R09R10R16R18R19R20
  24227801.420   127317937.605 7  24227804.100    99208784.00948  24227804.240
  95075083.453 8
  21563340.220   113316127.554 8  21563340.680    88298281.06748  21563343.500
  84619194.856 9
  22022971.000   115731500.896 8  22022972.640    90180396.17948  22022970.780
  86422875.635 9
  24387247.840   128155837.695 8  24387248.820    99861698.39348  24387249.180
  95700800.158 8
  25397590.580   133465237.136 6  25397590.680   103998895.38545

  23163427.940   121724609.867 8  23163428.240    94850336.47946

  20776003.940   109178623.001 9  20776002.460    85074236.31148

  25467060.060   133830301.486 5  25467061.560   104283356.13145  25467065.940
  99938237.744 7
  24852604.060   130601315.399 7  24852604.600   101767268.04545

  24695308.820   129774701.325 8  24695305.820   101123122.52345

  22154671.980   116423570.349 8  22154674.440    90719662.53148  22154672.680
  86939670.665 9
  20447594.160   107452828.012 9  20447595.820    83729469.30149  20447595.340
  80240740.717 9
  22793635.100   119781335.335 9  22793634.320    93336084.68047

  22819775.280   121770686.003 7

  20661082.060   110600395.641 9  20661082.540    86022522.865 8

  21855604.160   117035781.104 9  21855604.340    91027824.508 7

  21150136.980   112940539.837 9  21150138.120    87842640.417 8

  21985851.520   117196939.726 8

  23666760.340   126423547.435 7  23666763.620    98329414.936 4

  24270043.900   129555131.189 6  24270048.180   100765095.264 5

  21413641.460   114548556.390 6  21413642.560    89093319.864 7

  21435917.680   114627485.583 6  21435921.480    89154728.823 8

 20  5 25  0  1 30.0000000  0 22G03G04G08G09G11G14G16G18G21G22G26G27
                                G31R06R07R08R09R10R16R18R19R20
  24238268.980   127372944.526 7  24238271.760    99251646.50047  24238271.660
  95116159.977 8
  21552232.980   113257758.109 8  21552233.340    88252798.37748  21552236.080
  84575607.266 9
  22005000.760   115637066.797 9  22005002.520    90106811.15048  22005000.640
  86352356.648 9
  24369009.500   128059993.996 8  24369010.300    99787014.99348  24369010.520
  95629228.576 8
  25380607.420   133375989.881 7  25380607.160   103929352.11744

  23182776.880   121826288.137 8  23182777.000    94929566.27645

  20782801.000   109214342.878 9  20782799.720    85102069.98148

  25465985.740   133824657.746 5  25465987.660   104278958.47344  25465991.780
  99934023.338 6
  24853308.880   130605018.780 7  24853308.980   101770153.84444

  24705065.760   129825975.082 7  24705062.620   101163076.05946

  22166617.680   116486344.982 8  22166620.240    90768577.79748  22166618.520
  86986547.789 9
  20438667.880   107405919.075 9  20438669.440    83692916.88749  20438668.760
  80205711.326 9
  22801322.700   119821733.233 9  22801321.680    93367563.52647

  22842396.440   121891397.248 7

  20672733.380   110662766.366 9  20672733.980    86071033.429 8

  21848169.160   116995966.669 9  21848169.280    90996857.733 7

  21150667.000   112943371.438 9  21150668.400    87844842.770 8

  21980606.680   117168982.028 8

  23675088.240   126468032.462 7  23675091.280    98364014.392 4

  24287318.600   129647344.318 7  24287322.600   100836816.460 5

  21416080.960   114561606.383 5  21416082.020    89103469.861 7

  21417592.040   114529490.910 6  21417595.960    89078510.781 8

 20  5 25  0  2  0.0000000  0 22G03G04G08G09G11G14G16G18G21G22G26G27
                                G31R06R07R08R09R10R16R18R19R20
  24248752.020   127428032.908 7  24248754.820    99294572.42047  24248754.520
  95157297.305 8
  21541214.480   113199856.076 8  21541214.880    88207679.91248  21541217.640
  84532368.737 9
  21987091.560   115542953.779 8  21987093.480    90033476.32048  21987091.640
  86282077.433 9
  24350813.540   127964374.524 7  24350814.520    99712506.33647  24350814.560
  95557824.463 7
  25363587.180   133286547.947 6  25363587.500   103859657.14745

  23202167.780   121928187.245 8  23202167.740    95008968.13146

  20789643.160   109250299.247 9  20789641.940    85130087.93348

  25464982.380   133819384.704 6  25464983.660   104274849.63443  25464988.280
  99930085.692 6
  24854078.580   130609064.915 6  24854078.080   101773306.72445

  24714801.740   129877140.711 7  24714799.240   101202945.32945

  22178566.200   116549135.365 8  22178568.940    90817505.32948  22178567.160
  87033436.661 9
  20429851.680   107359588.625 9  20429853.120    83656815.24149  20429852.320
  80171113.912 9
  22809045.320   119862315.231 9  22809044.020    93399185.84847

  22865016.740   122012103.540 7

  20684495.260   110725729.118 9  20684496.040    86120004.425 8

  21840865.440   116956856.964 9  21840865.760    90966439.076 7

  21151191.800   112946173.790 9  21151193.220    87847022.373 8

  21975355.060   117140988.429 8

  23683410.700   126512489.456 7  23683413.700    98398592.060 4

  24304679.340   129740015.737 7  24304683.120   100908894.162 5

  21418662.580   114575416.303 5  21418663.700    89114210.925 7

  21399335.800   114431866.280 6  21399339.460    89002580.528 8

 20  5 25  0  2 30.0000000  0 22G03G04G08G09G11G14G16G18G21G22G26G27
                                G31R06R07R08R09R10R16R18R19R20
  24259249.620   127483197.690 7  24259252.280    99337557.85447  24259251.980
  95198491.658 8
  21530284.940   113142421.305 8  21530285.380    88162925.53348  21530288.260
  84489479.126 9
  21969243.520   115449162.604 8  21969245.600    89960392.28848  21969243.900
  86212038.568 9
  24332660.340   127868979.639 7  24332661.720    99638172.70347  24332661.240
  95486588.064 7
  25346529.800   133196910.918 7  25346529.960   103789810.13145

  23221599.640   122030302.464 8  23221599.680    95088538.39246

  20796529.720   109286487.702 9  20796528.340    85158286.72548

  25464049.460   133814481.559 6  25464050.800   104271028.98743  25464055.300
  99926424.251 6
  24854913.480   130613453.072 7  24854913.060   101776726.11444

  24724516.360   129928193.691 7  24724514.120   101242726.82245

  22190516.940   116611937.933 8  22190519.820    90866442.35648  22190517.900
  87080334.639 9
  20421145.280   107313836.018 9  20421146.680    83621163.86449  20421145.840
  80136948.014 9
  22816802.440   119903079.490 9  22816801.140    93430950.19747

  22887635.280   122132799.171 7

  20696366.600   110789277.684 9  20696367.600    86169431.068 8

  21833693.360   116918450.879 9  21833693.820    90936567.689 7

  21151710.820   112948944.631 9  21151711.980    87849177.449 8

  21970096.120   117112955.943 8

  23691727.680   126556917.517 7  23691730.660    98433147.210 4

  24322124.880   129833139.682 7  24322128.660   100981323.770 5

  21421385.900   114589984.296 5  21421387.160    89125541.598 7

  21381149.200   114334614.098 6  21381152.900    88926939.946 8

 20  5 25  0  3  0.0000000  0 22G03G04G08G09G11G14G16G18G21G22G26G27
                                G31R06R07R08R09R10R16R18R19R20
  24269761.260   127538435.977 7  24269763.800    99380600.65247  24269763.160
  95239741.022 8
  21519444.800   113085455.667 8  21519445.100    88118536.71448  21519448.060
  84446939.841 9
  21951457.260   115355695.101 8  21951459.220    89887560.44148  21951457.800
  86142241.385 9
  24314550.200   127773811.688 7  24314552.040    99564015.89447  24314551.300
  95415521.117 8
  25329435.540   133107080.490 7  25329435.560   103719812.43045

  23241072.160   122132631.037 8  23241072.160    95168274.92645

  20803460.120   109322905.986 9  20803458.500    85186664.61748

  25463187.360   133809949.538 6  25463188.560   104267497.50745  25463192.660
  99923039.939 6
  24855813.800   130618184.283 7  24855813.740   101780412.83645

  24734209.620   129979131.764 7  24734207.280   101282418.79945

  22202469.760   116674751.231 8  22202472.660    90915387.74048  22202470.660
  87127240.625 9
  20412548.960   107268662.611 9  20412550.320    83585963.81549  20412549.660
  80103214.628 9
  22824594.320   119944026.874 9  22824593.220    93462857.24747

  22910250.940   122253479.786 7

  20708346.640   110853408.126 9  20708347.760    86219310.310 8

  21826653.380   116880749.284 9  21826653.320    90907244.233 7

  21152223.920   112951683.999 9  21152224.920    87851308.055 8

  21964830.040   117084883.339 8

  23700039.540   126601317.380 6  23700042.340    98467680.424 4

  24339654.660   129926712.324 7  24339658.060   101054102.450 5

  21424251.180   114605310.066 6  21424252.340    89137461.656 7

  21363032.760   114237738.477 6  21363036.780    88851592.270 8

 20  5 25  0  3 30.0000000  0 22G03G04G08G09G11G14G16G18G21G22G26G27
                                G31R06R07R08R09R10R16R18R19R20
  24280286.580   127593746.736 7  24280289.060    99423699.95147  24280288.400
  95281044.513 8
  21508694.800   113028963.266 8  21508694.860    88074516.65948  21508697.940
  84404753.955 9
  21933733.620   115262556.537 9  21933735.580    89814984.92449  21933734.100
  86072689.832 9
  24296484.020   127678875.208 7  24296486.300    99490039.45547  24296485.620
  95344627.045 8
  25312305.220   133017060.359 7  25312305.680   103649666.90846

  23260585.120   122235172.200 8  23260585.060    95248177.10745

  20810434.140   109359553.978 9  20810432.420    85215221.50048

  25462396.340   133805791.903 7  25462397.380   104264257.76645  25462401.480
  99919935.197 6
  24856780.160   130623261.517 7  24856780.420   101784369.15044

  24743881.020   130029954.489 7  24743878.640   101322020.88145

  22214424.820   116737576.147 8  22214427.680    90964342.21848  22214425.860
  87174155.327 9
  20404063.580   107224071.959 9  20404064.940    83551217.86049  20404064.340
  80069916.427 9
  22832421.600   119985159.981 9  22832420.600    93494909.00847

  22932863.480   122374143.517 7

  20720435.220   110918118.540 9  20720436.220    86269640.640 8

  21819745.260   116843755.148 9  21819744.800    90878471.016 7

  21152731.600   112954394.098 9  21152732.580    87853415.906 8

  21959556.440   117056772.065 8

  23708346.580   126645692.759 6  23708349.760    98502194.646 5

  24357268.160   130020732.611 7  24357271.360   101127229.278 5

  21427258.360   114621395.504 5  21427259.520    89149972.557 7

  21344988.300   114141246.584 6  21344992.280    88776543.032 8

 20  5 25  0  4  0.0000000  0 22G03G04G08G09G11G14G16G18G21G22G26G27
                                G31R06R07R08R09R10R16R18R19R20
  24290825.000   127649127.006 7  24290827.560    99466853.52347  24290827.320
  95322400.039 8
  21498035.140   112972945.797 8  21498035.060    88030866.68548  21498038.080
  84362922.732 9
  21916072.840   115169748.477 9  21916074.860    89742666.93748  21916073.380
  86003385.088 9
  24278462.400   127584172.503 7  24278464.920    99416245.15647  24278464.320
  95273907.512 8
  25295139.180   132926852.262 7  25295139.700   103579374.91645

  23280138.000   122337923.288 8  23280138.100    95328242.83746

  20817451.240   109396428.990 9  20817449.600    85243955.28648

  25461676.800   133802009.623 7  25461677.640   104261310.56344  25461681.840
  99917110.798 6
  24857812.460   130628685.555 7  24857812.560   101788595.72845

  24753529.880   130080659.425 7  24753527.800   101361531.16645

  22226381.940   116800411.016 8  22226384.660    91013304.42748  22226383.000
  87221077.438 9
  20395689.240   107180065.304 9  20395690.700    83516926.97049  20395690.120
  80037054.315 9
  22840284.360   120026479.179 8  22840283.360    93527105.78647

  22955471.760   122494785.420 7

  20732631.220   110983404.405 9  20732632.020    86320418.537 8

  21812968.800   116807469.052 9  21812968.600    90850248.486 7

  21153233.580   112957074.659 9  21153234.540    87855500.779 8

  21954275.080   117028620.844 8

  23716649.040   126690044.038 6  23716652.480    98536690.108 4

  24374964.440   130115196.497 7  24374967.760   101200701.071 4

  21430407.560   114638240.659 5  21430408.300    89163074.365 7

  21327016.580   114045142.707 6  21327020.340    88701795.587 7

 20  5 25  0  4 30.0000000  0 22G03G04G08G09G11G14G16G18G21G22G26G27
                                G31R06R07R08R09R10R16R18R19R20
  24301375.780   127704572.517 7  24301378.080    99510057.76047  24301378.480
  95363804.078 8
  21487466.000   112917404.515 8  21487465.920    87987587.76648  21487468.980
  84321447.101 9
  21898475.560   115077273.613 9  21898477.580    89670608.58349  21898476.060
  85934329.166 9
  24260485.800   127489705.316 7  24260488.280    99342634.37147  24260487.760
  95203363.857 8
  25277937.600   132836456.989 7  25277937.660   103508937.07145

  23299730.060   122440880.602 8  23299730.300    95408469.28045

  20824510.720   109433528.132 8  20824509.380    85272863.71448

  25461028.440   133798603.280 6  25461029.360   104258656.24745  25461033.260
  99914567.108 6
  24858910.520   130634456.677 7  24858910.820   101793092.78245

  24763155.920   130131243.185 7  24763153.460   101400947.03345

  22238340.580   116863253.809 8  22238343.220    91062272.81148  22238341.620
  87268005.477 9
  20387426.240   107136643.248 9  20387427.720    83483091.60449  20387427.120
  80004628.769 9
  22848182.480   120067984.400 8  22848181.760    93559447.51547

  22978075.280   122615401.131 7

  20744933.640   111049261.462 9  20744934.680    86371640.682 8

  21806324.620   116771891.127 9  21806324.560    90822576.765 7

  21153730.160   112959725.202 9  21153731.020    87857562.314 8

  21948986.180   117000428.017 8

  23724947.160   126734372.046 6  23724950.480    98571167.497 4

  24392743.260   130210100.252 7  24392746.460   101274515.039 5

  21433698.600   114655844.598 5  21433699.080    89176766.312 7

  21309118.020   113949430.531 6  21309121.600    88627352.798 8

 20  5 25  0  5  0.0000000  0 22G03G04G08G09G11G14G16G18G21G22G26G27
                                G31R06R07R08R09R10R16R18R19R20
  24311939.240   127760082.645 7  24311941.240    99553312.37847  24311941.940
  95405256.413 8
  21476988.120   112862343.320 8  21476988.220    87944682.93948  21476991.140
  84280329.965 9
  21880942.180   114985135.891 8  21880944.460    89598812.94348  21880942.900
  85865525.003 9
  24242554.980   127395478.081 7  24242557.380    99269210.59147  24242556.940
  95132999.403 8
  25260701.220   132745878.326 7  25260700.860   103438356.34245

  23319361.200   122544043.318 8  23319361.540    95488855.76145

  20831612.700   109470851.293 8  20831611.700    85301946.71048

  25460451.960   133795576.057 6  25460453.140   104256297.37644  25460457.020
  99912306.472 6
  24860075.060   130640577.692 7  24860075.640   101797862.48445

  24772758.580   130181705.725 8  24772755.860   101440268.44045

  22250300.760   116926105.247 8  22250303.520    91111247.93348  22250301.840
  87314939.969 9
  20379275.040   107093809.157 9  20379276.680    83449714.39949  20379276.020
  79972642.283 9
  22856116.480   120109678.054 8  22856115.900    93591936.07647

  23000673.180   122735987.978 7

  20757342.620   111115687.363 9  20757343.740    86423305.264 8

  21799813.560   116737024.131 9  21799813.340    90795457.988 7

  21154221.700   112962347.739 9  21154222.180    87859602.059 8

  21943689.820   116972194.319 8

  23733241.620   126778679.576 7  23733245.280    98605628.909 4

  24410604.140   130305441.930 7  24410607.160   101348669.612 4

  21437131.940   114674209.196 5  21437132.040    89191049.896 7

  21291293.960   113854116.965 6  21291297.380    88553220.043 8

 20  5 25  0  5 30.0000000  0 22G03G04G08G09G11G14G16G18G21G22G26G27
                                G31R06R07R08R09R10R16R18R19R20
  24322513.420   127815650.675 7  24322515.520    99596612.12947  24322516.420
  95446752.015 8
  21466601.280   112807760.370 8  21466601.540    87902150.76448  21466604.360
  84239569.962 9
  21863472.760   114893334.413 8  21863475.300    89527279.31448  21863473.660
  85796971.945 9
  24224669.820   127301489.539 7  24224671.940    99195972.80547  24224671.560
  95062813.205 8
  25243429.440   132655114.347 6  25243429.040   103367631.22045

  23339030.380   122647405.351 8  23339030.600    95569397.59145

  20838756.360   109508392.978 8  20838755.540    85331199.97248

  25459947.700   133792925.356 7  25459949.140   104254231.87945  25459952.820
  99910327.055 7
  24861305.780   130647045.553 7  24861306.060   101802902.45645

  24782337.100   130232041.019 7  24782334.500   101479490.69245

  22262261.520   116988960.206 8  22262264.480    91160225.77848  22262262.760
  87361877.070 9
  20371235.260   107051560.651 9  20371237.120    83416793.50549  20371236.440
  79941093.091 9
  22864085.680   120151557.242 8  22864085.260    93624569.17347

  23023264.400   122856538.673 7

  20769856.640   111182674.425 9  20769857.580    86475406.301 8

  21793434.560   116702864.889 9  21793434.240    90768889.706 7

  21154706.940   112964938.365 9  21154707.180    87861616.967 8

  21938385.280   116943915.966 8

  23741531.860   126822964.021 7  23741535.140    98640072.394 4

  24428545.680   130401214.299 7  24428548.640   101423159.202 4

  21440706.300   114693330.463 5  21440706.540    89205921.998 7

  21273544.360   113759202.586 6  21273547.740    88479397.777 8

 20  5 25  0  6  0.0000000  0 22G03G04G08G09G11G14G16G18G21G22G26G27
                                G31R06R07R08R09R10R16R18R19R20
  24333098.700   127871278.129 7  24333100.940    99639958.23247  24333101.800
  95488292.032 8
  21456306.780   112753661.998 8  21456306.920    87859996.18848  21456309.800
  84199171.825 9
  21846068.880   114801876.217 8  21846071.400    89456013.18148  21846069.820
  85728675.233 9
  24206831.520   127207746.540 8  24206833.200    99122926.34748  24206832.760
  94992810.345 8
  25226123.440   132564170.834 6  25226122.920   103296766.17644

  23358737.760   122750968.424 8  23358738.100    95650096.05045

  20845942.140   109546154.536 9  20845941.120    85360624.55748

  25459515.740   133790656.844 6  25459517.560   104252464.11744  25459521.460
  99908632.932 6
  24862603.640   130653866.142 7  24862603.560   101808217.23445

  24791891.880   130282251.340 7  24791889.360   101518615.62445

  22274223.680   117051821.970 8  22274226.740    91209208.93448  22274225.000
  87408819.246 9
  20363308.180   107009903.472 9  20363310.040    83384333.37049  20363309.420
  79909985.461 9
  22872091.360   120193627.069 8  22872090.980    93657350.84947

  23045848.840   122977053.310 7

  20782475.320   111250222.950 9  20782476.180    86527944.018 8

  21787188.560   116669418.542 9  21787188.440    90742875.892 7

  21155186.920   112967501.891 9  21155187.000    87863610.800 8

  21933072.440   116915596.016 8

  23749819.000   126867231.375 6  23749821.800    98674502.550 5

  24446568.000   130497418.176 7  24446571.260   101497984.315 5

  21444422.760   114713212.788 5  21444423.220    89221386.054 7

  21255871.140   113664696.479 6  21255874.780    88405893.050 8

 20  5 25  0  6 30.0000000  0 22G03G04G08G09G11G14G16G18G21G22G26G27
                                G31R06R07R08R09R10R16R18R19R20
  24343694.720   127926960.004 7  24343697.060    99683346.67647  24343697.500
  95529872.608 8
  21446104.240   112700048.205 8  21446104.520    87818219.21348  21446107.460
  84159135.559 9
  21828730.280   114710761.425 8  21828732.780    89385014.64348  21828731.340
  85660634.968 9
  24189039.880   127114249.737 7  24189041.180    99050071.74348  24189040.760
  94922991.361 8
  25208783.240   132473048.004 7  25208782.800   103225750.37744

  23378482.480   122854727.570 8  23378482.460    95730947.31245

  20853169.380   109584132.233 9  20853168.000    85390217.56148

  25459156.320   133788769.701 6  25459158.440   104250993.55644  25459162.520
  99907223.613 7
  24863968.300   130661038.117 7  24863968.340   101813805.87844

  24801421.900   130332332.420 7  24801419.320   101557639.81546

  22286186.620   117114687.379 8  22286189.660    91258194.94048  22286188.040
  87455764.164 9
  20355493.640   106968837.075 9  20355495.420    83352333.59049  20355494.800
  79879319.008 9
  22880133.020   120235886.020 8  22880132.600    93690279.89547

  23068425.300   123097525.998 7

  20795197.480   111318326.871 9  20795198.460    86580913.734 8

  21781075.860   116636684.079 9  21781075.540    90717415.767 7

  21155661.640   112970036.527 9  21155661.720    87865582.165 8

  21927750.820   116887231.967 8

  23758102.220   126911480.663 6  23758105.480    98708918.689 4

  24464670.220   130594048.087 7  24464673.240   101573140.873 5

  21448281.000   114733853.774 5  21448281.740    89237440.156 7

  21238274.760   113570601.470 6  21238278.680    88332708.046 8

 20  5 25  0  7  0.0000000  0 22G03G04G08G09G11G14G16G18G21G22G26G27
                                G31R06R07R08R09R10R16R18R19R20
  24354300.600   127982692.905 7  24354302.820    99726774.85947  24354302.940
  95571491.302 8
  21435994.280   112646920.474 8  21435994.620    87776820.97748  21435997.500
  84119462.260 9
  21811457.740   114619992.550 9  21811460.160    89314285.65049  21811458.540
  85592853.022 9
  24171295.240   127021001.219 7  24171296.420    98977410.61747  24171295.940
  94853357.794 8
  25191409.180   132381747.178 7  25191408.720   103154606.89144

  23398263.800   122958679.997 8  23398264.000    95811949.15445

  20860437.380   109622323.539 9  20860435.620    85419977.01348

  25458869.700   133787264.874 6  25458871.960   104249820.86344  25458876.140
  99906099.793 6
  24865399.880   130668562.012 7  24865400.280   101819668.68345

  24810926.740   130382281.403 8  24810924.420   101596561.03745

  22298150.020   117177554.803 8  22298152.980    91307182.53548  22298151.480
  87502710.605 9
  20347791.840   106928362.309 9  20347793.360    83320794.81149  20347792.620
  79849094.346 9
  22888210.680   120278334.234 8  22888210.160    93723356.41547

  23090993.360   123217952.370 7

  20808022.300   111386981.593 9  20808023.780    86634311.843 8

  21775096.100   116604661.322 9  21775095.520    90692509.214 7

  21156130.700   112972542.253 9  21156131.120    87867531.047 8

  21922421.040   116858822.402 8

  23766382.260   126955712.481 6  23766385.880    98743321.233 4

  24482851.420   130691100.287 8  24482854.460   101648625.832 5

  21452280.960   114755252.971 5  21452281.880    89254083.992 7

  21220756.100   113476921.707 6  21220759.960    88259846.033 8

 20  5 25  0  7 30.0000000  0 22G03G04G08G09G11G14G16G18G21G22G26G27
                                G31R06R07R08R09R10R16R18R19R20
  24364915.880   128038476.323 7  24364917.920    99770242.43747  24364917.840
  95613147.723 8
  21425977.560   112594282.847 8  21425977.980    87735804.65048  21425980.960
  84080154.942 9
  21794251.920   114529574.081 9  21794254.140    89243829.71749  21794252.420
  85525332.739 9
  24153598.740   126928005.652 7  24153599.920    98904946.59847  24153599.280
  94783913.121 8
  25174002.080   132290272.537 7  25174001.660   103083327.93144

  23418081.820   123062824.868 7  23418082.220    95893100.93246

  20867745.780   109660728.579 8  20867743.920    85449903.01748

  25458657.020   133786145.748 6  25458659.360   104248948.78144  25458663.200
  99905264.082 6
  24866899.060   130676440.923 7  24866899.740   101825808.15245

  24820406.740   130432098.206 7  24820404.500   101635379.32945

  22310113.960   117240425.159 8  22310116.920    91356172.40048  22310115.460
  87549659.225 9
  20340203.340   106888482.630 9  20340204.580    83289719.74149  20340203.660
  79819314.069 9
  22896324.980   120320974.872 8  22896324.520    93756582.85547

  23113552.080   123338330.385 7

  20820950.140   111456185.416 9  20820951.580    86688137.026 8

  21769249.560   116573353.353 9  21769248.940    90668158.587 7

  21156594.540   112975020.986 9  21156595.440    87869458.933 8

  21917083.040   116830368.807 8

  23774660.120   126999930.458 6  23774663.680    98777712.960 4

  24501111.260   130788573.332 6  24501114.760   101724438.182 4

  21456423.080   114777412.119 5  21456424.600    89271318.896 7

  21203316.520   113383664.238 6  21203320.220    88187312.462 8

 20  5 25  0  8  0.0000000  0 22G03G04G08G09G11G14G16G18G21G22G26G27
                                G31R06R07R08R09R10R16R18R19R20
  24375539.520   128094304.080 7  24375541.600    99813744.54947  24375541.520
  95654837.245 8
  21416054.220   112542134.100 8  21416054.460    87695169.25148  21416057.460
  84041212.681 9
  21777112.700   114439505.958 9  21777114.740    89173646.76049  21777112.960
  85458074.065 9
  24135950.180   126835262.448 7  24135951.440    98832679.23248  24135950.780
  94714656.881 8
  25156561.700   132198622.500 7  25156561.080   103011912.32044

  23437935.780   123167156.765 8  23437935.760    95974398.48645

  20875093.520   109699341.891 8  20875091.760    85479991.30048

  25458517.180   133785410.135 6  25458519.440   104248375.52444  25458523.440
  99904714.690 6
  24868465.840   130684672.918 7  24868466.300   101832222.75144

  24829860.680   130481777.635 7  24829858.340   101674090.52445

  22322077.580   117303294.091 8  22322080.580    91405161.13548  22322079.100
  87596606.755 9
  20332727.540   106849196.177 9  20332728.500    83259106.90849  20332727.780
  79789976.769 9
  22904475.320   120363805.192 8  22904475.000    93789957.10647

  23136100.300   123458652.997 7

  20833979.340   111525930.935 9  20833980.600    86742383.543 8

  21763536.020   116542757.611 9  21763535.420    90644361.914 7

  21157052.860   112977470.483 9  21157054.320    87871364.110 8

  21911736.320   116801867.517 8

  23782935.100   127044132.404 6  23782938.200    98812092.261 4

  24519448.680   130886460.313 6  24519452.400   101800572.425 5

  21460706.920   114800327.812 5  21460708.500    89289142.212 7

  21185956.080   113290830.016 6  21185959.740    88115108.070 8

 20  5 25  0  8 30.0000000  0 22G03G04G08G09G11G14G16G18G21G22G26G27
                                G31R06R07R08R09R10R16R18R19R20
  24386171.820   128150176.871 7  24386173.660    99857281.77647  24386173.840
  95696560.399 7
  21406224.700   112490479.587 8  21406224.980    87654918.98348  21406227.860
  84002639.492 9
  21760041.080   114349793.745 9  21760042.920    89103741.12548  21760041.200
  85391081.167 9
  24118350.500   126742777.505 7  24118352.000    98760613.11247  24118351.400
  94645593.542 8
  25139088.980   132106802.616 7  25139088.580   102940364.38544

  23457825.480   123271676.491 8  23457825.400    96055842.36745

  20882481.120   109738164.834 8  20882479.480    85510242.95548

  25458451.360   133785062.793 6  25458453.620   104248104.89745  25458457.280
  99904455.311 5
  24870100.200   130693262.239 7  24870100.420   101838915.76745

  24839288.300   130531320.980 7  24839286.020   101712695.67246

  22334041.520   117366164.093 8  22334044.420    91454150.74348  22334042.820
  87643555.119 9
  20325365.300   106810507.660 9  20325366.100    83228959.99949  20325365.640
  79761085.983 9
  22912662.520   120406829.155 8  22912662.280    93823482.24648

  23158638.180   123578919.828 7

  20847109.760   111596217.557 9  20847110.820    86797050.904 8

  21757955.800   116512878.046 9  21757955.600    90621122.265 7

  21157506.540   112979893.952 9  21157508.220    87873249.035 8

  21906381.080   116773321.181 8

  23791208.080   127088323.618 6  23791210.700    98846463.177 4

  24537863.420   130984761.530 7  24537867.260   101877028.851 5

  21465132.720   114824002.956 5  21465134.360    89307556.230 7

  21168676.440   113198427.783 6  21168680.260    88043239.693 8

 20  5 25  0  9  0.0000000  0 22G03G04G08G09G11G14G16G18G21G22G26G27
                                G31R06R07R08R09R10R16R18R19R20
  24396811.920   128206090.658 7  24396813.760    99900851.00247  24396813.860
  95738314.266 7
  21396489.360   112439319.896 8  21396489.660    87615054.27848  21396492.520
  83964435.832 9
  21743037.340   114260438.554 9  21743039.100    89034113.69749  21743037.380
  85324354.876 9
  24100800.440   126650552.226 7  24100801.960    98688749.32647  24100801.400
  94576724.083 8
  25121584.040   132014813.830 7  25121583.780   102868684.83045

  23477750.020   123376379.943 7  23477750.060    96137429.41545

  20889908.020   109777194.172 9  20889906.500    85540655.43247

  25458459.200   133785103.701 5  25458461.720   104248136.83344  25458465.360
  99904485.901 6
  24871802.500   130702208.062 7  24871802.520   101845886.60044

  24848689.520   130580724.740 8  24848687.460   101751192.07046

  22346005.120   117429032.673 8  22346007.880    91503139.24948  22346006.220
  87690502.427 9
  20318116.680   106772417.103 9  20318117.560    83199279.05249  20318117.200
  79732641.752 9
  22920886.560   120450046.396 8  22920886.320    93857157.98747

  23181164.840   123699125.999 7

  20860340.100   111667039.985 9  20860341.240    86852134.997 8

  21752509.300   116483713.587 9  21752509.320    90598438.805 7

  21157955.340   112982290.751 9  21157957.060    87875113.226 8

  21901017.140   116744727.931 8

  23799478.780   127132503.436 6  23799481.060    98880825.243 4

  24556354.940   131083472.022 6  24556358.860   101953803.655 4

  21469700.420   114848436.240 5  21469701.900    89326559.903 7

  21151478.180   113106460.527 6  21151481.940    87971709.607 8

 20  5 25  0  9 30.0000000  0 22G03G04G08G09G11G14G16G18G21G22G26G27
                                G31R06R07R08R09R10R16R18R19R20
  24407459.060   128262040.905 7  24407461.060    99944448.57747  24407460.840
  95780095.277 8
  21386848.320   112388655.458 8  21386848.560    87575575.48948  21386851.400
  83926601.979 9
  21726101.740   114171441.633 9  21726103.480    88964765.42649  21726101.820
  85257896.115 9
  24083299.980   126558587.586 7  24083301.520    98617088.61547  24083301.120
  94508049.264 8
  25104047.040   131922656.142 8  25104046.620   102796873.66344

  23497708.560   123481263.147 7  23497708.740    96219156.59545

  20897373.580   109816426.262 9  20897372.000    85571225.88148

  25458540.800   133785532.502 6  25458542.980   104248471.03045  25458547.160
  99904806.158 6
  24873572.520   130711510.565 7  24873572.400   101853135.33945

  24858063.580   130629985.191 8  24858061.720   101789576.76846

  22357967.920   117491897.215 8  22357970.480    91552124.59448  22357968.900
  87737446.726 9
  20310981.900   106734924.256 9  20310983.040    83170063.84949  20310982.740
  79704643.845 9
  22929147.120   120493456.179 8  22929146.880    93890983.74948

  23203679.080   123819265.679 7

  20873669.440   111738392.504 9  20873670.520    86907631.386 8

  21747196.400   116455263.752 9  21747196.600    90576311.160 7

  21158399.080   112984659.620 9  21158400.460    87876955.688 8

  21895643.800   116716085.266 8

  23807747.380   127176672.252 6  23807749.520    98915178.754 4

  24574922.660   131182587.161 7  24574926.580   102030893.229 4

  21474409.340   114873625.393 5  21474410.800    89346151.465 7

  21134361.640   113014931.172 6  21134365.480    87900520.121 8

 20  5 25  0 10  0.0000000  0 22G03G04G08G09G11G14G16G18G21G22G26G27
                                G31R06R07R08R09R10R16R18R19R20
  24418112.620   128318026.035 7  24418114.500    99988073.31847  24418114.420
  95821902.290 7
  21377302.160   112338489.289 8  21377302.240    87536484.95248  21377305.060
  83889140.220 9
  21709235.100   114082806.907 9  21709236.800    88895699.39249  21709235.220
  85191707.832 9
  24065849.820   126466887.338 8  24065851.360    98545633.91948  24065851.160
  94439571.863 8
  25086478.340   131830332.520 7  25086477.840   102724933.18044

  23517701.160   123586324.496 7  23517701.360    96301022.51345

  20904877.720   109855860.114 9  20904875.920    85601953.53447

  25458696.840   133786351.378 6  25458699.120   104249109.15145  25458702.540
  99905417.747 6
  24875410.780   130721171.178 6  24875411.080   101860663.14245

  24867410.420   130679101.535 8  24867408.160   101827849.20146

  22369929.880   117554757.833 8  22369932.400    91601106.85948  22369930.920
  87784388.056 9
  20303961.440   106698031.450 9  20303962.800    83141316.21249  20303962.360
  79677094.014 9
  22937444.700   120537060.141 8  22937444.500    93924960.85647

  23226180.320   123939335.985 7

  20887097.180   111810272.226 9  20887098.120    86963537.824 8

  21742017.080   116427529.759 9  21742017.460    90554740.285 7

  21158837.800   112987001.770 9  21158838.800    87878777.350 8

  21890261.140   116687394.000 8

  23816014.180   127220832.334 6  23816016.760    98949525.458 4

  24593565.540   131282104.275 6  24593569.700   102108295.412 4

  21479259.800   114899571.463 5  21479261.180    89366331.750 7

  21117328.220   112923846.002 6  21117331.940    87829676.119 8

 20  5 25  0 10 30.0000000  0 22G03G04G08G09G11G14G16G18G21G22G26G27
                                G31R06R07R08R09R10R16R18R19R20
  24428772.680   128374044.498 7  24428774.400   100031724.03847  24428774.400
  95863734.202 8
  21367851.300   112288824.506 8  21367851.440    87497785.11748  21367854.100
  83852052.868 9
  21692437.900   113994537.745 9  21692439.880    88826918.21449  21692438.200
  85125792.535 9
  24048450.880   126375455.347 8  24048452.360    98474388.23848  24048452.120
  94371294.760 8
  25068878.660   131737846.350 7  25068878.080   102652866.04345

  23537727.380   123691562.498 7  23537727.300    96383026.08645

  20912420.260   109895495.055 9  20912418.120    85632837.89148

  25458927.220   133787562.869 7  25458929.460   104250053.20244  25458933.140
  99906322.417 7
  24877317.620   130731192.176 7  24877317.820   101868471.72845

  24876729.440   130728072.522 8  24876726.840   101866008.38545

  22381891.120   117617614.760 8  22381893.700    91650086.25648  22381892.280
  87831326.631 9
  20297055.440   106661741.145 9  20297057.040    83113038.05849  20297056.580
  79649994.119 9
  22945779.420   120580860.113 8  22945779.380    93959090.69247

  23248668.340   124059334.864 7

  20900622.880   111882676.116 9  20900623.640    87019851.942 8

  21736972.140   116400513.665 9  21736972.280    90533727.761 7

  21159272.000   112989319.325 9  21159272.580    87880579.907 8

  21884869.920   116658654.764 8

  23824279.620   127264986.102 6  23824282.460    98983867.275 4

  24612283.500   131382021.763 7  24612287.920   102186009.024 4

  21484251.840   114926274.893 6  21484253.160    89387101.082 7

  21100379.180   112833210.868 6  21100382.700    87759182.138 8

 20  5 25  0 11  0.0000000  0 22G03G04G08G09G11G14G16G18G21G22G26G27
                                G31R06R07R08R09R10R16R18R19R20
  24439438.480   128430093.077 7  24439440.460   100075398.21447  24439440.220
  95905588.615 8
  21358496.100   112239662.593 8  21358496.240    87459477.12448  21358498.960
  83815341.032 9
  21675710.660   113906636.733 8  21675712.900    88758423.91348  21675711.260
  85060152.151 9
  24031103.420   126284293.787 8  24031104.940    98403353.28348  24031104.420
  94303219.587 8
  25051248.320   131645199.405 7  25051247.740   102580673.65145

  23557787.000   123796974.626 7  23557786.680    96465165.37445

  20920000.380   109935328.760 9  20919998.380    85663877.12547

  25459232.520   133789167.512 6  25459234.720   104251303.58644  25459238.720
  99907520.743 6
  24879293.120   130741574.576 6  24879293.480   101876561.91645

  24886020.220   130776896.423 8  24886017.620   101904052.95545

  22393851.300   117680466.529 8  22393854.180    91699061.61648  22393852.660
  87878261.344 9
  20290264.280   106626054.149 9  20290265.980    83085230.01549  20290265.640
  79623344.749 9
  22954151.800   120624856.688 8  22954151.800    93993373.72347

  23271141.940   124179257.926 7

  20914245.680   111955600.031 9  20914246.520    87076570.522 8

  21732061.540   116374215.539 9  21732061.280    90513273.659 7

  21159701.280   112991612.030 9  21159701.780    87882363.134 8

  21879469.640   116629866.724 8

  23832544.040   127309134.590 6  23832547.240    99018204.998 4

  24631075.720   131482335.016 6  24631079.940   102264030.470 3

  21489385.520   114953735.001 6  21489386.460    89408458.957 7

  21083514.780   112743029.762 6  21083518.360    87689041.293 8

 20  5 25  0 11 30.0000000  0 22G03G04G08G09G11G14G16G18G21G22G26G27
                                G31R06R07R08R09R10R16R18R19R20
  24450109.260   128486167.382 7  24450111.120   100119092.44647  24450110.920
  95947462.234 8
  21349236.640   112191003.716 8  21349236.840    87421561.10148  21349239.480
  83779004.863 9
  21659053.620   113819104.632 9  21659056.100    88690217.06948  21659054.540
  84994787.255 9
  24013807.540   126193403.598 8  24013809.240    98332529.81048  24013808.620
  94235347.088 8
  25033587.400   131552391.837 6  25033586.920   102508356.10444

  23577878.560   123902556.345 8  23577878.140    96547436.81245

  20927617.340   109975357.637 8  20927615.660    85695068.43948

  25459612.240   133791164.880 6  25459615.360   104252859.91144  25459618.800
  99909012.223 6
  24881337.380   130752317.114 7  24881337.900   101884932.75445

  24895282.340   130825569.292 8  24895279.800   101941979.82945

  22405809.960   117743310.455 8  22405813.360    91748030.87048  22405811.500
  87925190.197 9
  20283588.000   106590969.945 9  20283589.580    83057891.67549  20283589.400
  79597145.506 9
  22962561.160   120669048.673 8  22962561.340    94027809.01147

  23293600.180   124299099.897 7

  20927964.260   112029037.537 9  20927965.140    87133688.557 8

  21727284.480   116348634.003 9  21727284.060    90493376.919 7

  21160125.620   112993878.860 9  21160126.080    87884126.235 8

  21874059.640   116601027.562 8

  23840807.480   127353277.213 6  23840810.680    99052538.120 4

  24649941.020   131583039.589 4  24649945.300   102342356.255 3

  21494659.840   114981949.493 5  21494660.800    89430403.557 7

  21066735.900   112653306.112 6  21066739.760    87619256.256 8

 20  5 25  0 12  0.0000000  0 22G03G04G08G09G11G14G16G18G21G22G26G27
                                G31R06R07R08R09R10R16R18R19R20
  24460784.560   128542268.202 7  24460786.840   100162807.32547  24460786.580
  95989355.648 8
  21340073.980   112142853.295 8  21340074.020    87384041.29548  21340076.720
  83743048.372 9
  21642467.900   113731947.538 8  21642470.720    88622302.44649  21642469.100
  84929702.406 9
  23996564.520   126102790.892 7  23996566.280    98261922.54248  23996565.740
  94167681.805 8
  25015896.940   131459429.150 6  25015896.980   102435917.69244

  23598002.440   124008308.324 7  23598002.240    96629840.87645

  20935271.720   110015582.826 8  20935270.240    85726412.73948

  25460067.960   133793559.755 6  25460070.880   104254726.06844  25460074.440
  99910800.596 7
  24883450.960   130763424.178 7  24883451.200   101893587.64145

  24904515.820   130874092.177 7  24904513.360   101979789.85744

  22417767.620   117806149.077 8  22417771.440    91796995.95748  22417769.300
  87972115.065 9
  20277027.340   106556493.242 9  20277028.860    83031026.72149  20277028.620
  79571399.927 9
  22971008.540   120713440.396 8  22971008.720    94062399.94247

  23316043.280   124418860.289 7

  20941778.980   112102988.418 9  20941779.840    87191205.901 8

  21722641.840   116323772.826 9  21722641.160    90474040.446 7

  21160545.760   112996123.607 9  21160546.560    87885872.154 8

  21868640.460   116572140.355 8

  23849071.000   127397419.125 6  23849073.980    99086870.693 4

  24668879.200   131684135.405 8  24668883.740   102420986.292 5

  21500075.920   115010921.216 5  21500076.640    89452937.120 7

  21050043.920   112564047.644 6  21050048.100    87549833.012 8

 20  5 25  0 12 30.0000000  0 22G03G04G08G09G11G14G16G18G21G22G26G27
                                G31R06R07R08R09R10R16R18R19R20
  24471463.520   128598387.162 7  24471466.080   100206536.36246  24471465.540
  96031262.638 7
  21331007.340   112095207.635 8  21331007.320    87346914.80548  21331010.040
  83707468.810 9
  21625953.080   113645162.435 8  21625956.180    88554677.69248  21625954.400
  84864895.352 9
  23979373.560   126012452.744 7  23979375.400    98191529.23347  23979375.120
  94100221.570 8
  24998176.440   131366307.983 6  24998176.280   102363355.73744

  23618157.100   124114222.718 7  23618157.140    96712371.51745

  20942962.100   110055996.926 8  20942960.800    85757904.24748

  25460598.680   133796347.593 6  25460600.700   104256898.43244  25460604.660
  99912882.502 6
  24885633.220   130774891.217 7  24885632.940   101902523.03144

  24913719.580   130922457.876 7  24913716.760   102017477.37244

  22429723.220   117868975.939 8  22429727.040    91845951.89548  22429724.860
  88019031.166 9
  20270581.420   106522619.583 9  20270582.960    83004631.67549  20270582.580
  79546104.670 9
  22979493.120   120758027.007 8  22979493.180    94097142.73547

  23338469.360   124538529.546 7

  20955687.760   112177442.826 9  20955688.620    87249114.877 8

  21718132.820   116299626.444 9  21718131.840    90455259.941 7

  21160960.940   112998341.123 9  21160961.880    87887596.886 8

  21863211.220   116543198.760 8

  23857333.740   127441556.069 6  23857336.560    99121199.447 4

  24687888.960   131785612.924 7  24687893.900   102499913.335 5

  21505632.400   115040644.207 5  21505633.200    89476055.010 7

  21033438.800   112475253.584 5  21033443.160    87480770.992 8

 20  5 25  0 13  0.0000000  0 21G03G04G08G09G11G14G16G18G21G22G26G27
                                G31R06R07R08R09R10R16R19R20
  24482146.000   128654525.484 7  24482148.880   100250280.48247  24482148.520
  96073184.069 8
  21322037.500   112048072.371 8  21322037.740    87310186.02448  21322040.680
  83672270.404 9
  21609510.360   113558755.831 9  21609513.440    88487347.86949  21609511.720
  84800370.925 9
  23962236.260   125922395.667 8  23962238.080    98121354.94947  23962238.020
  94032971.224 8
  24980426.800   131273033.949 6  24980426.760   102290674.75044

  23638343.260   124220300.835 8  23638343.360    96795029.75345

  20950689.040   110096601.952 9  20950687.700    85789544.52748

  25461205.000   133799533.419 6  25461207.100   104259380.98444  25461210.800
  99915261.561 6
  24887885.100   130786722.937 7  24887884.540   101911742.59944

  24922893.740   130970668.165 6  24922891.320   102055043.80244

  22441677.220   117931794.024 8  22441680.720    91894901.02748  22441678.860
  88065940.743 9
  20264251.280   106489353.963 9  20264252.680    82978710.41449  20264252.280
  79521263.464 9
  22988015.800   120802812.905 9  22988015.640    94132040.85047

  23360878.620   124658108.138 7

  20969690.380   112252400.304 9  20969691.320    87307415.122 8

  21713757.960   116276199.559 9  21713757.320    90437039.054 7

  21161371.980   113000536.078 9  21161372.900    87889304.057 8

  21857772.480   116514206.211 8

  23865596.300   127485693.595 6  23865599.700    99155528.636 4

  21511329.760   115071121.369 5  21511330.640    89499759.459 7

  21016922.220   112386932.628 6  21016926.440    87412076.918 8

 20  5 25  0 13 30.0000000  0 21G03G04G08G09G11G14G16G18G21G22G26G27
                                G31R06R07R08R09R10R16R19R20
  24492831.620   128710678.565 7  24492834.500   100294036.08147  24492834.000
  96115116.555 7
  21313164.800   112001447.531 8  21313165.340    87273854.97648  21313168.280
  83637453.152 9
  21593140.060   113472728.396 9  21593142.920    88420313.50049  21593141.260
  84736129.657 9
  23945152.840   125832620.278 8  23945154.440    98051400.15348  23945154.340
  93965931.225 8
  24962648.500   131179607.684 7  24962648.300   102217875.11945

  23658559.780   124326538.369 8  23658560.000    96877812.14545

  20958451.700   110137394.020 9  20958450.180    85821330.54048

  25461886.520   133803116.412 6  25461888.600   104262172.98044  25461892.280
  99917937.248 6
  24890205.920   130798918.301 7  24890205.300   101921245.48744

  24932037.620   131018719.172 6  24932035.480   102092486.05544

  22453629.180   117994600.539 8  22453632.200    91943841.15948  22453630.640
  88112841.709 9
  20258036.660   106456695.688 9  20258037.980    82953262.41049  20258037.660
  79496875.792 9
  22996576.180   120847797.020 9  22996575.960    94167093.40147

  23383269.680   124777590.364 7

  20983785.880   112327855.165 9  20983786.900    87366102.220 8

  21709517.140   116253490.361 9  21709516.540    90419376.344 7

  21161778.580   113002707.027 9  21161779.640    87890992.539 8

  21852323.720   116485160.993 8

  23873859.080   127529830.847 6  23873862.460    99189857.553 4

  21517167.600   115102350.717 5  21517168.600    89524048.954 7

  21000494.900   112299087.470 6  21000498.860    87343752.926 8

 20  5 25  0 14  0.0000000  0 21G03G04G08G09G11G14G16G18G21G22G26G27
                                G31R06R07R08R09R10R16R19R20
  24503519.100   128766843.614 6  24503522.420   100337801.03046  24503521.920
  96157057.949 7
  21304389.540   111955334.819 8  21304390.480    87237922.99048  21304393.340
  83603018.334 9
  21576842.500   113387082.635 9  21576845.100    88353576.53949  21576843.460
  84672173.404 9
  23928123.580   125743129.378 8  23928124.880    97981667.02848  23928124.740
  93899103.660 8
  24944841.640   131086030.868 7  24944840.980   102144958.13144

  23678806.080   124432932.505 7  23678806.060    96960716.60945

  20966249.600   110178371.273 9  20966247.980    85853260.85948

  25462644.220   133807097.656 5  25462646.520   104265275.10843  25462649.020
  99920910.180 5
  24892596.240   130811477.872 7  24892595.860   101931032.17944

  24941150.580   131066608.820 5  24941148.440   102129802.62744

  22465578.680   118057394.432 8  22465581.400    91992771.44948  22465580.040
  88159733.228 9
  20251937.880   106424645.676 9  20251939.040    82928288.37549  20251938.800
  79472942.343 9
  23005174.340   120892980.191 9  23005174.100    94202301.07247

  23405642.040   124896972.940 7

  20997973.480   112403803.055 9  20997974.580    87425172.776 8

  21705410.300   116231498.877 8  21705409.740    90402271.855 7

  21162180.540   113004854.424 9  21162181.940    87892662.722 8

  21846864.940   116456062.021 8

  23882121.960   127573969.316 6  23882125.160    99224187.386 4

  21523146.020   115134330.869 5  21523146.920    89548922.416 7

  20984157.440   112211722.788 6  20984161.100    87275802.633 8

 20  5 25  0 14 30.0000000  0 21G03G04G08G09G11G14G16G18G21G22G26G27
                                G31R06R07R08R09R10R16R19R20
  24514208.920   128823020.180 7  24514212.580   100381574.93647  24514212.220
  96199007.930 7
  21295712.680   111909738.292 8  21295713.780    87202393.24348  21295716.480
  83568969.001 9
  21560618.300   113301822.835 8  21560620.740    88287140.32348  21560619.220
  84608505.366 9
  23911149.160   125653927.731 8  23911150.300    97912159.28648  23911150.080
  93832492.086 8
  24927007.060   130992307.978 8  24927006.200   102071927.30644

  23699082.020   124539482.940 7  23699081.940    97043742.75845

  20974082.740   110219534.074 9  20974081.000    85885335.75248

  25463478.540   133811480.532 6  25463479.900   104268690.36345  25463482.820
  99924183.091 6
  24895056.300   130824405.220 7  24895055.920   101941105.45545

  24950233.000   131114337.419 5  24950230.900   102166993.68042

  22477525.800   118120177.056 8  22477528.480    92041692.95348  22477527.160
  88206616.321 9
  20245955.380   106393207.232 9  20245956.560    82903790.88449  20245956.380
  79449465.581 9
  23013810.860   120938365.007 9  23013810.600    94237665.85347

  23427995.300   125016253.935 7

  21012252.740   112480241.833 9  21012253.960    87484625.153 8

  21701437.960   116210228.270 9  21701437.660    90385728.042 7

  21162578.820   113006981.214 9  21162580.400    87894316.864 8

  21841396.540   116426911.431 8

  23890385.860   127618112.889 6  23890389.500    99258521.081 4

  21529265.200   115167063.572 5  21529265.780    89574381.199 7

  20967911.220   112124845.315 6  20967914.660    87208231.284 8

 20  5 25  0 15  0.0000000  0 21G03G04G08G09G11G14G16G18G21G22G26G27
                                G31R06R07R08R09R10R16R19R20
  24524900.800   128879205.913 7  24524904.620   100425355.96147  24524904.300
  96240964.752 8
  21287134.800   111864660.033 8  21287135.640    87167267.33548  21287138.260
  83535306.684 9
  21544467.860   113216952.388 8  21544470.580    88221007.52648  21544469.020
  84545128.106 9
  23894230.160   125565018.243 8  23894231.280    97842879.19248  23894230.980
  93766098.675 8
  24909145.020   130898441.615 8  24909144.220   101998784.71844

  23719387.400   124646187.242 8  23719387.260    97126888.81445

  20981950.740   110260880.945 9  20981948.980    85917554.07748

  25464389.260   133816266.621 6  25464390.400   104272419.93044  25464394.040
  99927757.271 5
  24897586.440   130837701.356 7  24897585.620   101951466.07945

  24959284.620

  22489470.500   118182947.855 8  22489473.340    92090605.24448  22489472.060
  88253490.594 9
  20240089.520   106362381.699 9  20240090.580    82879770.98249  20240090.560
  79426446.504 9
  23022485.900   120983952.758 9  23022485.760    94273188.77147

  23450328.940   125135430.470 7

  21026623.260   112557167.868 9  21026624.360    87544456.496 8

  21697600.560   116189678.350 9  21697600.100    90369744.751 7

  21162973.380   113009088.252 9  21162975.160    87895955.646 8

  21835918.340   116397709.009 8

  23898651.020   127662262.750 7  23898654.580    99292859.760 4

  21535524.580   115200548.521 5  21535525.600    89600425.057 7

  20951757.040   112038459.997 6  20951760.100    87141042.707 8

 20  5 25  0 15 30.0000000  0 21G03G04G08G09G11G14G16G18G21G22G26G27
                                G31R06R07R08R09R10R16R19R20
  24535593.420   128935394.229 7  24535596.860   100469139.04447  24535596.780
  96282923.530 8
  21278655.280   111820097.929 8  21278655.860    87132543.63448  21278658.340
  83502029.794 9
  21528391.340   113132470.084 8  21528394.180    88155177.17548  21528392.440
  84482040.681 9
  23877366.440   125476399.737 8  23877367.660    97773825.85148  23877367.200
  93699922.543 8
  24891255.300   130804429.829 8  24891254.660   101925528.79145

  23739720.660   124753039.152 7  23739720.440    97210149.88945

  20989852.460   110302405.184 8  20989850.720    85949910.59848

  25465376.340   133821452.852 6  25465377.920   104276461.24844  25465381.680
  99931630.208 6
  24900186.060   130851362.895 7  24900185.640   101962111.44845

  24968304.060

  22501412.060   118245702.164 8  22501414.920    92139504.70848  22501413.900
  88300352.582 9
  20234339.700   106332166.248 9  20234340.780    82856226.47349  20234340.620
  79403883.018 9
  23031198.920   121029740.077 8  23031198.680    94308867.21348

  23472641.620   125254494.861 6

  21041083.280   112634573.035 9  21041084.520    87604660.505 8

  21693897.160   116169845.740 9  21693896.380    90354319.396 7

  21163363.360   113011172.203 8  21163365.260    87897576.494 8

  21830429.160   116368449.940 8

  23906917.000   127706417.053 6  23906919.600    99327202.004 4

  21541923.820   115234780.662 5  21541925.100    89627050.068 6

  20935694.840   111952567.800 6  20935697.720    87074237.669 8

 20  5 25  0 16  0.0000000  0 20G03G04G08G09G11G14G16G18G21G26G27G31
                                R06R07R08R09R10R16R19R20
  24546286.220   128991584.560 7  24546289.580   100512923.69747  24546289.620
  96324883.828 8
  21270274.680   111776055.802 8  21270275.060    87098225.09648  21270277.500
  83469141.203 9
  21512389.580   113048380.170 9  21512392.320    88089652.57049  21512390.640
  84419246.265 9
  23860558.900   125388076.869 8  23860560.360    97705002.89048  23860559.820
  93633967.217 8
  24873338.680   130710276.791 8  24873338.260   101852162.86145

  23760082.040   124860038.724 7  23760081.960    97293526.35945

  20997788.100   110344107.664 8  20997786.480    85982406.03148

  25466439.720   133827042.221 6  25466441.640   104280816.62344  25466446.000
  99935804.119 7
  24902855.400   130865392.957 7  24902855.780   101973043.95445

  22513350.700   118308441.132 8  22513353.620    92188392.21748  22513352.720
  88347203.104 9
  20228706.520   106302563.893 9  20228707.820    82833159.69649  20228707.360
  79381777.357 9
  23039950.480   121075729.919 9  23039950.040    94344703.45247

  23494932.840   125373445.200 6

  21055632.480   112712454.976 9  21055633.620    87665235.329 8

  21690327.940   116150732.237 9  21690326.800    90339453.363 7

  21163749.880   113013235.958 9  21163751.760    87899181.620 8

  21824929.800   116339136.751 8

  23915184.200   127750579.370 6  23915187.300    99361550.569 4

  21548463.080   115269761.518 5  21548464.320    89654257.413 7

  20919725.860   111867175.228 6  20919729.000    87007821.247 8

 20  5 25  0 16 30.0000000  0 21G03G04G08G09G11G14G16G18G21G26G27G31
                                R01R06R07R08R09R10R16R19R20
  24556978.860   129047773.217 7  24556982.200   100556707.04247  24556981.860
  96366842.865 8
  21261992.760   111732534.363 8  21261993.380    87064312.29648  21261995.800
  83436641.437 9
  21496462.760   112964683.948 9  21496465.380    88024434.73249  21496463.720
  84356745.835 9
  23843807.880   125300051.241 7  23843809.500    97636411.53547  23843808.900
  93568233.863 8
  24855395.460   130615983.926 7  24855394.860   101778687.94545

  23780470.660   124967181.861 7  23780470.640    97377014.43245

  21005757.080   110385985.391 8  21005755.580    86015038.03248

  25467579.700   133833034.754 6  25467581.820   104285486.12444  25467586.200
  99940279.066 6
  24905595.340   130879791.284 7  24905595.940   101984263.43545

  22525286.300   118371162.925 8  22525289.260    92237266.32548  22525288.240
  88394040.785 9
  20223190.020   106273574.531 9  20223191.440    82810570.59649  20223190.760
  79360129.466 9
  23048740.260   121121921.723 8  23048740.060    94380697.07448

  24279180.560   129786137.141 6  24279186.640   100944788.478 3

  23517201.820   125492277.454 6

  21070269.760   112790808.762 9  21070270.800    87726177.146 8

  21686892.660   116132337.202 9  21686891.720    90325146.111 7

  21164132.640   113015279.250 9  21164134.520    87900770.815 8

  21819420.000   116309767.763 8

  23923452.780   127794749.629 6  23923456.340    99395905.171 4

  21555141.960   115305488.875 5  21555143.240    89682045.351 7

  20903850.940   111782285.747 6  20903854.320    86941796.105 8

 20  5 25  0 17  0.0000000  0 21G03G04G08G09G11G14G16G18G21G26G27G31
                                R01R06R07R08R09R10R16R19R20
  24567670.980   129103960.164 7  24567674.240   100600489.04047  24567673.960
  96408800.619 8
  21253810.660   111689537.910 8  21253811.400    87030808.57548  21253813.840
  83404533.702 9
  21480611.700   112881386.970 8  21480614.560    87959528.00449  21480612.720
  84294543.558 9
  23827114.380   125212328.077 8  23827116.300    97568055.87048  23827115.600
  93502726.372 8
  24837426.340   130521555.595 7  24837425.640   101705107.48445

  23800886.740   125074468.704 7  23800886.480    97460614.50045

  21013759.660   110428039.138 9  21013758.200    86047807.19448

  25468797.380   133839434.031 6  25468799.300   104290472.59344  25468803.660
  99945057.779 6
  24908405.820   130894561.134 7  24908406.700   101995772.39545

  22537219.180   118433869.290 8  22537221.960    92286128.39748  22537220.860
  88440866.935 9
  20217790.940   106245201.709 9  20217792.280    82788461.90949  20217791.500
  79338941.975 9
  23057569.180   121168318.849 8  23057569.220    94416850.67848

  24264071.560   129705369.741 7  24264076.620   100881969.312 4

  23539448.520   125610990.292 7

  21084994.800   112869632.283 9  21084995.520    87787484.306 8

  21683591.820   116114662.815 9  21683591.340    90311399.383 7

  21164512.360   113017305.003 9  21164514.060    87902346.332 8

  21813900.360   116280345.538 8

  23931723.840   127838931.922 6  23931727.340    99430269.179 4

  21561960.860   115341964.769 5  21561961.900    89710415.491 6

  20888071.520   111697906.688 6  20888074.940    86876167.963 8

 20  5 25  0 17 30.0000000  0 21G03G04G08G09G11G14G16G18G21G26G27G31
                                R01R06R07R08R09R10R16R19R20
  24578361.640   129160140.727 7  24578364.880   100644266.06047  24578364.720
  96450753.593 8
  21245728.400   111647066.132 8  21245729.160    86997713.69148  21245731.680
  83372817.782 9
  21464836.640   112798489.515 9  21464839.720    87894932.59349  21464837.780
  84232639.617 9
  23810478.620   125124908.027 7  23810480.700    97499936.38147  23810480.020
  93437445.181 8
  24819431.280   130426991.886 8  24819430.720   101631421.56145

  23821329.320   125181894.664 7  23821328.780    97544322.97144

  21021795.000   110470265.185 9  21021793.580    86080710.58848

  25470092.360   133846239.100 6  25470094.340   104295775.31944  25470098.300
  99950139.527 6
  24911286.680   130909701.474 7  24911287.840   102007570.08345

  22549148.580   118496557.444 8  22549151.320    92334976.30548  22549150.080
  88487679.520 9
  20212508.900   106217444.302 9  20212510.140    82766832.76149  20212509.420
  79318214.042 9
  23066437.000   121214920.130 9  23066437.200    94453163.35347

  24249054.460   129625095.596 6  24249059.180   100819533.872 4

  23561671.820   125729578.210 7

  21099806.280   112948919.485 9  21099806.960    87849152.101 8

  21680425.100   116097707.267 9  21680425.120    90298211.747 7

  21164888.680   113019312.147 9  21164890.020    87903907.412 8

  21808370.440   116250867.694 8

  23939997.200   127883126.107 6  23940000.560    99464642.400 4

  21568919.200   115379185.958 5  21568920.160    89739365.304 6

  20872388.020   111614040.585 6  20872391.500    86810938.778 8

 20  5 25  0 18  0.0000000  0 21G03G04G08G09G11G14G16G18G21G26G27G31
                                R01R06R07R08R09R10R16R19R20
  24589050.180   129216310.458 7  24589053.720   100688034.64147  24589053.500
  96492698.461 8
  21237746.100   111605118.952 8  21237746.680    86965027.58748  21237749.360
  83341493.593 9
  21449138.020   112715992.309 9  21449141.000    87830649.04949  21449139.080
  84171034.559 9
  23793900.700   125037791.825 7  23793902.920    97432053.65947  23793902.400
  93372390.920 8
  24801410.600   130332293.553 8  24801410.120   101557630.70144

  23841797.360   125289454.961 7  23841796.940    97628136.09745

  21029862.420   110512659.482 9  21029861.060    86113745.08348

  25471464.180   133853449.134 6  25471466.020   104301393.56944  25471470.800
  99955523.679 6
  24914237.600   130925211.005 7  24914239.240   102019655.42645

  22561073.920   118559224.811 8  22561076.680    92383807.99148  22561075.400
  88534476.536 9
  20207343.780   106190301.403 9  20207344.900    82745682.45849  20207344.300
  79297945.010 9
  23075343.440   121261724.190 9  23075343.700    94489634.03748

  24234130.320   129545315.758 6  24234134.740   100757482.896 3

  23583870.880   125848036.135 7

  21114703.160   113028664.314 9  21114703.980    87911175.838 8

  21677392.660   116081469.240 9  21677393.040    90285582.172 7

  21165261.140   113021299.300 9  21165262.100    87905452.933 8

  21802829.660   116221331.563 8

  23948272.600   127927331.440 6  23948276.140    99499024.238 4

  21576016.200   115417149.438 5  21576017.200    89768892.472 6

  20856801.160   111530690.175 6  20856804.580    86746110.685 8

 20  5 25  0 18 30.0000000  0 21G03G04G08G09G11G14G16G18G21G26G27G31
                                R01R06R07R08R09R10R16R19R20
  24599737.000   129272469.070 7  24599740.060   100731794.59447  24599740.220
  96534635.056 7
  21229864.480   111563700.342 8  21229864.920    86932753.34748  21229867.700
  83310564.103 9
  21433516.400   112633900.097 9  21433519.320    87766681.09849  21433517.500
  84109731.938 9
  23777381.740   124950984.527 7  23777383.820    97364411.62147  23777383.680
  93307567.294 8
  24783365.320   130237464.927 8  24783364.580   101483738.32345

  23862290.980   125397150.258 7  23862290.860    97712054.41645

  21037962.080   110555222.542 9  21037960.620    86146911.06748

  25472913.900   133861067.556 6  25472916.040   104307329.99045  25472921.260
  99961212.741 6
  24917259.680   130941092.923 7  24917261.420   102032030.97745

  22572995.680   118621872.914 8  22572998.360    92432624.67848  22572997.020
  88581259.191 8
  20202296.300   106163776.204 9  20202297.240    82725013.48049  20202296.760
  79278137.237 9
  23084289.240   121308734.256 9  23084289.420    94526265.25448

  24219299.420   129466035.502 6  24219303.880   100695820.452 3

  23606045.360   125966362.681 6

  21129685.180   113108864.834 9  21129686.340    87973554.002 8

  21674494.840   116065949.988 9  21674494.820    90273511.626 7

  21165630.400   113023269.876 9  21165631.080    87906985.538 8

  21797278.260   116191739.957 8

  23956550.440   127971552.192 6  23956553.860    99533418.188 4

  21583252.260   115455856.741 6  21583253.100    89798998.163 6

  20841312.140   111447862.432 6  20841315.520    86681689.122 8

 20  5 25  0 19  0.0000000  0 21G03G04G08G09G11G14G16G18G21G26G27G31
                                R01R06R07R08R09R10R16R19R20
  24610421.160   129328613.567 7  24610424.040   100775543.48947  24610424.020
  96576561.092 7
  21222083.600   111522811.494 8  21222084.060    86900891.91248  21222086.880
  83280030.237 9
  21417972.400   112552215.111 9  21417975.000    87703030.44949  21417973.460
  84048733.403 9
  23760922.120   124864488.302 7  23760924.080    97297011.97347  23760923.980
  93242975.972 8
  24765295.540   130142507.685 8  24765294.960   101409745.68545

  23882809.820   125504977.075 7  23882809.580    97796075.20345

  21046093.440   110597952.276 9  21046091.840    86180206.94948

  25474441.700   133869094.712 7  25474443.660   104313584.86745  25474448.720
  99967207.040 7
  24920352.840   130957347.410 7  24920354.240   102044696.77845

  22584913.440   118684500.600 8  22584916.100    92481425.45048  22584914.640
  88628026.599 9
  20197366.400   106137869.021 9  20197367.200    82704826.06749  20197366.780
  79258790.978 9
  23093274.220   121355950.426 9  23093274.380    94563057.05748

  24204562.180   129387256.987 6  24204567.000   100634548.180 3

  23628194.540   126084554.112 6

  21144751.600   113189516.365 9  21144752.860    88036282.937 8

  21671730.760   116051149.367 9  21671730.900    90262000.042 7

  21165996.560   113025223.994 9  21165996.940    87908505.372 8

  21791716.100   116162091.676 8

  23964831.640   128015789.255 6  23964834.660    99567825.009 4

  21590626.780   115495306.207 5  21590627.600    89829681.087 6

  20825921.360   111365561.453 6  20825924.800    86617677.248 8

 20  5 25  0 19 30.0000000  0 21G03G04G08G09G11G14G16G18G21G26G27G31
                                R01R06R07R08R09R10R16R19R20
  24621101.820   129384739.445 7  24621104.620   100819277.96647  24621104.380
  96618473.295 7
  21214403.420   111482452.267 8  21214404.080    86869443.17248  21214406.700
  83249891.859 9
  21402505.880   112470937.973 9  21402508.420    87639697.60949  21402507.020
  83988039.427 9
  23744521.760   124778303.944 7  23744523.780    97229855.35947  23744523.540
  93178617.570 8
  24747201.340   130047422.337 8  24747200.820   101335653.23145

  23903352.820   125612931.161 7  23903352.700    97880195.18644

  21054255.660   110640845.113 9  21054254.120    86213629.92948

  25476046.960   133877529.722 7  25476048.660   104320157.62544  25476053.340
  99973505.940 7
  24923516.900   130973973.730 7  24923518.200   102057652.35845

  22596826.780   118747105.333 8  22596829.380    92530208.31648  22596827.800
  88674776.834 9
  20192553.760   106112578.900 9  20192554.580    82685119.47949  20192554.240
  79239905.502 9
  23102298.480   121403371.574 9  23102298.320    94600008.59347

  24189919.180   129308981.469 5  24189924.180   100573667.204 3

  23650317.500   126202604.982 6

  21159901.240   113270612.811 9  21159902.180    88099357.938 8

  21669100.700   116037065.579 9  21669100.940    90251045.975 7

  21166359.220   113027160.631 9  21166359.520    87910011.625 8

  21786143.040   116132385.098 8

  23973115.820   128060041.585 6  23973118.980    99602243.438 4

  21598139.380   115535495.082 5  21598140.300    89860939.121 7

  20810629.640   111283790.006 6  20810633.200    86554077.233 8

 20  5 25  0 20  0.0000000  0 21G03G04G08G09G11G14G16G18G21G26G27G31
                                R01R06R07R08R09R10R16R19R20
  24631778.600   129440846.922 7  24631781.780   100862998.01347  24631781.440
  96660371.658 8
  21206824.820   111442627.062 8  21206825.500    86838410.54448  21206827.980
  83220152.256 9
  21387117.860   112390073.561 9  21387120.420    87576686.37649  21387119.120
  83927653.659 9
  23728181.900   124692436.898 8  23728183.780    97162946.01648  23728183.560
  93114496.122 8
  24729083.680   129952213.943 7  24729083.400   101261464.92145

  23923920.040   125721012.699 7  23923920.080    97964414.47745

  21062449.000   110683901.946 9  21062447.740    86247180.69048

  25477730.120   133886376.341 7  25477731.180   104327051.08945  25477736.420
  99980112.179 7
  24926752.120   130990974.736 7  24926753.320   102070899.88645

  22608736.120   118809689.082 8  22608738.540    92578974.85948  22608736.860
  88721511.440 8
  20187859.180   106087909.388 9  20187860.120    82665896.47949  20187859.700
  79221483.454 9
  23111362.360   121451001.117 9  23111361.660    94637122.52447

  24175371.340   129231214.584 7  24175376.180   100513181.846 4

  23672413.780   126320514.574 5

  21175133.700   113352152.581 9  21175134.480    88162777.725 8

  21666605.040   116023701.230 8  21666605.160    90240651.479 7

  21166719.480   113029083.660 9  21166719.680    87911507.297 8

  21780559.780   116102622.506 8

  23981403.760   128104314.043 6  23981406.700    99636677.520 4

  21605790.360   115576424.926 5  21605791.780    89892773.461 6

  20795438.300   111202555.407 6  20795441.900    86490894.774 8

 20  5 25  0 20 30.0000000  0 22G03G04G08G09G11G14G16G18G21G26G27G31
                                R01R06R07R08R09R10R16R19R20R21
  24642451.020   129496929.549 8  24642454.040   100906698.71648  24642453.640
  96702251.487 7
  21199347.320   111403333.612 8  21199348.020    86807792.27348  21199350.560
  83190809.748 9
  21371808.180   112309620.568 9  21371810.680    87513995.73149  21371809.480
  83867575.135 9
  23711902.440   124606885.943 8  23711904.040    97096282.97147  23711903.760
  93050610.724 8
  24710942.160   129856880.850 7  24710942.140   101187179.43045

  23944510.520   125829215.199 7  23944510.320    98048728.03745

  21070672.580   110727116.927 9  21070671.440    86280854.67048

  25479491.120   133895631.696 6  25479492.540   104334263.08544  25479497.420
  99987023.671 6
  24930058.160   131008347.526 7  24930059.420   102084437.13945

  22620640.660   118872247.400 8  22620642.800    92627721.59848  22620641.180
  88768227.057 8
  20183282.100   106063857.372 9  20183283.280    82647154.64649  20183282.580
  79203522.525 9
  23120465.120   121498836.107 9  23120464.140    94674396.52647

  24160918.600   129153955.158 6  24160923.320   100453091.098 4

  23694482.180   126438275.547 5

  21190447.420   113434127.611 9  21190448.120    88226536.043 8

  21664242.880   116011052.161 9  21664242.980    90230813.324 7

  21167076.520   113030989.571 9  21167076.540    87912989.636 8

  21774965.500   116072799.943 8

  23989695.220   128148604.132 6  23989697.840    99671125.363 4

  21613579.240   115618090.577 5  21613580.560    89925180.096 7

  20780347.400   111121858.340 6  20780351.060    86428130.388 8

  23857304.160   127665260.083 5  23857306.640    99295208.180 1

 20  5 25  0 21  0.0000000  0 22G03G04G08G09G11G14G16G18G21G26G27G31
                                R01R06R07R08R09R10R16R19R20R21
  24653118.880   129552988.047 7  24653121.540   100950380.66147  24653121.420
  96744113.328 7
  21191972.040   111364576.756 8  21191972.640    86777592.12648  21191975.320
  83161867.938 9
  21356577.860   112229584.891 9  21356580.500    87451630.27449  21356579.220
  83807808.231 9
  23695684.080   124521656.858 8  23695685.660    97029870.76148  23695685.240
  92986965.679 8
  24692778.100   129761428.580 7  24692777.940   101112801.06545

  23965124.220   125937539.854 7  23965124.100    98133136.78245

  21078926.500   110770491.764 9  21078925.460    86314653.22648

  25481331.160   133905299.742 7  25481332.200   104341796.59945  25481337.200
  99994243.300 7
  24933435.840   131026096.180 7  24933436.980   102098267.25945

  22632540.800   118934782.716 8  22632542.840    92676450.38748  22632541.340
  88814925.472 9
  20178823.340   106040426.795 9  20178824.660    82628897.06249  20178823.880
  79186025.672 9
  23129607.420   121546880.095 9  23129606.620    94711833.37447

  24146562.040   129077209.470 6  24146566.660   100393400.032 4

  23716522.900   126555888.001 5

  21205842.340   113516536.603 9  21205842.680    88290631.921 8

  21662015.300   115999121.426 9  21662014.980    90221533.860 7

  21167430.980   113032882.782 9  21167430.940    87914462.127 8

  21769360.340   116042920.436 8

  23997990.840   128192917.084 6  23997993.260    99705590.932 4

  21621506.420   115660494.094 5  21621507.300    89958160.631 6

  20765358.320   111041706.381 6  20765362.140    86365789.992 8

  23833388.160   127537280.439 5  23833390.900    99195669.474 3

 20  5 25  0 21 30.0000000  0 22G03G04G08G09G11G14G16G18G21G26G27G31
                                R01R06R07R08R09R10R16R19R20R21
  24663781.360   129609019.650 7  24663783.560   100994041.64648  24663784.080
  96785955.124 8
  21184699.420   111326357.863 8  21184699.740    86747811.17048  21184702.540
  83133327.868 9
  21341427.640   112149968.844 9  21341430.220    87389591.80249  21341428.860
  83748354.705 9
  23679527.200   124436752.141 7  23679528.940    96963711.29047  23679528.180
  92923562.855 8
  24674591.880   129665859.283 7  24674591.460   101038331.48344

  23985760.300   126045983.791 7  23985760.220    98217638.43245

  21087210.440   110814024.292 8  21087209.420    86348574.64348

  25483250.240   133915381.157 7  25483251.060   104349652.25345  25483255.900
 100001771.651 7
  24936885.200   131044221.060 7  24936885.640   102112390.55844

  22644436.240   118997294.227 8  22644438.560    92725160.63548  22644437.100
  88861606.136 9
  20174482.980   106017618.218 9  20174484.320    82611124.15049  20174483.700
  79168993.300 9
  23138789.640   121595133.794 9  23138789.300    94749433.61947

  24132302.000   129000979.789 6  24132306.520   100334110.246 4

  23738535.060   126673348.251 4

  21221317.240   113599375.468 9  21221317.580    88355062.129 8

  21659921.580   115987908.090 9  21659920.940    90212812.386 7

  21167783.100   113034763.702 9  21167783.020    87915925.065 8

  21763744.460   116012983.417 8

  24006290.760   128237253.713 6  24006293.220    99740074.943 4

  21629571.100   115703633.929 5  21629571.840    89991713.855 7

  20750472.260   110962104.054 6  20750476.060    86303877.079 8

  23809453.540   127409198.418 6  23809455.560    99096050.169 3

 20  5 25  0 22  0.0000000  0 22G03G04G08G09G11G14G16G18G21G26G27G31
                                R01R06R07R08R09R10R16R19R20R21
  24674437.780   129665020.012 8  24674439.980   101037678.26548  24674440.680
  96827773.546 8
  21177529.300   111288676.694 8  21177529.320    86718449.22748  21177532.140
  83105189.340 9
  21326357.120   112070772.650 9  21326359.840    87327880.48449  21326358.280
  83689214.689 9
  23663432.020   124352172.587 7  23663434.100    96897805.19148  23663433.000
  92860402.847 8
  24656383.640   129570173.364 7  24656382.740   100963771.04744

  24006418.380   126154542.516 7  24006418.480    98302229.54845

  21095523.780   110857710.923 9  21095522.700    86382616.14548

  25485247.400   133925875.129 6  25485248.660   104357829.33944  25485252.920
 100009608.043 6
  24940405.800   131062721.168 7  24940406.000   102126806.22745

  22656326.460   119059779.434 8  22656329.280    92773850.35948  22656327.720
  88908267.108 9
  20170260.840   105995430.504 9  20170262.160    82593835.02749  20170261.620
  79152424.561 9
  23148011.700   121643596.198 9  23148011.440    94787196.52847

  24118138.300   128925267.058 6  24118143.100   100275222.569 4

  23760517.620   126790650.817 4

  21236871.260   113682637.815 9  21236871.860    88419821.714 8

  21657961.120   115977410.432 9  21657960.620    90204647.544 7

  21168132.940   113036631.684 9  21168133.020    87917377.942 8

  21758117.400   115982987.565 8

  24014594.900   128281613.526 5  24014597.800    99774576.763 4

  21637772.920   115747507.036 5  21637773.420    90025837.402 7

  20735689.580   110883053.878 6  20735693.320    86242393.624 8

  23785500.160   127281016.212 6  23785501.760    98996352.960 4

 20  5 25  0 22 30.0000000  0 22G03G04G08G09G11G14G16G18G21G26G27G31
                                R01R06R07R08R09R10R16R19R20R21
  24685088.220   129720988.838 7  24685090.440   101081290.30747  24685091.240
  96869568.419 7
  21170461.980   111251537.086 8  21170461.940    86689509.27848  21170464.800
  83077455.213 9
  21311367.340   111992001.251 9  21311370.260    87266500.18749  21311368.560
  83630391.902 9
  23647399.780   124267923.157 8  23647401.840    96832156.31748  23647400.920
  92797489.351 8
  24638154.200   129474375.452 8  24638153.120   100889123.32944

  24027098.280   126263215.976 7  24027098.300    98386910.05444

  21103866.620   110901552.317 9  21103865.380    86416778.24248

  25487323.460   133936784.843 6  25487324.740   104366330.42743  25487328.960
 100017754.900 6
  24943998.200   131081599.008 7  24943998.240   102141516.23845

  22668212.100   119122239.994 8  22668215.240    92822520.88948  22668213.540
  88954909.695 8
  20166157.460   105973866.621 9  20166158.740    82577032.00749  20166158.160
  79136321.665 9
  23157273.980   121692269.835 9  23157273.640    94825124.02247

  24104072.240   128850076.588 6  24104077.140   100216741.065 4

  23782470.080   126907795.300 3

  21252504.200   113766321.726 9  21252504.760    88484909.174 8

  21656134.480   115967630.009 9  21656134.380    90197040.538 7

  21168480.820   113038489.630 9  21168481.080    87918822.998 8

  21752479.640   115952934.751 8

  24022904.540   128326000.863 5  24022907.640    99809100.286 4

  21646111.860   115792114.499 5  21646112.160    90060532.122 7

  20721011.260   110804562.745 6  20721015.020    86181344.969 8

  23761529.000   127152740.010 6  23761530.180    98896582.595 4

 20  5 25  0 23  0.0000000  0 22G03G04G08G09G11G14G16G18G21G26G27G31
                                R01R06R07R08R09R10R16R19R20R21
  24695731.480   129776919.802 7  24695733.480   101124872.83346  24695734.280
  96911335.011 6
  21163497.120   111214936.725 8  21163497.240    86660989.51748  21163500.060
  83050123.779 9
  21296458.060   111913653.073 9  21296461.100    87205449.66949  21296459.280
  83571885.156 9
  23631430.140   124184002.610 8  23631432.140    96766763.70248  23631431.460
  92734821.428 8
  24619903.000   129378464.134 7  24619901.840   100814387.23944

  24047798.780   126371997.709 7  24047798.900    98471674.94945

  21112237.820   110945542.813 9  21112236.360    86451056.55748

  25489478.000   133948107.250 7  25489479.080   104375153.10344  25489482.820
 100026209.946 6
  24947661.960   131100851.705 7  24947661.760   102156518.32644

  22680092.480   119184671.563 8  22680095.540    92871168.86748  22680093.920
  89001530.660 9
  20162172.100   105952923.321 9  20162173.280    82560712.55549  20162172.700
  79120682.192 9
  23166575.880   121741151.639 8  23166575.420    94863213.71347

  24090103.760   128775407.180 7  24090108.620   100158664.818 4

  23804392.080   127024796.234 3

  21268214.180   113850418.811 9  21268214.940    88550317.987 8

  21654441.140   115958563.102 9  21654441.220    90189988.486 7

  21168826.360   113040334.872 9  21168826.620    87920258.151 8

  21746830.160   115922821.106 8

  24031218.640   128370413.213 5  24031221.700    99843643.106 4

  21654587.120   115837450.772 5  21654587.360    90095793.676 7

  20706437.520   110726630.844 6  20706441.300    86120731.281 8

  23737539.860   127024369.803 6  23737541.240    98796739.174 4

 20  5 25  0 23 30.0000000  0 21G03G04G08G09G11G14G16G18G21G26G27G31
                                R01R07R08R09R10R16R19R20R21
  24706367.860   129832814.051 7  24706369.800   101168426.74846  24706370.440
  96953074.168 6
  21156635.980   111178880.805 8  21156636.100    86632893.99348  21156638.980
  83023198.898 9
  21281630.680   111835734.513 9  21281633.580    87144733.91649  21281631.780
  83513699.228 9
  23615524.300   124100417.154 8  23615526.300    96701632.20448  23615525.780
  92672403.766 8
  24601631.200   129282445.061 7  24601630.080   100739567.18545

  24068520.100   126480888.915 7  24068520.600    98556525.10245

  21120637.620   110989684.310 9  21120636.260    86485452.52048

  25491712.100   133959846.710 7  25491712.940   104384300.77344  25491716.720
 100034976.469 6
  24951397.480   131120483.443 7  24951397.380   102171815.78644

  22691967.820   119247077.119 8  22691970.840    92919796.57348  22691969.340
  89048132.220 8
  20158305.540   105932604.897 9  20158306.800    82544880.01549  20158306.140
  79105509.335 9
  23175918.220   121790245.904 9  23175917.620    94901468.95447

  24076233.980   128701265.182 7  24076238.660   100100998.796 4

  21284001.200   113934928.674 9  21284002.180    88616047.850 8

  21652881.660   115950212.387 9  21652881.540    90183493.467 7

  21169170.160   113042171.778 9  21169170.700    87921686.843 8

  21741169.940   115892650.042 8

  24039538.500   128414855.861 5  24039541.800    99878209.468 3

  21663198.820   115883518.475 5  21663199.400    90131624.139 7

  20691970.020   110649266.826 6  20691973.940    86060559.266 8

  23713534.540   126895913.052 6  23713536.000    98696828.432 4

 20  5 25  0 24  0.0000000  0 21G03G04G08G09G11G14G16G18G21G26G27G31
                                R01R07R08R09R10R16R19R20R21
  24716995.940   129888665.017 6  24716998.020   101211946.95346  24716998.460
  96994781.019 5
  21149878.120   111143366.668 9  21149877.940    86605220.63148  21149880.940
  82996678.599 9
  21266884.800   111758243.536 9  21266887.360    87084351.33949  21266885.600
  83455832.595 9
  23599682.160   124017165.368 8  23599684.060    96636760.69348  23599683.680
  92610235.241 8
  24583338.300   129186316.560 7  24583337.580   100664661.85745

  24089260.840   126589882.852 6  24089261.620    98641455.29545

  21129064.860   111033971.087 8  21129063.740    86519961.68148

  25494024.660   133971999.960 6  25494025.760   104393770.83045  25494029.680
 100044051.903 7
  24955204.680   131140490.845 7  24955204.760   102187405.97745

  22703837.240   119309451.844 8  22703840.340    92968400.22848  22703838.880
  89094710.719 8
  20154557.160   105912907.776 9  20154558.600    82529531.60749  20154557.840
  79090800.446 9
  23185300.500   121839549.316 9  23185299.900    94939887.18147

  24062462.620   128627649.007 7  24062467.020   100043741.746 4

  21299863.980   114019842.735 9  21299864.800    88682092.084 8

  21651455.180   115942573.762 9  21651455.120    90177552.301 7

  21169511.700   113043997.283 9  21169512.500    87923106.662 8

  21735498.180   115862417.675 8

  24047863.460   128459327.121 6  24047866.780    99912798.501 4

  21671946.040   115930311.932 5  21671947.120    90168019.064 7

  20677608.660   110572470.527 6  20677612.840    86000828.829 8

  23689512.880   126767369.774 7  23689514.620    98596850.420 4

 20  5 25  0 24 30.0000000  0 21G03G04G08G09G11G14G16G18G21G26G27G31
                                R01R07R08R09R10R16R19R20R21
  24727616.100   129944473.862 5  24727618.100   101255434.33445  24727618.420
  97036456.375 4
  21143224.260   111108399.444 9  21143223.820    86577973.44148  21143226.920
  82970566.709 9
  21252221.360   111681186.166 9  21252223.760    87024306.64549  21252221.900
  83398289.760 9
  23583904.720   123934253.534 8  23583906.640    96572154.08748  23583906.180
  92548320.571 8
  24565025.560   129090084.932 7  24565025.420   100589676.18945

  24110021.640   126698981.148 7  24110022.320    98726466.83545

  21137520.340   111078405.228 9  21137519.280    86554585.65847

  25496416.540   133984571.452 6  25496418.220   104403566.74345  25496422.040
 100053439.686 6
  24959084.040   131160877.826 7  24959084.520   102203291.93044

  22715701.440   119371798.891 8  22715704.760    93016982.34948  22715703.160
  89141268.582 8
  20150927.980   105893836.183 9  20150929.440    82514670.62749  20150928.720
  79076558.666 9
  23194723.360   121889066.507 9  23194722.840    94978471.98047

  24048791.040   128554565.117 7  24048795.060    99986898.688 3

  21315802.080   114105160.322 9  21315802.760    88748450.178 8

  21650162.480   115935650.001 9  21650162.260    90172167.162 7

  21169852.300   113045815.972 9  21169853.060    87924521.185 8

  21729815.920   115832127.323 8

  24056194.720   128503830.581 6  24056197.840    99947412.486 4

  21680829.580   115977833.322 6  21680830.800    90204980.141 6

  20663355.080   110496250.425 6  20663359.360    85941546.533 8

  23665476.400   126638747.528 7  23665478.500    98496810.979 4

 20  5 25  0 25  0.0000000  0 21G03G04G08G09G11G14G16G18G21G26G27G31
                                R01R07R08R09R10R16R19R20R21
  24738227.180   130000235.308 4  24738229.060   101298884.78144  24738229.200
  97078096.445 4
  21136674.040   111073977.851 8  21136673.660    86551151.41248  21136676.660
  82944862.262 9
  21237640.180   111604561.811 9  21237642.580    86964599.36249  21237640.680
  83341070.289 9
  23568191.640   123851681.474 8  23568193.700    96507812.23548  23568193.320
  92486659.635 8
  24546693.320   128993749.501 7  24546693.500   100514609.63645

  24130801.320   126808178.410 7  24130801.840    98811555.49644

  21146003.040   111122981.768 9  21146001.920    86589320.61447

  25498887.820   133997559.338 6  25498889.900   104413687.13845  25498893.680
 100063138.377 6
  24963035.440   131181642.387 7  24963035.620   102219472.11444

  22727559.980   119434115.006 8  22727563.320    93065540.39048  22727561.600
  89187803.381 8
  20147417.520   105875387.916 9  20147418.880    82500295.35449  20147418.340
  79062782.375 9
  23204186.300   121938794.868 8  23204185.840    95017221.33247

  24035219.020   128482013.508 7  24035222.820    99930469.617 4

  21331814.060   114190874.625 9  21331815.180    88815116.825 8

  21649002.400   115929437.664 9  21649002.280    90167335.345 7

  21170191.340   113047626.258 9  21170192.140    87925929.146 8

  21724122.440   115801776.453 8

  24064531.700   128548365.552 6  24064535.020    99982050.743 4

  21689848.500   116026078.313 5  21689849.340    90242504.037 6

  20649209.660   110420607.675 6  20649213.820    85882713.286 8

  23641425.480   126510047.385 8  23641427.800    98396710.928 5

 20  5 25  0 25 30.0000000  0 21G03G04G08G09G11G14G16G18G21G26G27G31
                                R01R07R08R09R10R16R19R20R21
  24748828.880                    24748830.700                    24748830.920
  97119728.731 4
  21130227.600   111040103.687 8  21130227.620    86524755.96848  21130230.660
  82919566.636 9
  21223142.120   111528373.686 9  21223144.480    86905232.00849  21223142.640
  83284176.584 9
  23552543.780   123769452.308 8  23552545.840    96443737.55448  23552545.720
  92425254.746 8
  24528342.120   128897313.149 7  24528342.160   100439464.41345

  24151599.360   126917472.601 7  24151599.840    98896719.71346

  21154512.540   111167699.921 8  21154511.540    86624165.91048

  25501438.480   134010964.823 5  25501441.000   104424132.98145  25501445.080
 100073148.992 6
  24967059.120   131202785.562 7  24967059.080   102235947.31144

  22739412.500   119496399.983 8  22739415.660    93114074.14248  22739414.080
  89234314.894 8
  20144025.740   105857563.895 9  20144026.980    82486406.49249  20144026.580
  79049472.219 9
  23213689.700   121988735.564 8  23213689.240    95056136.14847

  24021747.020   128409997.439 7  24021750.940    99874457.069 4

  21347899.300   114276981.170 9  21347900.540    88882088.555 8

  21647975.060   115923937.074 9  21647975.000    90163057.112 7

  21170529.200   113049429.373 9  21170529.960    87927331.561 8

  21718417.100   115771365.211 8

  24072874.980   128592933.917 6  24072877.960   100016714.994 4

  21699002.560   116075046.085 6  21699003.380    90280590.075 7

  20635173.080   110345547.592 6  20635177.100    85824333.229 8

  23617360.880   126381273.719 8  23617363.420    98296553.711 5

 20  5 25  0 26  0.0000000  0 21G03G04G08G09G11G14G16G18G21G26G27G31
                                R01R07R08R09R10R16R19R20R21
  24759420.240   130111630.363 4  24759422.100   101385694.37154

  21123885.540   111006777.067 8  21123885.780    86498787.16548  21123888.640
  82894679.861 9
  21208727.260   111452622.258 9  21208729.400    86846204.92249  21208727.740
  83227608.961 9
  23536961.340   123687567.203 7  23536963.700    96379930.98847  23536963.660
  92364106.801 8
  24509971.900   128800776.645 7  24509971.840   100364241.16045

  24172414.960   127026859.740 7  24172415.720    98981956.31845

  21163048.560   111212556.678 9  21163047.600    86659119.22748

  25504068.720   134024787.135 6  25504071.400   104434903.57345  25504075.380
 100083470.793 6
  24971154.560   131224306.575 7  24971154.180   102252716.94844

  22751258.600   119558651.811 8  22751261.640    93162582.00048  22751260.360
  89280801.578 8
  20140752.420   105840363.199 9  20140753.740    82473003.34849  20140753.400
  79036627.534 9
  23223233.320   122038888.004 8  23223233.040    95095215.97147

  24008375.260   128338517.740 6  24008379.200    99818861.689 4

  21364056.920   114363474.606 9  21364058.120    88949361.196 8

  21647079.940   115919145.966 9  21647080.260    90159330.706 7

  21170865.840   113051225.116 9  21170866.260    87928728.239 8

  21712700.240   115740892.546 8

  24081224.520   128637536.367 6  24081227.300   100051405.784 4

  21708291.040   116124733.043 5  21708291.960    90319235.507 6

  20621245.860   110271072.726 6  20621249.960    85766408.344 8

  23593283.280   126252429.387 8  23593285.640    98196341.526 5

 20  5 25  0 26 30.0000000  0 20G04G08G09G11G14G16G18G21G26G27G31R01
                                R07R08R09R10R16R19R20R21
  21117648.500   110974001.988 8  21117648.920    86473248.13748  21117651.620
  82870204.957 9
  21194396.460   111377312.891 9  21194398.300    86787522.30849  21194396.920
  83171371.454 9
  23521445.440   123606031.415 7  23521448.100    96316396.65147  23521448.060
  92303219.726 8
  24491583.560   128704145.155 7  24491583.340   100288943.94545

  24193248.420   127136339.928 7  24193249.420    99067265.41345

  21171611.400   111257552.906 9  21171610.240    86694181.21647

  25506779.060   134039029.543 6  25506780.920   104446001.57544  25506785.680
 100094106.359 6
  24975322.340   131246208.375 7  24975321.800   102269783.26144

  22763098.820   119620872.700 8  22763101.840    93211065.78848  22763100.660
  89327265.211 8
  20137598.360   105823788.891 9  20137599.820    82460088.30349  20137599.400
  79024250.619 9
  23232817.960   122089255.459 8  23232817.680    95134463.35347

  23995104.860   128267579.924 6  23995108.680    99763687.820 4

  21380286.720   114450353.166 9  21380287.740    89016933.374 8

  21646317.640   115915066.265 9  21646318.320    90156157.613 7

  21171201.640   113053016.879 9  21171201.840    87930121.807 8

  21706972.420   115710360.796 8

  24089581.220   128682176.724 6  24089583.920   100086126.070 4

  21717714.260   116175140.860 5  21717715.280    90358441.576 7

  20607429.560   110197190.261 6  20607433.540    85708944.210 8

  23569193.660   126123520.852 8  23569195.860    98096079.403 5

 20  5 25  0 27  0.0000000  0 20G04G08G09G11G14G16G18G21G26G27G31R01
                                R07R08R09R10R16R19R20R21
  21111516.860   110941778.773 9  21111517.020    86448139.14048  21111519.580
  82846142.160 9
  21180149.920   111302446.511 9  21180151.560    86729184.87349  21180150.340
  83115464.746 9
  23505996.480   123524846.532 8  23505999.220    96253135.75348  23505999.240
  92242594.705 8
  24473177.540   128607420.408 7  24473177.200   100213574.04945

  24214099.120   127245909.648 7  24214100.140    99152644.27946

  21180200.180   111302685.757 9  21180198.800    86729349.65548

  25509569.040   134053691.930 6  25509571.020   104457426.87545  25509575.700
 100105055.574 6
  24979562.140   131268490.511 7  24979561.780   102287145.96245

  22774932.860   119683061.092 8  22774935.840    93259524.24648  22774934.700
  89373704.569 8
  20134563.520   105807840.400 9  20134564.980    82447660.89749  20134564.500
  79012341.018 9
  23242443.220   122139837.107 8  23242443.160    95173877.62247

  23981935.900   128197185.494 7  23981939.900    99708936.567 4

  21396587.440   114537611.455 9  21396588.260    89084800.907 8

  21645688.240   115911696.306 9  21645688.700    90153536.524 7

  21171536.640   113054805.087 9  21171536.620    87931512.619 8

  21701233.420   115679769.566 8

  24097945.220   128726855.700 6  24097947.700   100120876.368 4

  21727271.520   116226266.505 5  21727272.680    90398205.975 6

  20593724.420   110123903.480 6  20593728.560    85651943.395 8

  23545092.680   125994551.167 9  23545094.460    97995769.749 6

 20  5 25  0 27 30.0000000  0 20G04G08G09G11G14G16G18G21G26G27G31R01
                                R07R08R09R10R16R19R20R21
  21105490.180   110910108.301 8  21105490.380    86423460.85848  21105492.840
  82822492.138 9
  21165987.940   111228025.253 9  21165989.700    86671194.29349  21165988.460
  83059890.440 9
  23490614.700   123444014.657 8  23490617.500    96190149.92948  23490617.460
  92182233.300 8
  24454754.020   128510604.083 8  24454753.740   100138132.80245

  24234966.360   127355566.263 7  24234967.460    99238090.86945

  21188814.280   111347953.216 8  21188812.860    86764622.99448

  25512439.020   134068774.452 6  25512441.380   104469179.46745  25512445.920
 100116318.484 7
  24983874.260   131291152.927 6  24983874.080   102304804.98645

  22786760.500   119745216.033 8  22786763.440    93307956.62948  22786762.420
  89420118.920 8
  20131647.680   105792517.644 9  20131649.240    82435721.09349  20131648.720
  79000898.700 9
  23252109.400   122190633.441 8  23252109.360    95213459.18347

  23968868.920   128127336.400 6  23968873.420    99654609.445 4

  21412958.040   114625244.695 9  21412959.000    89152960.063 8

  21645191.500   115909034.717 9  21645191.680    90151466.386 7

  21171870.800   113056590.134 9  21171870.900    87932900.969 8

  21695483.180   115649118.204 8

  24106316.500   128771574.395 6  24106318.880   100155657.517 4

  21736962.620   116278107.965 5  21736963.740    90438527.126 6

  20580131.360   110051216.245 6  20580135.500    85595408.892 8

  23520980.900   125865524.006 9  23520982.420    97895415.372 6

 20  5 25  0 28  0.0000000  0 20G04G08G09G11G14G16G18G21G26G27G31R01
                                R07R08R09R10R16R19R20R21
  21099568.500   110878990.217 8  21099568.940    86399212.99448  21099571.240
  82799254.602 9
  21151910.760   111154049.633 9  21151912.580    86613550.95049  21151911.340
  83004648.911 9
  23475300.200   123363536.645 8  23475303.080    96127439.83948  23475302.940
  92122136.140 8
  24436313.320   128413696.873 8  24436312.900   100062620.69645

  24255849.220   127465305.322 7  24255850.180    99323601.70344

  21197453.240   111393352.090 8  21197451.920    86799998.73048

  25515388.740   134084275.960 6  25515391.040   104481258.51644  25515395.920
 100127894.243 7
  24988259.000   131314194.655 7  24988258.680   102322759.56745

  22798581.500   119807335.250 8  22798584.320    93356361.15048  22798583.240
  89466506.586 8
  20128850.600   105777819.257 9  20128852.360    82424267.80349  20128851.680
  78989922.632 9
  23261816.180   122241643.450 8  23261816.180    95253207.21847

  23955904.000   128058033.509 6  23955908.860    99600707.184 4

  21429397.560   114713246.602 9  21429398.440    89221405.965 8

  21644826.580   115907079.329 9  21644826.660    90149945.520 7

  21172204.040   113058371.345 9  21172204.340    87934286.340 8

  21689721.780   115618404.965 8

  24114695.240   128816332.278 6  24114697.720   100190469.193 4

  21746786.820   116330661.589 5  21746787.740    90479402.177 6

  20566651.020   109979130.932 6  20566654.960    85539342.545 8

  23496858.700   125736441.498 8  23496860.220    97795017.939 6

 20  5 25  0 28 30.0000000  0 20G04G08G09G11G14G16G18G21G26G27G31R01
                                R07R08R09R10R16R19R20R21
  21093752.460   110848427.582 9  21093753.120    86375397.94248  21093755.380
  82776431.834 9
  21137919.280   111080523.462 9  21137921.100    86556257.83949  21137919.700
  82949743.008 9
  23460053.960   123283416.800 8  23460056.600    96065008.82648  23460056.680
  92062306.419 8
  24417856.120   128316702.915 8  24417855.520    99987040.99945

  24276747.600   127575126.351 7  24276748.700    99409176.38245

  21206117.180   111438882.382 9  21206115.980    86835476.87748

  25518418.860   134100198.875 6  25518421.200   104493665.98044  25518425.980
 100139784.792 7
  24992716.200   131337617.683 7  24992716.120   102341011.27745

  22810396.040   119869420.116 8  22810398.780    93404738.93048  22810397.520
  89512868.606 8
  20126172.860   105763747.318 9  20126174.620    82413302.64949  20126173.820
  78979414.358 9
  23271564.060   122292869.441 8  23271564.300    95293123.55047

  23943042.420   127989281.242 6  23943047.140    99547233.187 4

  21445905.380   114801614.701 9  21445906.300    89290136.676 8

  21644593.700   115905830.762 9  21644593.700    90148974.388 7

  21172537.340   113060151.717 9  21172537.660    87935671.062 8

  21683949.100   115587632.076 8

  24123082.260   128861133.146 6  24123084.620   100225314.228 4

  21756744.300   116383927.869 5  21756745.000    90520831.503 6

  20553284.480   109907653.776 6  20553288.240    85483749.214 8

  23472727.140   125607309.500 8  23472728.880    97694582.034 6

 20  5 25  0 29  0.0000000  0 20G04G08G09G11G14G16G18G21G26G27G31R01
                                R07R08R09R10R16R19R20R21
  21088042.300   110818420.210 8  21088042.960    86352015.56848  21088045.180
  82754023.739 9
  21124013.680   111007447.635 9  21124015.220    86499315.63049  21124013.780
  82895173.397 9
  23444875.820   123203656.218 8  23444878.400    96002857.75848  23444878.760
  92002745.005 8
  24399382.520   128219623.226 8  24399381.660    99911394.49445

  24297660.780   127685025.451 6  24297662.000    99494811.90144

  21214805.600   111484540.907 8  21214804.480    86871054.94148

  25521529.300   134116542.588 6  25521531.380   104506401.37945  25521536.040
 100151989.475 6
  24997245.760   131361421.049 7  24997246.180   102359559.34245

  22822203.480   119931468.674 8  22822206.240    93453088.41548  22822205.000
  89559203.525 8
  20123614.120   105750300.701 9  20123615.780    82402824.76449  20123614.980
  78969373.058 9
  23281353.040   122344310.177 8  23281353.160    95333207.22447

  23930284.000   127921080.365 6  23930288.900    99494188.040 4

  21462480.740   114890343.203 9  21462481.800    89359147.701 8

  21644492.140   115905286.602 9  21644492.040    90148551.167 7

  21172870.400   113061930.821 9  21172871.040    87937054.799 8

  21678164.820   115556797.839 8

  24131477.360   128905976.867 6  24131479.740   100260192.663 4

  21766834.400   116437903.049 5  21766835.140    90562812.199 6

  20540032.180   109836787.296 6  20540035.980    85428630.852 8

  23448587.040   125478130.903 8  23448588.780    97594109.883 6

 20  5 25  0 29 30.0000000  0 20G04G08G09G11G14G16G18G21G26G27G31R01
                                R07R08R09R10R16R19R20R21
  21082438.080   110788969.667 8  21082438.580    86329067.08948  21082441.040
  82732031.439 9
  21110194.180   110934824.884 9  21110195.620    86442726.47749  21110194.180
  82840942.116 9
  23429766.780   123124257.814 8  23429769.280    95940988.90648  23429769.680
  91943454.030 8
  24380893.120   128122460.513 8  24380892.160    99835683.31045

  24318588.360   127795000.511 7  24318589.800    99580506.63245

  21223518.240   111530326.263 9  21223517.220    86906731.81547

  25524719.600   134133307.895 6  25524721.880   104519465.22745  25524726.360
 100164509.002 7
  25001848.160   131385605.521 7  25001848.680   102378404.36145

  22834003.900   119993480.848 8  22834006.760    93501409.57648  22834005.580
  89605511.300 8
  20121174.540   105737479.965 9  20121176.000    82392834.58249  20121175.300
  78959799.135 9
  23291183.080   122395966.920 8  23291183.220    95373459.19547

  23917629.680   127853433.866 6  23917634.460    99441574.113 4

  21479122.800   114979428.034 9  21479123.560    89428435.883 8

  21644521.960   115905446.584 9  21644521.920    90148675.595 7

  21173203.580   113063709.887 9  21173204.180    87938438.482 8

  21672368.760   115525902.577 8

  24139880.660   128950865.461 6  24139883.480   100295105.966 4

  21777056.900   116492585.761 5  21777057.720    90605343.168 7

  20526895.120   109766536.461 6  20526898.660    85373991.325 8

  23424439.020   125348909.772 8  23424440.800    97493604.657 6

 20  5 25  0 30  0.0000000  0 20G04G08G09G11G14G16G18G21G26G27G31R01
                                R07R08R09R10R16R19R20R21
  21076940.220   110760077.445 8  21076940.660    86306553.65948  21076943.100
  82710456.059 9
  21096461.100   110862657.430 9  21096462.720    86386492.11149  21096461.380
  82787050.851 9
  23414727.320   123045224.430 8  23414729.840    95879404.52348  23414730.140
  91884435.662 8
  24362388.420   128025217.256 8  24362387.200    99759909.36045

  24339530.100   127905049.123 7  24339531.440    99666258.65845

  21232254.860   111576237.212 9  21232253.840    86942506.55748

  25527990.460   134150495.427 6  25527992.480   104532858.10845  25527997.020
 100177343.886 6
  25006522.880   131410171.759 7  25006523.000   102397546.88945

  22845797.500   120055456.375 8  22845800.400    93549702.17748  22845799.180
  89651791.710 8
  20118854.000   105725285.611 9  20118855.480    82383332.48649  20118854.860
  78950692.953 9
  23301054.320   122447840.592 8  23301054.660    95413880.21947

  23905079.520   127786344.623 6  23905084.340    99389393.595 4

  21495830.580   115068865.072 9  21495830.980    89497997.988 7

  21644683.220   115906309.945 9  21644683.120    90149347.065 7

  21173536.820   113065490.518 9  21173537.600    87939823.398 8

  21666561.620   115494947.053 8

  24148292.800   128995800.858 6  24148295.760   100330055.663 4

  21787411.340   116547974.536 5  21787412.140    90648423.318 7

  20513873.640   109696905.073 6  20513877.200    85319833.603 8

  23400283.760   125219650.637 8  23400285.600    97393069.853 6

 20  5 25  0 30 30.0000000  0 20G04G08G09G11G14G16G18G21G26G27G31R01
                                R07R08R09R10R16R19R20R21
  21071548.840   110731745.705 8  21071549.340    86284476.96448  21071551.800
  82689299.225 9
  21082815.120   110790948.214 9  21082816.920    86330614.81349  21082815.760
  82733501.783 9
  23399758.300   122966559.489 8  23399760.340    95818107.20548  23399760.620
  91825692.419 8
  24343868.980   127927897.102 8  24343867.720    99684075.51945

  24360485.680   128015170.004 7  24360486.900    99752067.01845

  21241015.280   111622273.248 9  21241014.100    86978378.77948

  25531341.900   134168107.050 6  25531343.940   104546581.46144  25531347.940
 100190495.462 6
  25011270.360   131435121.001 6  25011270.200   102416987.84746

  22857584.400   120117395.691 8  22857587.200    93597966.53048  22857585.960
  89698045.038 8
  20116653.000   105713718.799 9  20116654.360    82374319.38049  20116653.800
  78942055.390 9
  23310967.160   122499932.519 8  23310967.560    95454471.31847

  23892634.000   127719815.453 6  23892638.880    99337648.718 4

  21512603.140   115158650.900 9  21512603.480    89567831.382 7

  21644975.920   115907876.810 9  21644975.720    90150565.731 7

  21173870.900   113067274.749 9  21173871.780    87941211.089 8

  21660743.600   115463932.552 8

  24156713.900   129040785.068 6  24156717.020   100365043.330 4

  21797897.840   116604068.204 5  21797898.300    90692051.729 6

  20500968.900   109627898.584 6  20500972.580    85266161.899 8

  23376122.280   125090358.581 8  23376124.220    97292509.430 5

 20  5 25  0 31  0.0000000  0 20G04G08G09G11G14G16G18G21G26G27G31R01
                                R07R08R09R10R16R19R20R21
  21066263.840   110703973.139 8  21066264.180    86262836.00548  21066266.900
  82668559.962 9
  21069256.520   110719697.277 9  21069258.360    86275094.61049  21069257.140
  82680294.909 9
  23384859.180   122888263.026 8  23384861.040    95757097.01348  23384860.960
  91767224.309 8
  24325334.900   127830500.173 8  24325333.600    99608181.82844

  24381453.940   128125358.019 7  24381455.140    99837927.68244

  21249798.600   111668430.177 8  21249797.340    87014345.21147

  25534773.240   134186140.790 6  25534775.520   104560633.72044  25534779.300
 100203962.200 6
  25016090.420   131460451.265 6  25016090.260   102436725.72445

  22869363.780   120179295.949 8  22869366.440    93646200.44548  22869365.240
  89744269.196 8
  20114571.140   105702777.219 9  20114572.220    82365793.46149  20114571.620
  78933884.711 9
  23320921.320   122552240.805 8  23320921.520    95495231.01447

  23880293.320   127653846.540 6  23880298.000    99286339.603 4

  21529439.420   115248778.489 9  21529439.800    89637930.579 8

  21645399.140   115910143.145 9  21645398.900    90152328.430 7

  21174205.440   113069061.224 9  21174206.380    87942600.533 8

  21654913.680   115432856.104 8

  24165144.240   129085817.619 6  24165147.480   100400068.569 4

  21808514.700   116660862.428 5  21808515.580    90736225.002 7

  20488181.680   109559518.446 6  20488185.160    85212977.360 8

  23351954.920   124961035.167 8  23351956.960    97191924.609 6

 20  5 25  0 31 30.0000000  0 20G04G08G09G11G14G16G18G21G26G27G31R01
                                R07R08R09R10R16R19R20R21
  21061086.060   110676762.355 8  21061086.060    86241632.77948  21061088.740
  82648240.221 9
  21055785.760   110648908.111 9  21055787.500    86219934.22949  21055786.480
  82627432.884 9
  23370030.680   122810339.058 8  23370032.740    95696377.07148  23370032.260
  91709034.362 8
  24306787.000   127733030.279 8  24306785.700    99532231.27844

  24402434.740   128235612.268 7  24402435.900    99923839.96144

  21258604.920   111714708.037 8  21258603.560    87050405.85747

  25538285.780   134204598.426 5  25538287.940   104575016.37844  25538291.620
 100217745.537 6
  25020983.420   131486164.474 7  25020983.820   102456762.00345

  22881135.780   120241158.258 8  22881138.440    93694404.82948  22881137.140
  89790465.071 8
  20112608.420   105692462.507 9  20112609.320    82357756.00449  20112608.780
  78926182.155 9
  23330917.060   122604767.349 8  23330916.780    95536160.78147

  23868057.880   127588441.882 6  23868062.700    99235469.359 4

  21546339.220   115339244.873 9  21546339.820    89708293.299 7

  21645952.640   115913109.840 8  21645953.000    90154635.845 7

  21174541.100   113070852.864 9  21174541.900    87943993.989 8

  21649072.480   115401719.938 8

  24173583.900   129130901.505 6  24173587.200   100435133.787 4

  21819262.620   116718356.796 6  21819263.500    90780942.848 6

  20475512.320   109491770.444 6  20475516.000    85160284.490 8

  23327782.660   124831685.996 8  23327784.700    97091319.731 6

 20  5 25  0 32  0.0000000  0 20G04G08G09G11G14G16G18G21G26G27G31R01
                                R07R08R09R10R16R19R20R21
  21056015.300   110650113.936 8  21056014.980    86220867.76948  21056017.720
  82628340.422 9
  21042403.320   110578582.183 9  21042404.900    86165134.80749  21042403.680
  82574916.764 9
  23355273.440   122732789.475 8  23355275.580    95635948.84748  23355275.020
  91651124.006 8
  24288225.520   127635489.135 8  24288224.300    99456225.18044

  24423427.580   128345929.767 7  24423428.660   100009801.54644

  21267433.960   111761104.517 9  21267432.560    87086558.93347

  25541878.740   134223479.997 6  25541880.640   104589729.30344  25541884.700
 100231845.484 6
  25025949.460   131512260.274 7  25025950.100   102477096.39445

  22892900.360   120302981.578 8  22892903.060    93742578.82048  22892901.720
  89836631.804 8
  20110764.720   105682774.174 9  20110765.680    82350206.65249  20110765.180
  78918947.355 9
  23340954.260   122657512.238 8  23340953.680    95577260.68946

  23855928.360   127523603.095 6  23855933.200    99185039.185 4

  21563301.380   115430045.366 9  21563302.260    89778915.845 8

  21646636.520   115916774.921 9  21646637.260    90157486.422 7

  21174877.500   113072649.969 9  21174878.600    87945391.716 8

  21643220.180   115370523.651 8

  24182033.320   129176037.423 6  24182036.900   100470239.372 4

  21830141.260   116776548.615 5  21830141.860    90826203.124 7

  20462961.780   109424657.759 6  20462965.660    85108085.747 8

  23303606.140   124702314.761 8  23303608.320    96990697.705 6

 20  5 25  0 32 30.0000000  0 20G04G08G09G11G14G16G18G21G26G27G31R01
                                R07R08R09R10R16R19R20R21
  21051051.400   110624027.948 8  21051050.920    86200541.01148  21051053.820
  82608860.606 9
  21029109.160   110508720.678 9  21029110.540    86110697.26849  21029109.300
  82522747.456 9
  23340587.800   122655615.882 8  23340589.840    95575813.60048  23340589.460
  91593494.412 8
  24269650.720   127537878.168 8  24269649.620    99380164.71645

  24444431.660   128456306.813 7  24444432.660   100095809.36945

  21276285.060   111807617.062 9  21276283.740    87122802.46047

  25545552.160   134242785.082 5  25545554.540   104604772.25243  25545558.320
 100246261.653 6
  25030988.060   131538737.841 7  25030988.340   102497728.27745

  22904657.140   120364764.504 8  22904659.940    93790721.33148  22904658.840
  89882768.379 8
  20109039.960   105673711.321 9  20109041.140    82343144.68949  20109040.700
  78912179.646 9
  23351032.920   122710474.984 8  23351032.200    95618530.34747

  23843904.920   127459331.455 6  23843909.420    99135050.173 4

  21580325.360   115521174.308 9  21580326.060    89849793.898 7

  21647450.980   115921136.194 9  21647451.500    90160878.465 7

  21175215.040   113074452.843 9  21175216.240    87946793.931 8

  21637356.240   115339266.103 8

  24190492.620   129221226.057 5  24190496.320   100505386.046 4

  21841149.220   116835434.944 5  21841150.080    90872003.598 6

  20450530.820   109358183.605 6  20450534.600    85056383.642 8

  23279426.240   124572924.623 8  23279428.660    96890060.998 6

 20  5 25  0 33  0.0000000  0 20G04G08G09G11G14G16G18G21G26G27G31R01
                                R07R08R09R10R16R19R20R21
  21046194.680   110598506.763 8  21046194.420    86180654.36148  21046197.420
  82589802.562 9
  21015904.040   110439326.965 9  21015905.220    86056624.23749  21015904.020
  82470927.465 9
  23325974.540   122578821.918 8  23325976.320    95515974.17848  23325976.100
  91536148.303 8
  24251063.240   127440201.381 8  24251062.360    99304052.98145

  24465447.020   128566743.052 7  24465448.160   100181863.49844

  21285158.180   111854245.330 9  21285157.040    87159136.15248

  25549306.740   134262515.179 6  25549308.900   104620146.34344  25549312.960
 100260995.172 7
  25036099.700   131565598.810 7  25036099.860   102518658.91444

  22916406.400   120426507.760 8  22916409.260    93838832.89848  22916408.480
  89928875.294 8
  20107434.480   105665275.213 9  20107435.780    82336571.09449  20107435.400
  78905879.951 9
  23361153.200   122763657.214 8  23361152.560    95659971.02847

  23831988.220   127395630.438 6  23831992.680    99085504.980 4

  21597409.880   115612628.509 9  21597410.820    89920924.912 7

  21648395.580   115926194.190 9  21648395.940    90164812.416 7

  21175554.420   113076264.016 9  21175555.620    87948202.584 8

  21631481.360   115307949.055 8

  24198962.540   129266470.556 6  24198966.140   100540576.246 4

  21852286.920   116895014.707 6  21852288.100    90918343.393 6

  20438220.280   109292353.388 6  20438224.200    85005182.370 8

  23255243.900   124443520.890 8  23255246.460    96789413.725 6

 20  5 25  0 33 30.0000000  0 20G04G08G09G11G14G16G18G21G26G27G31R01
                                R07R08R09R10R16R19R20R21
  21041445.380   110573549.625 8  21041445.360    86161207.22848  21041448.320
  82571165.729 9
  21002787.840   110370401.670 9  21002789.120    86002916.22549  21002788.060
  82419457.303 9
  23311433.500   122502408.323 8  23311435.140    95456431.15348  23311434.960
  91479086.257 8
  24232463.380   127342459.485 8  24232462.620    99227890.46245

  24486472.680   128677233.596 7  24486473.740   100267959.99344

  21294052.840   111900986.002 9  21294051.660    87195557.43148

  25553142.000   134282669.086 6  25553144.020   104635850.65445  25553148.380
 100276045.138 6
  25041284.320   131592841.763 7  25041284.220   102539887.18944

  22928147.720   120488209.441 8  22928150.660    93886912.10948  22928150.180
  89974951.193 8
  20105947.880   105657464.170 9  20105949.420    82330484.56549  20105949.000
  78900047.025 9
  23371314.940   122817057.905 8  23371314.320    95701581.93347

  23820178.460   127332500.524 7  23820182.840    99036404.006 3

  21614554.040   115704401.865 9  21614555.080    89992304.143 7

  21649470.100   115931945.842 9  21649470.280    90169285.956 7

  21175895.220   113078082.804 9  21175896.300    87949617.161 8

  21625595.120   115276571.332 8

  24207442.860   129311770.521 6  24207446.660   100575809.465 4

  21863553.800   116955284.054 5  21863554.800    90965219.541 6

  20426030.680   109227169.287 6  20426034.420    84954483.634 8

  23231059.660   124314106.059 8  23231062.060    96688757.775 6

 20  5 25  0 34  0.0000000  0 20G04G08G09G11G14G16G18G21G26G27G31R01
                                R07R08R09R10R16R19R20R21
  21036803.780   110549157.950 9  21036803.960    86142200.71948  21036806.780
  82552951.156 9
  20989761.180   110301946.590 9  20989762.480    85949574.60749  20989761.520
  82368338.248 9
  23296965.500   122426377.890 8  23296966.900    95397186.68948  23296966.620
  91422310.307 8
  24213851.620   127244655.211 8  24213851.000    99151679.36044

  24507508.380   128787776.659 7  24507509.380   100354097.38144

  21302968.820   111947837.798 9  21302967.280    87232065.31147

  25557057.920   134303247.689 6  25557059.660   104651885.97443  25557064.480
 100291412.273 6
  25046541.440   131620467.290 7  25046541.640   102561413.61144

  22939881.120   120549869.397 8  22939884.140    93934958.80448  22939883.880
  90020995.932 8
  20104580.240   105650278.464 9  20104582.040    82324885.30949  20104581.580
  78894681.076 9
  23381518.220   122870677.880 8  23381517.700    95743363.71446

  23808475.960   127269944.241 6  23808480.000    98987749.146 4

  21631757.220   115796490.199 9  21631758.120    90063928.363 8

  21650673.820   115938390.008 8  21650673.860    90174298.142 7

  21176237.800   113079911.107 9  21176238.760    87951039.138 8

  21619697.140   115245132.449 8

  24215934.040   129357127.307 6  24215937.320   100611086.912 4

  21874949.060   117016241.359 5  21874950.140    91012630.770 6

  20413962.420   109162635.110 6  20413966.240    84904290.385 8

  23206874.280   124184684.513 8  23206876.520    96588096.603 6

 20  5 25  0 34 30.0000000  0 20G04G08G09G11G14G16G18G21G26G27G31R01
                                R07R08R09R10R16R19R20R21
  21032270.180   110525333.813 8  21032270.460    86123636.45948  21032273.260
  82535160.408 9
  20976824.500   110233965.145 9  20976826.020    85896602.06049  20976825.200
  82317572.897 9
  23282571.180   122350734.166 8  23282572.380    95338243.54448  23282571.820
  91365823.132 8
  24195228.580   127146792.072 7  24195228.280    99075422.40645

  24528553.780   128898370.391 6  24528554.720   100440274.26444

  21311905.800   111994800.495 9  21311904.020    87268659.61147

  25561055.100   134324252.192 6  25561056.360   104668253.14844  25561061.180
 100307097.516 6
  25051871.400   131648476.663 7  25051871.280   102583239.09444

  22951606.960   120611488.320 8  22951609.940    93982973.51648  22951609.580
  90067010.025 8
  20103332.000   105643719.157 9  20103333.860    82319774.16149  20103333.380
  78889782.883 9
  23391763.700   122924518.593 8  23391763.040    95785317.50046

  23796881.100   127207964.895 6  23796885.300    98939543.044 4

  21649018.460   115888890.302 9  21649019.440    90135795.066 8

  21652005.940   115945526.253 8  21652006.700    90179848.598 7

  21176582.560   113081750.883 9  21176583.360    87952470.023 8

  21613788.160   115213635.025 8

  24224436.160   129402543.965 5  24224439.380   100646410.892 4

  21886472.700   117077885.554 5  21886473.840    91060576.251 6

  20402016.980   109098756.383 6  20402020.500    84854606.947 8

  23182688.800   124055261.687 8  23182690.860    96487434.434 6

 20  5 25  0 35  0.0000000  0 20G04G08G09G11G14G16G18G21G26G27G31R01
                                R07R08R09R10R16R19R20R21
  21027844.520   110502077.761 8  21027844.960    86105514.85248  21027847.900
  82517793.866 9
  20963978.440   110166459.075 9  20963980.140    85843999.92749  20963979.300
  82267162.522 9
  23268250.560   122275479.165 8  23268251.720    95279603.32948  23268251.080
  91309626.257 8
  24176595.060   127048872.351 8  24176594.900    98999121.35145

  24549608.140   129009011.944 6  24549609.000   100526488.36544

  21320863.200   112041872.215 9  21320861.520    87305338.86648

  25565133.000   134345682.826 6  25565134.160   104684952.38444  25565139.060
 100323100.902 6
  25057274.560   131676869.496 7  25057273.720   102605363.39444

  22963325.040   120673065.519 8  22963327.760    94030955.73748  22963327.160
  90112992.965 9
  20102203.060   105637785.781 9  20102204.760    82315150.75149  20102204.300
  78885352.116 9
  23402051.100   122978579.991 8  23402050.420    95827443.24046

  23785394.500   127146564.340 6  23785399.220    98891787.108 4

  21666336.900   115981597.267 9  21666337.860    90207900.432 8

  21653467.180   115953353.216 9  21653468.200    90185936.221 7

  21176929.460   113083603.134 9  21176930.400    87953910.616 8

  21607868.280   115182078.635 8

  24232949.720   129448021.978 6  24232952.920   100681782.663 4

  21898124.160   117140213.822 5  21898125.380    91109053.782 6

  20390194.660   109035536.384 6  20390198.060    84805435.841 8

  23158503.720   123925841.339 8  23158505.660    96386774.185 6

 20  5 25  0 35 30.0000000  0 20G04G08G09G11G14G16G18G21G26G27G31R01
                                R07R08R09R10R16R19R20R21
  21023527.060   110479389.613 8  21023527.580    86087835.76948  21023530.580
  82500851.412 9
  20951222.880   110099428.906 9  20951224.800    85791768.62349  20951223.940
  82217107.516 9
  23254004.180   122200614.293 8  23254005.280    95221267.08348  23254004.800
  91253720.687 8
  24157951.260   126950897.317 8  24157950.700    98922777.15545

  24570671.060   129119698.473 6  24570672.220   100612737.51445

  21329840.460   112089050.305 8  21329839.220    87342100.99948

  25569291.800   134367538.828 5  25569293.640   104701983.07644  25569298.340
 100339421.957 6
  25062750.500   131705645.067 7  25062749.400   102627785.92345

  22975034.940   120734599.402 8  22975037.260    94078904.17248  22975036.460
  90158943.550 8
  20101193.020   105632477.147 9  20101194.580    82311014.14749  20101194.040
  78881387.873 9
  23412380.480   123032861.551 8  23412379.960    95869740.53947

  23774016.400   127085743.326 7  23774021.400    98844481.920 4

  21683711.660   116074605.648 9  21683712.480    90280240.261 7

  21655057.460   115961868.263 8  21655058.240    90192559.021 7

  21177278.680   113085468.013 9  21177279.740    87955361.028 8

  21601937.300   115150462.318 8

  24241474.820   129493561.287 5  24241478.240   100717202.053 4

  21909902.560   117203222.681 5  21909903.900    91158060.663 6

  20378496.200   108972977.975 6  20378499.400    84756779.290 8

  23134319.600   123796426.612 8  23134321.500    96286118.311 6

 20  5 25  0 36  0.0000000  0 20G04G08G09G11G14G16G18G21G26G27G31R01
                                R07R08R09R10R16R19R20R21
  21019317.640   110457270.105 8  21019318.480    86070599.78548  21019321.460
  82484333.584 9
  20938558.380   110032876.909 9  20938560.420    85739909.92849  20938559.460
  82167409.604 9
  23239832.340   122126141.620 8  23239833.660    95163236.45848  23239833.240
  91198108.012 8
  24139297.120   126852869.213 8  24139296.500    98846391.64145

  24591741.900   129230426.671 6  24591742.940   100699019.09444

  21338837.660   112136332.665 9  21338836.700    87378944.38347

  25573532.020   134389820.184 7  25573533.820   104719345.10844  25573538.380
 100356060.592 6
  25068299.120   131734803.183 7  25068298.500   102650506.54144

  22986736.380   120796089.478 8  22986738.520    94126818.47648  22986737.560
  90204861.410 8
  20100301.660   105627792.868 9  20100303.180    82307364.07249  20100302.600
  78877889.879 9
  23422751.880   123087363.492 8  23422751.420    95912209.57247

  23762747.400   127025504.012 7  23762752.600    98797629.156 4

  21701141.580   116167910.686 8  21701142.580    90352810.804 7

  21656775.860   115971069.842 9  21656776.740    90199715.805 7

  21177630.480   113087346.624 9  21177631.560    87956822.116 8

  21595995.000   115118786.518 8

  24250011.580   129539163.134 4  24250015.040   100752670.073 4

  21921808.280   117266909.889 5  21921809.680    91207595.164 6

  20366921.620   108911084.627 6  20366925.200    84708640.022 8

  23110137.140   123667021.419 8  23110139.260    96185469.865 6

 20  5 25  0 36 30.0000000  0 20G04G08G09G11G14G16G18G21G26G27G31R01
                                R07R08R09R10R16R19R20R21
  21015216.820   110435720.079 8  21015217.700    86053807.54748  21015220.480
  82468241.028 9
  20925985.240   109966804.428 9  20925987.320    85688424.86649  20925986.200
  82118069.745 9
  23225735.720   122052063.571 8  23225737.120    95105513.33748  23225736.520
  91142790.027 8
  24120633.480   126754790.558 8  24120632.460    98769966.71145

  24612820.440   129341194.145 6  24612821.580   100785331.28444

  21347854.880   112183718.329 9  21347853.820    87415868.26247

  25577853.200   134412527.292 6  25577854.960   104737038.95644  25577858.820
 100373017.238 6
  25073920.200   131764344.359 6  25073920.200   102673525.64445

  22998428.940   120857535.431 8  22998431.340    94174698.41248  22998430.140
  90250746.351 8
  20099529.020   105623732.736 9  20099530.600    82304200.34549  20099529.960
  78874857.977 9
  23433165.220   123142086.105 8  23433164.800    95954850.54047

  23751587.760   126965848.117 7  23751592.720    98751230.157 4

  21718626.280   116261508.048 8  21718627.420    90425608.708 8

  21658622.300   115980956.261 9  21658622.940    90207405.233 7

  21177985.140   113089240.064 9  21177986.160    87958294.773 8

  21590041.460   115087050.704 8

  24258560.280   129584829.361 5  24258564.060   100788188.235 4

  21933840.440   117331273.171 6  21933841.880    91257655.471 6

  20355472.120   108849860.361 6  20355475.920    84661021.153 8

  23085957.140   123537630.109 8  23085959.460    96084832.231 7

 20  5 25  0 37  0.0000000  0 20G04G08G09G11G14G16G18G21G26G27G31R01
                                R07R08R09R10R16R19R20R21
  21011224.720   110414740.538 8  21011225.280    86037459.84448  21011228.000
  82452574.476 9
  20913503.920   109901213.997 9  20913505.860    85637315.44549  20913504.660
  82069089.883 9
  23211714.720   121978382.703 8  23211715.860    95048099.68648  23211715.400
  91087768.604 8
  24101960.680   126656663.937 8  24101959.620    98693504.42845

  24633905.960   129451998.793 7  24633907.020   100871672.43845

  21356891.500   112231205.121 9  21356890.200    87452870.96347

  25582255.240   134435660.281 6  25582257.280   104755064.60345  25582261.120
 100390291.812 6
  25079614.120   131794268.512 7  25079614.300   102696843.16845

  23010113.080   120918937.023 8  23010115.740    94222543.76048  23010114.400
  90296598.130 8
  20098875.200   105620296.713 9  20098876.780    82301522.93449  20098876.120
  78872292.125 9
  23443620.880   123197030.515 8  23443620.400    95997664.34946

  23740537.820   126906778.246 7  23740542.400    98705286.963 4

  21736164.700   116355393.217 8  21736165.880    90498630.449 8

  21660596.780   115991526.344 9  21660596.920    90215626.391 8

  21178342.840   113091149.882 9  21178343.660    87959780.150 8

  21584076.940   115055256.328 8

  24267121.440   129630561.675 5  24267125.320   100823757.686 4

  21945998.880   117396310.032 6  21946000.000    91308239.680 7

  20344148.460   108789308.748 5  20344152.340    84613925.453 8

  23061780.680   123408257.026 8  23061782.940    95984208.761 7

 20  5 25  0 37 30.0000000  0 20G04G08G09G11G14G16G18G21G26G27G31R01
                                R07R08R09R10R16R19R20R21
  21007341.520   110394332.810 8  21007341.660    86021557.70848  21007344.400
  82437334.927 9
  20901114.680   109836107.510 9  20901116.580    85586583.11249  20901115.280
  82020471.391 9
  23197769.680   121905101.801 8  23197770.680    94990997.70348  23197770.460
  91033045.884 8
  24083279.300   126558492.300 8  24083278.080    98617007.06045

  24654998.140   129562838.417 7  24654999.220   100958040.88545

  21365947.200   112278792.678 9  21365945.700    87489952.17247

  25586738.560   134459220.158 6  25586740.700   104773422.96345  25586744.740
 100407885.207 6
  25085381.320   131824576.265 7  25085381.200   102720459.59644

  23021788.880   120980294.460 8  23021791.640    94270354.72548  23021790.480
  90342416.954 8
  20098340.160   105617485.037 9  20098341.660    82299332.02149  20098341.100
  78870192.504 9
  23454118.660   123252197.165 8  23454118.240    96040651.32347

  23729597.720   126848296.433 7  23729601.940    98659801.136 4

  21753756.300   116449562.301 9  21753757.440    90571873.025 8

  21662698.580   116002778.796 9  21662698.460    90224378.298 7

  21178703.780   113093078.003 9  21178704.480    87961279.765 8

  21578101.380   115023403.580 8

  24275695.320   129676361.605 5  24275699.200   100859379.763 4

  21958282.500   117462018.592 6  21958283.420    91359346.336 6

  20332951.640   108729434.250 6  20332955.520    84567356.397 8

  23037608.400   123278906.685 8  23037610.520    95883602.970 7

 20  5 25  0 38  0.0000000  0 20G04G08G09G11G14G16G18G21G26G27G31R01
                                R07R08R09R10R16R19R20R21
  21003566.820   110374495.555 9  21003566.780    86006100.09948  21003569.420
  82422521.387 9
  20888817.560   109771485.264 9  20888819.460    85536228.11349  20888818.040
  81972214.509 9
  23183900.960   121832221.125 8  23183901.700    94934207.58748  23183901.660
  90978622.020 8
  24064589.320   126460276.341 8  24064588.300    98540475.15545

  24676096.100   129673708.682 7  24676097.460   101044433.16345

  21375021.280   112326477.314 9  21375019.720    87527109.02947

  25591302.240   134483205.068 5  25591304.480   104792112.52744  25591309.020
 100425796.061 5
  25091221.320   131855265.611 7  25091221.720   102744373.36045

  23033455.900   121041605.256 8  23033458.660    94318129.35348  23033457.780
  90388200.966 9
  20097923.480   105615295.280 9  20097924.940    82297625.72049  20097924.360
  78868557.305 9
  23464658.540   123307584.338 8  23464657.980    96083810.14446

  23718767.500   126790402.564 7  23718771.160    98614772.613 4

  21771400.060   116544008.840 9  21771400.760    90645331.389 7

  21664926.620   116014710.004 9  21664926.500    90233658.112 7

  21179067.980   113095023.363 9  21179068.940    87962792.805 8

  21572114.680   114991491.041 8

  24284281.780   129722229.134 5  24284285.700   100895054.551 4

  21970690.700   117528394.218 6  21970691.680    91410971.808 6

  20321881.760   108670238.030 6  20321885.440    84521314.893 8

  23013441.060   123149581.534 8  23013442.880    95783016.771 6

 20  5 25  0 38 30.0000000  0 20G04G08G09G11G14G16G18G21G26G27G31R01
                                R07R08R09R10R16R19R20R21
  20999901.300   110355231.581 9  20999901.100    85991089.19548  20999903.600
  82408135.934 9
  20876613.140   109707350.741 9  20876615.080    85486253.16249  20876613.600
  81924321.852 9
  23170109.180   121759745.076 8  23170109.820    94877732.75248  23170109.980
  90924500.305 8
  24045891.800   126362020.552 8  24045890.800    98463912.23545

  24697199.880   129784609.146 7  24697201.120   101130848.99145

  21384113.880   112374259.236 9  21384112.280    87564341.69048

  25595947.780   134507617.169 6  25595950.240   104811134.92045  25595954.060
 100444025.862 5
  25097134.400   131886338.844 7  25097134.720   102768586.26045

  23045114.460   121102871.095 8  23045117.100    94365868.93248  23045116.420
  90433951.383 9
  20097625.400   105613729.156 9  20097626.920    82296405.37249  20097626.320
  78867387.801 9
  23475241.000   123363194.484 8  23475240.180    96127142.70547

  23708048.120   126733100.966 6  23708051.800    98570204.724 4

  21789095.140   116638730.233 9  21789095.420    90719003.571 7

  21667281.160   116027320.491 9  21667281.320    90243466.247 7

  21179436.260   113096989.434 9  21179436.860    87964321.920 8

  21566117.180   114959520.856 8

  24292881.460   129768167.396 5  24292885.560   100930784.273 4

  21983223.500   117595436.552 6  21983224.540    91463115.829 6

  20310939.800   108611726.250 6  20310943.480    84475805.731 8

  22989279.460   123020287.592 8  22989281.120    95682454.870 7

 20  5 25  0 39  0.0000000  0 20G04G08G09G11G14G16G18G21G26G27G31R01
                                R07R08R09R10R16R19R20R21
  20996344.240   110336539.517 8  20996344.200    85976523.89748  20996346.640
  82394177.553 9
  20864501.660   109643703.956 9  20864503.480    85436658.20549  20864502.000
  81876793.399 9
  23156394.240   121687673.762 8  23156395.240    94821573.25148  23156395.500
  90870680.845 8
  24027186.980   126263725.105 8  24027185.920    98387318.36045

  24718308.620   129895535.500 7  24718309.800   101217284.96344

  21393224.600   112422135.058 9  21393222.820    87601647.47647

  25600674.360   134532454.564 6  25600676.520   104830488.59245  25600680.420
 100462573.170 6
  25103120.100   131917793.652 7  25103119.580   102793096.41345

  23056764.000   121164089.593 8  23056766.720    94413571.56748  23056765.940
  90479666.447 9
  20097445.540   105612784.251 9  20097447.140    82295669.03749  20097446.500
  78866682.198 9
  23485865.680   123419025.881 8  23485864.680    96170647.63247

  23697439.160   126676390.914 6  23697443.240    98526096.906 4

  21806840.260   116733719.970 9  21806840.340    90792884.398 8

  21669762.480   116040606.243 9  21669762.360    90253799.554 7

  21179808.200   113098975.450 9  21179808.580    87965866.536 8

  21560108.540   114927491.538 8

  24301494.340   129814175.770 6  24301498.280   100966568.505 4

  21995880.020   117663141.098 5  21995881.240    91515774.868 6

  20300125.780   108553900.092 5  20300129.660    84430829.799 8

  22965123.820   122891027.267 8  22965125.700    95581919.099 7

 20  5 25  0 39 30.0000000  0 20G04G08G09G11G14G16G18G21G26G27G31R01
                                R07R08R09R10R16R19R20R21
  20992896.520   110318421.786 8  20992896.540    85962406.22248  20992898.960
  82380648.065 9
  20852483.580   109580548.180 9  20852485.380    85387445.95549  20852483.820
  81829631.598 9
  23142757.380   121616011.372 8  23142758.380    94765732.49348  23142758.780
  90817166.726 8
  24008475.500   126165394.350 8  24008474.340    98310697.07345

  24739422.020   130006486.762 7  24739423.040   101303740.42344

  21402353.280   112470105.287 9  21402351.460    87639026.92048

  25605482.560   134557719.119 7  25605484.540   104850175.34945  25605488.260
 100481439.569 6
  25109178.940   131949631.975 7  25109178.700   102817905.53345

  23068404.720   121225262.161 8  23068407.620    94461238.50248  23068406.720
  90525347.207 9
  20097384.080   105612461.925 9  20097385.860    82295417.92849  20097385.180
  78866441.502 9
  23496532.540   123475080.642 8  23496531.720    96214326.69647

  23686941.980   126620276.388 7  23686946.100    98482452.364 4

  21824634.880   116828975.440 8  21824635.160    90866971.975 7

  21672369.600   116054567.290 9  21672369.460    90264658.185 7

  21180184.520   113100984.567 9  21180185.020    87967429.218 8

  21554089.260   114895405.204 8

  24310121.000   129860257.668 5  24310125.040   101002410.008 4

  22008660.320   117731506.831 6  22008661.600    91568948.241 7

  20289441.100   108496765.010 6  20289444.840    84386391.447 8

  22940975.720   122761806.457 8  22940977.680    95481414.135 6

 20  5 25  0 40  0.0000000  0 20G04G08G09G11G14G16G18G21G26G27G31R01
                                R07R08R09R10R16R19R20R21
  20989558.200   110300879.332 8  20989558.340    85948736.71648  20989560.800
  82367548.180 9
  20840559.200   109517885.395 9  20840561.100    85338617.75249  20840559.560
  81782837.964 9
  23129198.800   121544760.372 8  23129199.500    94710212.19048  23129200.020
  90763959.826 8
  23989757.680   126067031.056 8  23989756.180    98234050.31145

  24760539.840   130117460.733 7  24760540.880   101390213.52045

  21411499.420   112518168.227 9  21411497.720    87676478.49948

  25610371.820   134583411.268 4  25610373.780   104870195.20844  25610377.380
 100500625.347 4
  25115310.660   131981854.442 7  25115310.620   102843013.86045

  23080036.760   121286388.815 8  23080039.680    94508869.54048  23080038.860
  90570993.652 9
  20097441.120   105612762.030 9  20097442.960    82295651.72849  20097442.280
  78866665.612 9
  23507242.020   123531359.279 8  23507241.440    96258180.10247

  23676556.640   126564759.674 7  23676560.400    98439272.727 4

  21842478.360   116924492.091 9  21842478.560    90941262.660 7

  21675102.300   116069202.550 9  21675102.420    90276041.096 7

  21180565.300   113103018.199 9  21180566.000    87969010.855 8

  21548059.340   114863262.378 8

  24318761.820   129906414.456 6  24318765.700   101038309.631 4

  22021564.060   117800531.537 6  22021565.060    91622634.063 6

  20278886.580   108440324.984 6  20278890.220    84342493.603 8

  22916835.700   122632629.768 8  22916837.760    95380943.372 6

 20  5 25  0 40 30.0000000  0 20G04G08G09G11G14G16G18G21G26G27G31R01
                                R07R08R09R10R16R19R20R21
  20986328.840   110283909.695 8  20986329.100    85935513.60048  20986331.600
  82354876.027 9
  20828728.440   109455714.434 9  20828730.460    85290172.82749  20828728.840
  81736411.586 9
  23115718.240   121473919.874 8  23115718.880    94655011.79648  23115719.180
  90711059.468 8
  23971033.280   125968634.506 8  23971031.940    98157377.68646

  24781660.820   130228451.785 7  24781661.940   101476699.91845

  21420662.080   112566319.347 9  21420660.620    87713998.83647

  25615341.640   134609528.127 5  25615343.660   104890545.86944  25615346.960
 100520128.118 5
  25121514.780   132014456.913 7  25121514.600   102868418.33644

  23091659.580   121347466.090 8  23091662.280    94556462.16548  23091661.720
  90616603.257 9
  20097616.120   105613680.962 9  20097617.760    82296367.76349  20097617.200
  78867351.826 9
  23517993.560   123587859.114 8  23517993.160    96302205.92646

  23666282.580   126509838.882 7  23666286.060    98396556.620 4

  21860369.160   117020262.666 9  21860369.420    91015750.856 7

  21677960.180   116084506.656 8  21677960.200    90287944.249 7

  21180950.460   113105074.532 9  21180951.540    87970610.210 8

  21542018.220   114831060.571 8

  24327416.060   129952644.852 5  24327420.300   101074266.528 4

  22034589.580   117870209.398 6  22034590.520    91676827.932 6

  20268462.020   108384580.056 5  20268465.620    84299136.436 8

  22892704.220   122503498.168 8  22892706.360    95280507.707 6

 20  5 25  0 41  0.0000000  0 20G04G08G09G11G14G16G18G21G26G27G31R01
                                R07R08R09R10R16R19R20R21
  20983209.800   110267519.321 9  20983210.140    85922741.92348  20983212.600
  82342636.447 9
  20816992.640   109394042.936 9  20816994.820    85242117.17549  20816993.240
  81690358.192 9
  23102317.440   121403498.032 8  23102318.260    94600137.70748  23102318.260
  90658471.731 8
  23952304.060   125870213.236 8  23952303.240    98080685.88446

  24802785.640   130339463.434 6  24802786.940   101563202.50243

  21429842.340   112614563.248 9  21429841.040    87751591.51247

  25620393.520   134636075.594 6  25620395.600   104911232.33245  25620399.080
 100539952.513 6
  25127792.340   132047445.840 7  25127792.580   102894124.07945

  23103274.040   121408499.585 8  23103276.640    94604020.76848  23103276.140
  90662180.175 9
  20097909.800   105615224.095 9  20097911.380    82297570.26649  20097910.840
  78868504.167 9
  23528788.040   123644586.212 8  23528787.960    96346408.88347

  23656121.360   126455522.108 6  23656125.080    98354310.343 4

  21878307.480   117116288.363 9  21878308.140    91090437.539 7

  21680943.560   116100483.431 9  21680943.700    90300370.648 7

  21181341.400   113107161.029 9  21181342.320    87972233.096 8

  21535967.180   114798806.181 8

  24336085.820   129998956.277 6  24336089.660   101110286.538 4

  22047737.760   117940543.558 5  22047738.900    91731532.332 6

  20258169.060   108329539.447 5  20258172.800    84256327.143 8

  22868583.280   122374421.854 9  22868585.320    95180115.110 6

 20  5 25  0 41 30.0000000  0 20G04G08G09G11G14G16G18G21G26G27G31R01
                                R07R08R09R10R16R19R20R21
  20980199.940   110251702.200 9  20980200.180    85910416.88548  20980202.720
  82330824.953 9
  20805350.860   109332865.883 9  20805353.140    85194446.74249  20805351.600
  81644674.037 9
  23088995.240   121333490.454 8  23088996.440    94545586.39648  23088996.340
  90606193.394 8
  23933569.440   125771763.097 8  23933568.820    98003971.53345

  24823912.620   130450486.461 5  24823914.000   101649713.86344

  21439038.840   112662891.894 8  21439037.500    87789250.17547

  25625525.960   134663046.812 5  25625527.580   104932248.82844  25625531.520
 100560093.340 5
  25134142.300   132080814.577 7  25134142.860   102920125.68244

  23114878.880   121469482.414 8  23114881.380    94651539.80648  23114880.720
  90707719.239 9
  20098320.820   105617384.380 9  20098322.440    82299253.61149  20098321.940
  78870117.375 9
  23539624.500   123701534.375 8  23539624.680    96390784.02947

  23646072.300   126401804.163 7  23646075.880    98312529.768 4

  21896291.440   117212558.072 9  21896292.220    91165313.931 7

  21684051.400   116117124.946 9  21684051.260    90313314.055 7

  21181736.920   113109272.299 9  21181737.720    87973875.155 8

  21529905.420   114766493.042 8

  24344769.580   130045342.988 5  24344773.220   101146365.052 4

  22061006.660   118011524.900 5  22061007.800    91786740.035 6

  20248007.020   108275200.222 5  20248011.000    84214063.310 8

  22844472.360   122245398.661 9  22844474.160    95079763.752 6

 20  5 25  0 42  0.0000000  0 20G04G08G09G11G14G16G18G21G26G27G31R01
                                R07R08R09R10R16R19R20R21
  20977300.100   110236462.295 9  20977300.040    85898541.57548  20977302.640
  82319444.492 9
  20793804.400   109272188.424 9  20793806.480    85147165.55849  20793804.960
  81599362.934 9
  23075753.260   121263902.791 8  23075754.500    94491362.21848  23075754.300
  90554228.618 8
  23914830.560   125673290.246 8  23914829.880    97927239.40645

  24845042.100                    24845043.420

  21448251.780   112711306.998 9  21448250.440    87826976.17747

  25630739.700   134690445.605 7  25630741.900   104953598.46845  25630745.280
 100580553.442 7
  25140565.180   132114566.463 7  25140565.460   102946425.83345

  23126474.520   121530417.661 8  23126476.980    94699021.74148  23126476.320
  90753222.809 8
  20098849.820   105620164.612 9  20098851.500    82301419.98249  20098850.980
  78872193.518 9
  23550504.040   123758707.211 8  23550504.300    96435334.20146

  23636136.300   126348690.174 7  23636139.680    98271218.898 4

  21914320.660   117309070.512 9  21914321.540    91240379.089 7

  21687283.140   116134432.256 8  21687283.300    90326775.243 7

  21182137.580   113111413.069 9  21182138.560    87975540.145 8

  21523833.420   114734124.584 8

  24353468.480   130091810.144 5  24353472.020   101182506.040 3

  22074396.900   118083153.855 5  22074398.080    91842451.390 6

  20237977.920   108221569.267 6  20237981.760    84172350.301 8

  22820372.760   122116436.176 9  22820374.360    94979459.594 7

 20  5 25  0 42 30.0000000  0 19G04G08G09G11G16G18G21G26G27G31R01R07
                                R08R09R10R16R19R20R21
  20974510.000   110221799.861 8  20974509.980    85887116.34748  20974512.560
  82308495.260 9
  20782353.320   109212011.947 9  20782355.340    85100274.84149  20782353.640
  81554425.954 9
  23062591.360   121194736.963 8  23062592.820    94437466.83548  23062592.420
  90502578.829 8
  23896087.940   125574796.821 8  23896087.000    97850491.33245

  21457480.860   112759806.979 8  21457479.560    87864768.38848

  25636034.580   134718271.554 5  25636036.960   104975281.09144  25636040.220
 100601332.558 6
  25147060.660   132148701.088 7  25147061.260   102973024.29545

  23138060.720   121591304.885 8  23138063.460    94746466.35048  23138062.600
  90798690.499 8
  20099496.760   105623563.981 9  20099498.400    82304068.88749  20099497.820
  78874732.010 9
  23561426.560   123816104.769 8  23561426.700    96480059.61247

  23626313.480   126296181.532 7  23626316.940    98230378.920 4

  21932394.200   117405821.422 9  21932395.180    91315629.787 7

  21690639.260   116152403.534 8  21690639.420    90340752.909 7

  21182543.860   113113584.643 9  21182545.220    87977229.178 8

  21517751.060   114701701.321 8

  24362182.600   130138359.136 5  24362185.500   101218710.862 3

  22087907.560   118155427.683 5  22087908.980    91898664.388 6

  20228081.660   108168649.416 5  20228085.380    84131190.471 8

  22796285.180   121987538.530 9  22796286.660    94879205.949 7

 20  5 25  0 43  0.0000000  0 19G04G08G09G11G16G18G21G26G27G31R01R07
                                R08R09R10R16R19R20R21
  20971829.560   110207714.385 8  20971829.520    85876140.59648  20971832.300
  82297976.877 9
  20770997.460   109152336.962 9  20770999.600    85053774.81449  20770997.880
  81509863.469 9
  23049509.940   121125994.123 8  23049511.480    94383900.96548  23049511.040
  90451244.911 8
  23877341.940   125476284.229 8  23877340.640    97773728.24345

  21466725.600   112808389.169 8  21466724.380    87902624.58147

  25641410.580   134746521.763 4  25641412.520   104997295.83343  25641416.500
 100622430.012 6
  25153628.700   132183217.072 7  25153629.280   102999919.80245

  23149637.520   121652142.728 8  23149640.700    94793872.40348  23149639.540
  90844121.361 8
  20100261.360   105627580.859 9  20100262.800    82307198.88149  20100262.220
  78877731.631 9
  23572391.720   123873726.393 8  23572391.800    96524959.55847

  23616603.980   126244279.037 7  23616607.540    98190010.323 4

  21950511.400   117502804.916 9  21950512.500    91391061.246 7

  21694118.640   116171035.362 9  21694118.940    90355244.278 7

  21182956.100   113115787.042 9  21182957.720    87978942.050 8

  21511658.280   114669222.802 8

  24370912.300   130184990.275 6  24370914.920   101254979.432 4

  22101538.380   118228342.260 5  22101539.460    91955375.660 6

  20218319.060   108116443.321 5  20218322.700    84090585.697 8

  22772210.200   121858708.939 9  22772211.800    94779005.164 7

 20  5 25  0 43 30.0000000  0 19G04G08G09G11G16G18G21G26G27G31R01R07
                                R08R09R10R16R19R20R21
  20969258.740   110194204.330 8  20969258.660    85865613.31348  20969261.580
  82287888.180 9
  20759736.920   109093163.313 9  20759739.260    85007665.52549  20759737.480
  81465675.368 9
  23036509.300   121057674.502 8  23036510.580    94330664.93248  23036510.380
  90400227.005 8
  23858592.380   125377753.105 8  23858590.860    97696950.80745

  21475985.460   112857050.438 8  21475984.420    87940542.49147

                                                                  25646873.640
 100643844.169 6
  25160268.900   132218112.436 7  25160269.340   103027111.04845

  23161204.720   121712928.948 8  23161208.120    94841238.29948  23161206.740
  90889513.607 8
  20101142.900   105632212.605 9  20101144.220    82310808.08149  20101143.660
  78881190.400 9
  23583399.180   123931570.444 8  23583399.000    96570032.88246

  23607007.380   126192982.036 7  23607011.380    98150112.763 4

  21968670.780   117600014.621 9  21968672.200    91466668.764 7

  21697720.860   116190323.823 9  21697721.080    90370246.433 7

  21183374.140   113118020.012 9  21183375.940    87980678.832 8

  21505554.740   114636687.441 8

  24379657.200   130231702.957 6  24379659.820   101291311.474 3

  22115288.020   118301893.047 5  22115288.960    92012581.867 6

  20208689.900   108064951.829 5  20208693.620    84050536.818 8

  22748148.160   121729949.601 8  22748150.020    94678859.114 6

 20  5 25  0 44  0.0000000  0 19G04G08G09G11G16G18G21G26G27G31R01R07
                                R08R09R10R16R19R20R21
  20966797.460   110181270.492 8  20966797.480    85855534.97948  20966800.440
  82278229.785 9
  20748572.220   109034492.376 9  20748574.540    84961947.91249  20748572.780
  81421862.652 9
  23023589.440   120989780.558 8  23023590.820    94277760.55248  23023590.640
  90349526.994 8
  23839839.580   125279206.339 8  23839838.080    97620161.10945

  21485260.320   112905789.659 8  21485259.300    87978521.05047

  25652405.380   134804293.090 5  25652407.280   105042322.10144  25652411.740
 100665575.404 6
  25166981.520   132253387.390 7  25166982.060   103054597.98645

  23172762.220   121773663.673 8  23172765.840    94888564.03748  23172764.220
  90934867.449 8
  20102141.260   105637458.939 9  20102142.520    82314896.12449  20102142.080
  78885108.122 9
  23594449.060   123989637.054 8  23594448.720    96615279.56246

  23597524.620   126142292.620 7  23597529.240    98110687.720 4

  21986872.060   117697446.623 9  21986873.320    91542449.210 7

  21701445.140   116210267.353 9  21701445.500    90385758.040 7

  21183798.400   113120285.077 9  21183800.100    87982440.499 8

  21499440.480   114604096.127 8

  24388417.480   130278498.760 6  24388419.920   101327708.144 4

  22129156.180   118376077.421 5  22129156.880    92070280.809 6

  20199195.040   108014178.548 5  20199198.940    84011046.491 9

  22724100.220   121601265.530 9  22724102.260    94578771.535 7

 20  5 25  0 44 30.0000000  0 19G04G08G09G11G16G18G21G26G27G31R01R07
                                R08R09R10R16R19R20R21
  20964446.700   110168917.296 9  20964446.960    85845909.12348  20964449.780
  82269005.002 9
  20737504.400   108976330.222 9  20737506.520    84916626.74649  20737504.840
  81378429.858 9
  23010751.760   120922318.462 8  23010753.440    94225192.70948  23010752.960
  90299149.468 8
  23821085.020   125180650.453 8  23821083.560    97543364.31945

  21494550.480   112954609.231 8  21494549.360    88016562.26247

  25658024.260   134833822.545 6  25658026.800   105065332.08544  25658031.340
 100687626.661 6
  25173767.340   132289045.922 7  25173768.060   103082383.84545

  23184310.720   121834350.678 8  23184314.400    94935852.59848  23184312.600
  90980185.651 8
  20103257.160   105643323.151 9  20103258.420    82319465.64049  20103258.080
  78889487.244 9
  23605542.100   124047930.600 8  23605541.640    96660703.08447

  23588156.860   126092216.197 7  23588161.440    98071739.481 4

  22005114.760   117795100.183 9  22005115.900    91618401.960 7

  21705292.040   116230867.686 9  21705292.520    90401780.514 7

  21184229.620   113122587.984 9  21184231.460    87984231.637 8

  21493316.540   114571453.344 8

  24397194.320   130325383.187 6  24397197.040   101364173.736 4

  22143142.940   118450896.698 6  22143143.540    92128473.570 6

  20189836.080   107964130.933 6  20189840.040    83972120.573 8

  22700068.100   121472664.721 8  22700070.240    94478748.729 7

 20  5 25  0 45  0.0000000  0 19G04G08G09G11G16G18G21G26G27G31R01R07
                                R08R09R10R16R19R20R21
  20962205.920   110157142.309 8  20962206.340    85836733.80848  20962208.920
  82260211.984 9
  20726533.280   108918675.796 9  20726535.300    84871701.22649  20726533.640
  81335376.233 9
  22997995.960   120855287.508 8  22997997.920    94172960.83048  22997997.340
  90249093.921 8
  23802328.700   125082085.108 8  23802327.220    97466560.17345

  21503855.060   113003505.034 8  21503853.820    88054662.87847

  25663724.340   134863777.422 5  25663726.800   105088673.60744  25663731.740
 100709995.608 7
  25180625.140   132325084.587 7  25180625.960   103110465.89945

  23195849.420   121894986.882 8  23195853.020    94983101.56348  23195851.320
  91025465.900 8
  20104489.940   105649801.637 9  20104491.200    82324513.82649  20104490.900
  78894325.085 9
  23616677.900   124106448.468 8  23616677.300    96706301.38647

  23578903.160   126042751.404 7  23578907.840    98033266.954 4

  22023397.800   117892968.120 9  22023398.540    91694521.451 7

  21709260.820   116252119.833 9  21709261.040    90418309.947 7

  21184667.800   113124927.109 9  21184669.400    87986050.927 8

  21487182.780   114538757.181 8

  24405987.460   130372355.027 5  24405990.600   101400707.344 3

  22157247.520   118526345.056 5  22157247.740    92187155.620 6

  20180612.760   107914809.174 5  20180616.700    83933759.224 8

  22676051.780   121344148.911 9  22676054.060    94378792.040 7

 20  5 25  0 45 30.0000000  0 19G04G08G09G11G16G18G21G26G27G31R01R07
                                R08R09R10R16R19R20R21
  20960074.840   110145944.081 8  20960075.340    85828007.84748  20960077.880
  82251849.663 9
  20715658.500   108861528.438 9  20715660.500    84827170.77249  20715658.900
  81292701.280 9
  22985322.640   120788688.063 8  22985324.380    94121065.11348  22985323.640
  90199360.575 8
  23783570.840   124983511.410 8  23783569.320    97389749.43345

  21513173.560   113052474.116 8  21513172.380    88092820.51947

  25669504.100                                                    25669512.700
 100732680.864 6
  25187555.240   132361501.581 7  25187555.940   103138842.67145

  23207377.860   121955570.265 8  23207381.420    95030309.31548  23207379.880
  91070706.714 8
  20105839.120   105656891.915 9  20105840.400    82330038.65449  20105840.060
  78899619.763 9
  23627856.060   124165189.426 8  23627855.400    96752073.48346

  23569763.860   125993898.054 7  23569768.740    97995269.945 4

  22041719.440   117991043.993 9  22041719.900    91770802.606 7

  21713350.920   116274020.151 9  21713350.780    90435343.453 7

  21185112.820   113127302.025 9  21185114.280    87987898.003 8

  21481038.760   114506005.815 8

  24414797.080   130419413.747 5  24414800.220   101437308.467 3

  22171468.320   118602417.616 6  22171468.720    92246323.076 6

  20171525.340   107866214.845 6  20171529.240    83895963.585 8

  22652051.920   121215720.534 9  22652054.140    94278903.271 7

 20  5 25  0 46  0.0000000  0 19G04G08G09G11G16G18G21G26G27G31R01R07
                                R08R09R10R16R19R20R21
  20958054.640   110135327.730 8  20958055.020    85819735.41648  20958057.620
  82243921.860 9
  20704881.340   108804894.514 9  20704883.440    84783040.50549  20704881.720
  81250409.718 9
  22972732.640   120722526.988 8  22972734.280    94069511.10248  22972733.640
  90149954.597 8
  23764812.320   124884936.083 8  23764811.260    97312937.56645

  21522506.660   113101519.559 8  21522505.480    88131037.76147

  25675367.740   134924968.92316  25675370.100   105136353.65845  25675375.240
 100755686.096 7
  25194557.980   132398301.649 7  25194558.520   103167518.03646

  23218897.200   122016105.449 8  23218900.680    95077479.60448  23218899.280
  91115911.522 8
  20107305.480   105664597.999 9  20107306.840    82336043.44449  20107306.420
  78905374.298 9
  23639077.500   124224158.296 8  23639076.800    96798023.27546

  23560740.500   125945662.355 7  23560745.220    97957753.399 4

  22060079.600   118089328.272 8  22060080.240    91847245.940 7

  21717562.000   116296571.003 8  21717561.940    90452883.054 7

  21185565.640   113129719.317 9  21185567.080    87989778.185 8

  21474885.260   114473205.069 8

  24423624.220   130466565.684 4  24423627.280   101473982.187 2

  22185806.300   118679116.465 6  22185806.540    92305977.765 6

  20162575.220   107818355.491 6  20162579.220    83858739.702 8

  22628070.000   121087388.735 8  22628072.220    94179089.723 6

 20  5 25  0 46 30.0000000  0 19G04G08G09G11G16G18G21G26G27G31R01R07
                                R08R09R10R16R19R20R21
  20956144.520   110125289.663 8  20956144.740    85811913.54248  20956147.380
  82236425.898 9
  20694201.500   108748771.523 9  20694203.600    84739308.30749  20694201.840
  81208499.695 9
  22960225.640   120656802.422 8  22960227.060    94018297.16348  22960226.860
  90100874.597 8
  23746053.440   124786358.013 8  23746052.560    97236123.50446

  21531853.260   113150635.906 8  21531852.040    88169310.21747

  25681311.320   134956199.961 6  25681313.100   105160689.57345  25681318.120
 100779008.070 6
  25201633.080   132435480.588 7  25201633.680   103196488.63245

  23230406.960   122076588.359 8  23230410.200    95124609.14448  23230408.800
  91161077.288 8
  20108888.140   105672915.123 9  20108889.540    82342524.31549  20108889.060
  78911585.133 9
  23650341.400   124283351.079 8  23650340.740    96844147.50246

  23551832.060   125898041.740 7  23551836.900    97920715.202 4

  22078477.060   118187812.507 8  22078477.820    91923844.733 7

  21721893.580   116319766.002 9  21721893.640    90470923.596 7

  21186025.800   113132176.188 9  21186027.180    87991689.037 8

  21468721.780   114440351.537 8

  24432468.060   130513807.901 4  24432471.180

  22200259.900   118756434.629 6  22200260.480    92366114.081 6

  20153762.360   107771230.460 5  20153766.500    83822086.908 8

  22604106.380   120959153.930 9  22604108.500    94079351.501 7

 20  5 25  0 47  0.0000000  0 19G04G08G09G11G16G18G21G26G27G31R01R07
                                R08R09R10R16R19R20R21
  20954344.420   110115829.304 8  20954344.480    85804541.78748  20954347.180
  82229361.322 9
  20683618.840   108693159.782 9  20683621.080    84695974.44949  20683619.320
  81166971.441 9
  22947802.060   120591515.593 8  22947803.300    93967424.28548  22947803.200
  90052121.456 8
  23727294.500   124687779.318 8  23727293.600    97159308.90646

  21541213.000   113199821.367 8  21541211.720    88207636.50547

  25687335.260   134987854.156 6  25687336.300   105185355.11044  25687341.220
 100802645.935 6
  25208780.060   132473036.990 7  25208780.760   103225753.27644

  23241906.660   122137017.822 8  23241909.540    95171696.96848  23241908.220
  91206203.172 8
  20110586.700   105681841.578 9  20110588.220    82349479.97149  20110587.700
  78918251.003 9
  23661647.900   124342767.687 8  23661647.340    96890446.10746

  23543038.580   125851036.263 7  23543043.560    97884155.393 4

  22096910.900   118286491.296 9  22096912.040    92000594.795 7

  21726344.960   116343602.228 9  21726344.920    90489462.843 7

  21186493.700   113134673.541 9  21186494.920    87993631.344 8

  21462548.600   114407444.925 8

  24441328.520   130561141.583 3

  22214829.000   118834367.979 6  22214829.380    92426728.857 6

  20145087.320   107724841.735 6  20145091.480    83786006.763 8

  22580161.640   120831019.735 8  22580163.580    93979691.522 7

 20  5 25  0 47 30.0000000  0 18G04G08G09G11G16G18G21G26G27G31R01R07
                                R08R09R10R19R20R21
  20952654.620   110106950.002 8  20952654.640    85797622.83448  20952657.540
  82222730.666 9
  20673134.500   108638064.595 9  20673136.780    84653043.12349  20673135.160
  81125828.931 9
  22935462.660   120526671.708 8  22935464.100    93916896.58048  22935463.780
  90003699.072 8
  23708536.480   124589205.423 8  23708535.580    97082498.08745

  21550586.220   113249077.484 9  21550584.880    88246017.84447

  25693440.100   135019934.723 4  25693440.740   105210353.02644  25693445.500
 100826602.307 6
  25215999.500   132510973.924 7  25215998.820   103255314.52145

  23253396.700   122197396.876 8  23253399.320    95218745.53048  23253397.920
  91251291.384 8
  20112401.720   105691379.688 9  20112403.340    82356912.25449  20112402.800
  78925373.611 9
  23672997.420   124402410.918 8  23672997.340    96936921.31546

  23534361.140   125804651.009 7  23534366.300    97848077.986 4

  22115381.300   118385363.335 8  22115382.340    92077495.161 8

  21730915.980   116368080.290 9  21730916.040    90508501.280 7

  21186969.980   113137215.512 9  21186970.940    87995608.383 8

  21456366.140   114374488.908 8

  22229513.000   118912917.055 5  22229513.600    92487822.547 6

  20136551.160   107679195.484 5  20136555.440    83750504.124 8

  22556237.140   120702993.974 9  22556238.960    93880115.993 7

 20  5 25  0 48  0.0000000  0 18G04G08G09G11G16G18G21G26G27G31R01R07
                                R08R09R10R19R20R21
  20951074.600   110098648.688 8  20951074.920    85791154.25948  20951077.840
  82216531.612 9
  20662747.920   108583483.461 9  20662750.280    84610512.36949  20662748.780
  81085070.286 9
  22923207.200   120462269.428 8  22923208.940    93866713.00148  22923208.340
  89955606.474 8
  23689779.480   124490635.638 8  23689778.300    97005690.44946

  21559971.980   113298399.786 8  21559970.680    88284450.76547

  25699625.020   135052437.775 6  25699625.780   105235680.15144  25699630.500
 100850874.089 5
  25223290.680   132549287.662 7  25223289.980   103285169.38345

  23264876.240   122257721.972 8  23264879.020    95265752.03148  23264877.280
  91296339.268 8
  20114332.380   105701525.204 9  20114334.060    82364817.85149  20114333.480
  78932949.807 9
  23684389.620   124462277.635 8  23684389.680    96983570.68647

  23525799.380   125758883.706 7  23525804.600    97812481.218 4

  22133886.260   118484420.695 8  22133887.200    92154539.655 7

  21735605.860   116393194.794 9  21735606.060    90528034.783 7

  21187454.300   113139800.656 9  21187455.100    87997619.028 8

  21450173.620   114341480.934 8

  22244310.900   118992075.165 6  22244311.500    92549389.937 6

  20128153.800   107634291.088 5  20128157.960    83715578.491 8

  22532332.900   120575077.368 8  22532334.980    93780625.370 7

 20  5 25  0 48 30.0000000  0 18G04G08G09G11G16G18G21G26G27G31R01R07
                                R08R09R10R19R20R21
  20949606.220   110090932.226 8  20949606.560    85785141.46648  20949609.460
  82210769.311 9
  20652460.780   108529424.682 9  20652463.240    84568388.68049  20652461.740
  81044701.710 9
  22911037.560   120398317.525 8  22911039.300    93816880.38648  22911038.780
  89907850.175 8
  23671024.800   124392079.142 8  23671023.560    96928893.24646

  21569371.180   113347793.394 8  21569370.080    88322939.31347

  25705891.760   135085369.955 4  25705892.480   105261341.65944  25705897.320
 100875466.343 5
  25230654.120   132587984.768 7  25230653.740   103315323.00144

  23276346.700   122317999.662 8  23276349.700    95312721.65548  23276347.660
  91341351.770 8
  20116379.720   105712283.883 9  20116381.320    82373201.27649  20116380.800
  78940983.883 9
  23695825.820   124522374.814 8  23695825.780    97030399.66646

  23517354.980   125713742.493 7  23517359.800    97777371.487 4

  22152426.180   118583666.493 8  22152427.200    92231730.949 8

  21740415.440   116418950.418 8  21740415.620    90548066.977 7

  21187948.160   113142437.262 9  21187948.820    87999669.750 8

  21443972.920   114308428.254 8

  22259223.260   119071846.024 5  22259223.880    92611433.958 6

  20119897.280   107590138.875 6  20119901.340    83681237.937 9

  22508450.960   120447280.997 9  22508453.060    93681228.286 7

 20  5 25  0 49  0.0000000  0 18G04G08G09G11G16G18G21G26G27G31R01R07
                                R08R09R10R19R20R21
  20948247.620   110083792.243 8  20948247.920    85779577.83148  20948250.780
  82205437.494 9
  20642271.740   108475881.218 9  20642274.280    84526666.47949  20642272.900
  81004717.936 9
  22898952.540   120334809.441 8  22898954.000    93767393.55848  22898953.560
  89860425.303 8
  23652271.500   124293530.033 8  23652270.240    96852101.75046

  21578782.020   113397248.456 8  21578781.140    88361475.69947

  25712238.660   135118722.580 5  25712239.800   105287330.66343  25712244.060
 100900372.518 6
  25238089.200   132627056.285 7  25238089.000   103345768.32244

  23287806.520   122378221.315 8  23287809.560    95359647.55748  23287807.540
  91386322.422 8
  20118541.880   105723646.252 9  20118543.400    82382055.07449  20118543.020
  78949468.771 9
  23707304.680   124582694.292 8  23707304.380    97077401.82346

  23509026.400   125669219.969 7  23509030.520    97742742.901 4

  22170998.640   118683086.957 8  22170999.620    92309057.966 7

  21745342.860   116445335.412 9  21745342.920    90568588.630 7

  21188450.340   113145118.066 9  21188450.820    88001754.787 8

  21437762.600   114275323.234 8

  22274248.220   119152217.947 6  22274248.440    92673945.432 6

  20111780.380   107546732.419 6  20111784.160    83647477.381 9

  22484590.780   120319600.881 9  22484592.760    93581921.559 7

 20  5 25  0 49 30.0000000  0 18G04G08G09G11G16G18G21G26G27G31R01R07
                                R08R09R10R19R20R21
  20946999.260   110077231.568 9  20946999.400    85774465.60248  20947002.320
  82200538.272 9
  20632181.640   108422856.904 9  20632184.160    84485348.81449  20632182.900
  80965121.832 9
  22886952.840   120271749.864 8  22886954.120    93718256.22148  22886953.720
  89813335.347 8
  23633520.840   124194993.882 8  23633519.640    96775320.35946

  21588204.940   113446766.364 8  21588204.060    88400061.07847

  25718665.760   135152497.859 5  25718667.280   105313642.03144  25718671.280
 100925594.349 5
  25245595.720   132666504.155 7  25245596.220   103376506.90845

  23299256.280   122438389.406 8  23299259.180    95406531.73546  23299257.400
  91431253.088 8
  20120819.220   105735613.981 9  20120820.720    82391380.56949  20120820.420
  78958405.709 9
  23718826.020   124643238.568 8  23718825.660    97124579.15846

  23500813.660   125625319.834 6  23500818.020    97708598.425 4

  22189603.440   118782680.107 9  22189604.500    92386519.252 7

  21750387.840   116472350.220 9  21750387.700    90589600.142 7

  21188961.360   113147847.295 9  21188962.080    88003877.494 8

  21431543.040   114242168.845 8

  22289385.420   119233190.412 5  22289385.260    92736924.002 6

  20103804.260   107504077.521 6  20103807.420    83614301.353 8

  22460753.600   120192043.950 9  22460755.600    93482710.660 7

 20  5 25  0 50  0.0000000  0 18G04G08G09G11G16G18G21G26G27G31R01R07
                                R08R09R10R19R20R21
  20945861.380   110071251.703 8  20945861.480    85769805.95248  20945864.500
  82196072.769 9
  20622190.900   108370354.438 9  20622193.220    84444437.77549  20622192.180
  80925915.422 9
  22875039.080   120209142.173 8  22875040.240    93669471.00148  22875039.960
  89766582.847 9
  23614773.160   124096474.309 8  23614772.000    96698551.88646

  21597639.960   113496347.211 8  21597639.020    88438695.47747

  25725173.740   135186697.073 6  25725174.840   105340290.81044  25725179.020
 100951132.695 6
  25253174.360   132706330.014 7  25253174.240   103407540.03644

  23310696.000   122498505.198 8  23310698.760    95453375.16947  23310697.260
  91476144.683 8
  20123211.780   105748187.486 9  20123213.380    82401178.10549  20123213.140
  78967795.015 9
  23730390.040   124704008.925 8  23730389.960    97171932.68346

  23492717.700   125582044.702 7  23492722.680    97674940.034 5

  22208240.220   118882443.550 9  22208241.400    92464112.988 8

  21755550.060   116499994.078 9  21755549.860    90611100.910 7

  21189481.900   113150627.916 9  21189482.980    88006040.164 8

  21425314.820   114208967.683 8

  22304634.340   119314761.648 6  22304634.260    92800368.257 6

  20095968.960   107462178.068 6  20095972.080    83581712.884 8

  22436940.520   120064616.020 8  22436942.460    93383600.077 7

 20  5 25  0 50 30.0000000  0 17G04G08G09G11G16G21G26G27G31R01R07R08
                                R09R10R19R20R21
  20944833.220   110065849.111 8  20944833.580    85765596.13048  20944836.420
  82192038.356 9
  20612298.900   108318371.451 9  20612301.220    84403931.54349  20612300.200
  80887096.948 9
  22863210.960   120146984.715 8  22863212.120    93621036.62248  22863211.780
  89720166.571 9
  23596028.460   123997970.314 8  23596027.380    96621795.53346

  21607086.080   113545986.313 8  21607085.140    88477375.26847

  25260824.040   132746529.609 7  25260824.300   103438864.39645

  23322124.880   122558565.035 8  23322127.840    95500175.01747  23322126.400
  91520994.542 8
  20125718.880   105761362.120 9  20125720.420    82411444.06849  20125720.200
  78977633.226 9
  23741996.620   124765002.324 8  23741996.480    97219459.98546

  23484738.600   125539392.256 7  23484743.880    97641765.962 4

  22226906.960   118982368.483 8  22226908.180    92541832.320 7

  21760828.640   116528260.327 9  21760828.360    90633085.759 7

  21190011.780   113153458.039 9  21190013.040    88008241.324 8

  21419077.180   114175716.750 8

  22319993.600   119396925.063 5  22319994.120    92864273.108 6

  20088274.880   107421033.461 6  20088277.800    83549711.510 8

  22413151.740   119937317.981 9  22413153.700    93284590.532 7

 20  5 25  0 51  0.0000000  0 17G04G08G09G11G16G21G26G27G31R01R07R08
                                R09R10R19R20R21
  20943916.100   110061029.503 8  20943916.660    85761840.57748  20943919.240
  82188439.284 9
  20602506.940   108266914.885 9  20602509.340    84363835.51949  20602508.200
  80848671.590 9
  22851469.960   120085285.083 8  22851471.040    93572958.98948  22851470.820
  89674092.171 9
  23577288.340   123899490.253 8  23577287.400    96545057.85445

  21616543.960   113595687.697 8  21616543.100    88516103.58947

  25268545.800   132787107.997 7  25268545.840   103470483.93344

  23333544.120   122618574.416 8  23333547.440    95546935.56346  23333545.860
  91565806.732 8
  20128341.500   105775142.447 9  20128342.860    82422181.98949  20128342.420
  78987923.737 9
  23753646.980   124826224.378 8  23753646.460    97267165.46946

  23476877.540   125497369.028 7  23476882.700    97609081.251 5

  22245604.300   119082456.910 9  22245605.580    92619678.836 8

  21766223.820   116557152.628 9  21766224.040    90655557.539 8

  21190552.300   113156344.791 9  21190553.660    88010486.547 8

  21412831.080   114142422.175 8

  22335464.200   119479683.053 5  22335464.980    92928640.410 6

  20080723.260   107380652.176 6  20080726.340    83518303.843 9

  22389389.380   119810159.936 9  22389391.200    93185689.881 7

 20  5 25  0 51 30.0000000  0 17G04G08G09G11G16G21G26G27G31R01R07R08
                                R09R10R19R20R21
  20943109.480   110056790.872 8  20943110.100    85758537.73248  20943112.720
  82185274.054 9
  20592815.300   108215984.122 9  20592817.500    84324149.18849  20592816.380
  80810638.853 9
  22839815.840   120024043.110 8  22839817.200    93525237.98148  22839816.980
  89628359.556 9
  23558552.740   123801034.751 8  23558551.660    96468339.30345

  21626013.140   113645448.122 8  21626012.320    88554877.92847

  25276339.020   132828062.850 7  25276339.660   103502396.78044

  23344953.180   122678530.984 8  23344957.060    95593654.93247  23344955.300
  91610579.478 8
  20131078.600   105789525.324 9  20131079.880    82433389.42449  20131079.280
  78998664.193 9
  23765340.380   124887672.890 8  23765339.700    97315047.38646

  23469134.160   125455974.083 7  23469138.640    97576885.216 4

  22264331.160   119182701.764 9  22264332.300    92697647.004 7

  21771734.880   116586665.847 8  21771735.840    90678512.242 7

  21191103.180   113159287.594 9  21191104.620    88012775.348 8

  21406576.640   114109082.618 8

  22351044.700   119563030.335 5  22351045.800    92993466.051 6

  20073314.340   107341034.367 6  20073317.700    83487489.984 8

  22365653.640   119683144.132 9  22365655.200    93086899.830 7

 20  5 25  0 52  0.0000000  0 17G04G08G09G11G16G21G26G27G31R01R07R08
                                R09R10R19R20R21
  20942413.320   110053131.641 9  20942413.660    85755686.32448  20942416.480
  82182541.498 9
  20583223.520   108165578.633 9  20583225.680    84284872.12749  20583224.480
  80772998.377 9
  22828248.920   119963259.208 8  22828250.640    93477873.86948  22828250.240
  89582968.995 9
  23539822.060   123702604.739 8  23539820.940    96391640.54446

  21635493.020   113695264.797 8  21635492.240    88593696.06547

  25284203.580   132869392.275 7  25284203.640   103534601.41145

  23356352.200   122738433.333 8  23356356.260    95640332.00547  23356354.420
  91655311.685 8
  20133929.700   105804508.069 9  20133930.980    82445064.23449  20133930.380
  79009852.601 9
  23777076.640   124949346.614 8  23777075.860    97363104.76046

  23461507.980   125415206.970 7  23461511.760    97545177.406 4

  22283085.900   119283097.308 9  22283087.280    92775732.316 8

  21777361.120   116616796.056 8  21777362.380    90701946.770 7

  21191664.420   113162286.451 9  21191666.280    88015107.720 8

  21400313.980   114075697.576 8

  22366734.780   119646961.953 6  22366736.080    93058746.116 6

  20066048.340   107302181.120 6  20066052.020    83457270.746 9

  22341944.780   119556273.672 9  22341946.460    92988222.811 7

 20  5 25  0 52 30.0000000  0 17G04G08G09G11G16G21G26G27G31R01R07R08
                                R09R10R19R20R21
  20941827.500   110050052.632 8  20941827.720    85753287.09048  20941830.520
  82180242.224 9
  20573732.120   108115700.351 9  20573734.260    84246005.92549  20573732.820
  80735751.598 9
  22816769.820   119902936.109 8  22816771.320    93430868.85948  22816771.040
  89537922.504 9
  23521096.720   123604203.585 8  23521095.980    96314964.38146

  21644983.580   113745137.217 8  21644982.800    88632557.67647

  25292139.900   132911096.384 7  25292140.140   103567098.04044

  23367741.120   122798281.955 8  23367745.020    95686967.21547  23367743.480
  91700003.775 8
  20136894.820   105820090.376 9  20136896.180    82457206.28649  20136895.520
  79021488.737 9
  23788855.600   125011246.570 8  23788854.960    97411338.45946

  23453999.740   125375069.599 7  23454003.020    97513959.438 4

  22301868.140   119383639.844 9  22301869.640    92853932.023 8

  21783102.780   116647541.689 9  21783103.860    90725860.010 7

  21192236.760   113165343.788 9  21192238.720    88017485.682 8

  21394042.980   114042268.820 8

  22382533.680   119731475.388 5  22382535.140    93124478.758 6

  20058926.200   107264096.259 5  20058930.020    83427649.177 9

  22318264.040   119429553.677 9  22318265.860    92889662.848 7

 20  5 25  0 53  0.0000000  0 17G04G08G09G11G16G21G26G27G31R01R07R08
                                R09R10R19R20R21
  20941351.600   110047552.604 8  20941351.860    85751339.05148  20941354.720
  82178375.302 9
  20564341.000   108066349.680 9  20564343.100    84207550.90549  20564341.640
  80698898.819 9
  22805378.480   119843074.471 8  22805380.060    93384223.48448  22805379.800
  89493220.657 9
  23502377.320   123505832.805 8  23502376.540    96238311.89546

  21654484.240   113795062.923 9  21654483.360    88671460.82847

  25300146.880   132953173.644 7  25300146.820   103599885.46644

  23379119.420   122858075.782 7  23379123.220    95733559.78147  23379121.900
  91744654.886 8
  20139973.480   105836269.926 9  20139975.000    82469813.77749  20139974.340
  79033570.861 9
  23800677.540   125073371.298 8  23800676.740    97459747.37246

  23446609.080   125335561.665 7  23446612.200    97483231.105 4

  22320676.700   119484323.932 9  22320678.080    92932241.875 7

  21788958.520   116678898.474 8  21788959.580    90750248.665 7

  21192820.280   113168460.281 9  21192822.240    88019909.737 8

  21387763.660   114008795.687 8

  22398440.360   119816566.387 6  22398442.100    93190660.665 6

  20051948.120   107226780.755 6  20051951.900    83398626.059 8

  22294612.060   119302987.555 9  22294614.040    92791222.621 7

 20  5 25  0 53 30.0000000  0 17G04G08G09G11G16G21G26G27G31R01R07R08
                                R09R10R19R20R21
  20940985.800   110045631.008 8  20940986.280    85749841.68548  20940989.080
  82176940.325 9
  20555050.380   108017527.129 9  20555052.420    84169507.35549  20555051.040
  80662440.416 9
  22794075.260   119783675.704 8  22794077.040    93337938.73548  22794076.560
  89448864.441 9
  23483664.080   123407494.704 8  23483663.460    96161684.83046

  21663994.760   113845040.668 9  21663993.720    88710404.48447

  25308225.060   132995623.288 6  25308225.140   103632963.04345

  23390487.540   122917814.142 8  23390490.880    95780109.03047  23390489.520
  91789264.559 8
  20143165.480   105853044.992 9  20143167.180    82482885.25349  20143166.500
  79046097.696 9
  23812542.040   125135720.804 8  23812541.500    97508331.36846

  23439336.080   125296683.344 7  23439339.300    97452992.405 4

  22339510.860   119585144.627 8  22339512.100    93010657.930 7

  21794927.800   116710863.234 8  21794928.580    90775110.122 7

  21193415.260   113171636.696 9  21193417.180    88022380.294 8

  21381476.160   113975278.546 8

  22414454.440   119902231.190 6  22414456.100    93257288.805 6

  20045114.120   107190236.791 5  20045117.940    83370202.987 8

  22270989.560   119176579.276 9  22270991.620    92692905.087 7

 20  5 25  0 54  0.0000000  0 17G04G08G09G11G16G21G26G27G31R01R07R08
                                R09R10R19R20R21
  20940730.560   110044289.330 9  20940730.980    85748796.17048  20940733.740
  82175938.404 9
  20545860.680   107969235.537 9  20545862.820    84131877.52849  20545861.520
  80626378.530 9
  22782860.780   119724743.232 8  22782862.680    93292017.30648  22782862.120
  89404856.430 9
  23464957.920   123309193.650 8  23464957.520    96085086.60846

  21673515.080   113895069.866 9  21673513.740    88749388.22647

  25316374.200   133038446.230 7  25316373.660   103666331.46344

  23401845.400   122977498.657 8  23401848.420    95826616.30347  23401847.160
  91833834.048 8
  20146471.160   105870416.009 9  20146472.760    82496421.07149  20146472.020
  79059069.544 9
  23824449.620   125198296.168 8  23824449.140    97557091.32346

  23432181.420   125258437.757 7  23432184.880    97423245.831 4

  22358369.920   119686099.115 8  22358371.340    93089178.004 7

  21801010.500   116743435.166 9  21801011.180    90800443.807 7

  21194022.000   113174876.200 9  21194023.840    88024899.855 8

  21375180.480   113941719.855 8

  22430575.440   119988467.862 5  22430576.720    93324361.708 6

  20038425.040   107154468.221 6  20038428.920    83342382.962 8

  22247397.560   119050334.829 9  22247399.820    92594714.983 7

 20  5 25  0 54 30.0000000  0 17G04G08G09G11G16G21G26G27G31R01R07R08
                                R09R10R19R20R21
  20940585.500   110043526.193 8  20940585.840    85748201.54148  20940588.340
  82175368.506 9
  20536772.080   107921474.435 9  20536774.180    84094661.12049  20536772.920
  80590712.775 9
  22771735.180   119666277.628 8  22771737.040    93246459.72548  22771736.420
  89361197.058 9
  23446259.100   123210930.730 8  23446258.880    96008518.17546

  21683044.860   113945148.783 8  21683043.340    88788410.77147

  25324593.900   133081640.914 6  25324594.160   103699989.68545

  23413192.600   123037128.146 8  23413195.780    95873080.81747  23413194.640
  91878362.479 8
  20149889.880   105888380.429 9  20149891.200    82510419.34349  20149890.460
  79072484.531 9
  23836400.220   125261096.580 8  23836399.560    97606026.71946

  23425145.060   125220823.937 7  23425148.340    97393990.706 4

  22377252.960   119787181.831 8  22377254.400    93167797.890 7

  21807205.820   116776610.250 8  21807206.360    90826246.665 7

  21194640.640   113178179.302 9  21194642.340    88027468.926 8

  21368876.940   113908119.388 8

  22446802.720   120075271.854 5  22446803.960    93391875.895 5

  20031881.220   107119476.464 6  20031885.100    83315167.172 8

  22223837.100   118924257.411 9  22223839.020    92496654.796 7

 20  5 25  0 55  0.0000000  0 17G04G08G09G11G16G21G26G27G31R01R07R08
                                R09R10R19R20R21
  20940550.740   110043342.892 9  20940550.920    85748058.69048  20940553.380
  82175231.606 9
  20527785.000   107874246.619 9  20527787.040    84057860.22549  20527785.800
  80555445.250 9
  22760699.120   119608282.182 8  22760700.940    93201268.45648  22760700.220
  89317888.749 9
  23427568.480   123112710.378 8  23427568.000    95931982.85846

  21692584.120   113995277.628 9  21692582.500    88827472.18847

  25332884.380   133125208.053 7  25332884.320   103733938.14844

  23424529.520   123096704.013 8  23424532.820    95919503.62646  23424531.680
  91922851.029 8
  20153421.560   105906938.476 9  20153422.600    82524880.15749  20153422.040
  79086342.807 9
  23848393.800   125324123.389 8  23848393.380    97655138.45546

  23418227.100   125183844.505 7  23418230.760    97365228.944 4

  22396159.080   119888389.921 8  22396161.060    93246515.249 7

  21813513.540   116810386.940 9  21813513.680    90852517.409 7

  21195272.100   113181549.125 9  21195273.320    88030089.903 8

  21362566.260   113874479.150 8

  22463135.280   120162641.091 5  22463136.980    93459829.704 6

  20025483.500   107085265.247 6  20025487.240    83288558.432 8

  22200308.980   118798353.044 9  22200310.760    92398729.212 7

 20  5 25  0 55 30.0000000  0 17G04G08G09G11G16G21G26G27G31R01R07R08
                                R09R10R19R20R21
  20940625.760   110043738.066 8  20940626.100    85748366.59948  20940628.640
  82175526.691 9
  20518899.400   107827551.851 9  20518901.260    84021474.69749  20518900.120
  80520575.796 9
  22749752.640   119550757.526 8  22749754.500    93156444.04348  22749753.820
  89274932.020 9
  23408885.920   123014533.769 8  23408885.320    95855481.62746

  21702132.460   114045453.773 9  21702130.800    88866570.46947

  25341245.260   133169145.943 7  25341245.920   103768175.38745

  23435856.020   123156224.852 8  23435859.260    95965883.47346  23435858.240
  91967298.389 8
  20157065.680   105926087.663 9  20157066.540    82539801.59149  20157066.120
  79100642.510 9
  23860430.540   125387375.495 8  23860430.040    97704425.79346

  23411427.680   125147498.895 7  23411431.540    97336960.136 4

  22415088.100   119989717.874 8  22415090.040    93325325.809 7

  21819932.940   116844761.630 8  21819932.920    90879253.254 7

  21195916.000   113184986.199 9  21195917.020    88032763.156 8

  21356247.800   113840799.128 8

  22479572.940   120250571.565 5  22479574.580    93528220.020 6

  20019232.160   107051835.552 6  20019235.680    83262557.564 9

  22176813.820   118672625.100 9  22176815.140    92300940.807 7

 20  5 25  0 56  0.0000000  0 17G04G08G09G11G16G21G26G27G31R01R07R08
                                R09R10R19R20R21
  20940810.920   110044711.290 8  20940811.440    85749124.93448  20940813.940
  82176253.416 9
  20510115.300   107781390.686 9  20510117.160    83985504.96949  20510115.920
  80486104.808 9
  22738895.900   119493705.162 8  22738897.700    93111987.64848  22738897.260
  89232327.979 9
  23390212.260   122916403.473 8  23390211.620    95779016.46745

  21711689.580   114095675.966 9  21711687.940    88905704.61847

  25349676.560   133213453.680 6  25349676.940   103802700.87445

  23447171.920   123215690.402 8  23447175.280    96012220.24347  23447174.440
  92011704.450 8
  20160821.840   105945826.396 9  20160822.840    82555182.41349  20160822.360
  79115382.463 9
  23872509.820   125450852.461 8  23872509.360    97753888.32746

  23404746.980   125111787.564 7  23404751.020    97309184.673 4

  22434038.860   120091160.886 8  22434040.460    93404225.886 7

  21826463.120   116879730.528 9  21826463.160    90906451.273 7

  21196572.780   113188491.779 9  21196573.360    88035489.720 8

  21349921.540   113807079.537 8

  22496115.180   120339059.057 5  22496116.180    93597043.581 6

  20013127.160   107019189.494 6  20013130.800    83237166.202 9

  22153352.200   118547077.620 9  22153353.680    92203292.824 7

 20  5 25  0 56 30.0000000  0 17G04G08G09G11G16G21G26G27G31R01R07R08
                                R09R10R19R20R21
  20941106.180   110046263.137 8  20941106.740    85750334.15848  20941109.360
  82177412.253 9
  20501433.120   107735765.415 9  20501434.980    83949952.82649  20501433.640
  80452034.004 9
  22728129.460   119437127.705 8  22728131.140    93067901.31948  22728130.960
  89190078.584 9
  23371548.120   122818322.897 8  23371547.580    95702590.06546

  21721255.320   114145943.715 9  21721253.660    88944874.26447

  25358178.520   133258131.543 6  25358179.720   103837514.75244

  23458477.280   123275101.700 8  23458480.760    96058514.75946  23458480.280
  92056070.018 8
  20164689.920   105966154.226 9  20164691.280    82571022.26549  20164690.700
  79130562.319 9
  23884632.120   125514555.341 8  23884631.860    97803526.88847

  23398185.560   125076712.089 7  23398189.320    97281903.730 5

  22453010.400   120192715.433 8  22453011.860    93483212.679 7

  21833104.100   116915291.833 8  21833104.020    90934110.048 7

  21197242.820   113192068.481 9  21197243.180    88038271.550 8

  21343588.580   113773322.690 8

  22512760.780   120428101.229 5  22512761.880    93666298.593 6

  20007169.340   106987330.128 6  20007172.980    83212386.710 9

  22129925.220   118421716.038 9  22129926.800    92105789.386 7

 20  5 25  0 57  0.0000000  0 17G04G08G09G11G16G21G26G27G31R01R07R08
                                R09R10R19R20R21
  20941511.360   110048392.700 8  20941511.840    85751993.53848  20941514.580
  82179002.497 9
  20492852.980   107690676.588 9  20492854.920    83914818.69349  20492853.440
  80418363.798 9
  22717453.580   119381026.323 8  22717455.160    93024185.95648  22717455.220
  89148184.697 9
  23352893.640   122720293.781 8  23352893.220    95626203.76146

  21730829.300   114196255.398 9  21730827.860    88984078.13647

  25366750.680   133303178.466 7  25366750.620   103872616.18943

  23469772.200   123334458.184 8  23469775.560    96104766.69847  23469775.460
  92100394.805 8
  20168669.760   105987069.112 9  20168671.280    82587319.56949  20168670.740
  79146180.570 9
  23896797.280   125578483.255 8  23896797.140    97853340.82846

  23391742.900   125042272.662 7  23391746.780    97255117.511 4

  22472001.820   120294376.629 8  22472002.880    93562282.464 7

  21839855.040   116951442.313 9  21839855.200    90962227.052 7

  21197926.100   113195717.321 9  21197926.360    88041109.493 8

  21337248.900   113739528.823 8

  22529509.200   120517693.891 5  22529510.320    93735981.739 5

  20001358.820   106956258.912 6  20001362.460    83188220.213 8

  22106533.760   118296544.352 9  22106535.640    92008433.682 7

 20  5 25  0 57 30.0000000  0 17G04G08G09G11G16G21G26G27G31R01R07R08
                                R09R10R19R20R21
  20942026.520   110051099.622 8  20942026.920    85754102.82348  20942029.700
  82181023.896 9
  20484375.000   107646124.560 9  20484377.000    83880102.84849  20484375.340
  80385094.434 9
  22706868.720   119325402.627 8  22706870.260    92980842.83248  22706870.320
  89106647.531 9
  23334249.480   122622318.973 8  23334249.120    95549859.75946

  21740411.240   114246609.673 9  21740410.120    89023315.19147

  25375393.180   133348593.788 6  25375393.660   103908004.69545

  23481056.920   123393759.365 8  23481060.100    96150975.44546  23481060.080
  92144678.190 8
  20172761.220   106008569.633 9  20172762.720    82604073.20449  20172762.160
  79162236.128 9
  23909005.280   125642636.334 8  23909005.120    97903330.21846

  23385419.320   125008470.011 7  23385423.320    97228826.570 4

  22491011.940   120396139.999 8  22491013.240    93641431.698 7

  21846715.560   116988178.704 9  21846715.580    90990799.801 7

  21198623.060   113199440.015 9  21198623.580    88044004.878 8

  21330902.700   113705698.649 8

  22546359.840   120607833.480 5  22546360.960    93806090.260 6

  19995696.040   106925978.026 6  19995699.740    83164668.427 9

  22083178.880   118171567.003 9  22083180.600    91911229.087 7

 20  5 25  0 58  0.0000000  0 17G04G08G09G11G16G21G26G27G31R01R07R08
                                R09R10R19R20R21
  20942651.120   110054381.394 9  20942651.520    85756660.02648  20942654.360
  82183474.540 9
  20475998.980   107602108.186 9  20476000.940    83845804.39549  20475999.220
  80352225.091 9
  22696374.880   119270256.116 8  22696376.260    92937871.52248  22696376.060
  89065466.705 9
  23315615.920   122524399.110 8  23315615.620    95473558.58146

  21750000.680   114297003.301 9  21749999.800    89062582.93847

  25384105.340   133394374.656 7  25384105.060   103943678.14745

  23492330.840   123453003.174 8  23492333.820    96197139.46747  23492333.760
  92188918.706 8
  20176963.620   106030652.093 9  20176964.900    82621280.30049  20176964.240
  79178726.260 9
  23921255.500   125707012.258 8  23921255.360    97953493.23546

  23379214.800   124975302.315 7  23379218.640    97203029.507 4

  22510040.020   120497999.459 8  22510041.260    93720655.685 7

  21853684.560   117025496.055 9  21853683.980    91019824.396 7

  21199333.620   113203235.866 9  21199334.460    88046957.190 8

  21324549.160   113671830.538 8

  22563311.700   120698514.019 5  22563312.840    93876619.539 6

  19990181.180   106896487.353 6  19990184.940    83141731.245 8

  22059860.720   118046786.136 9  22059862.020    91814177.325 7

 20  5 25  0 58 30.0000000  0 17G04G08G09G11G16G21G26G27G31R01R07R08
                                R09R10R19R20R21
  20943385.720   110058241.115 9  20943386.100    85759667.57848  20943388.860
  82186356.776 9
  20467725.700   107558632.376 9  20467727.520    83811927.15949  20467726.020
  80319759.407 9
  22685972.860   119215591.979 8  22685973.940    92895276.09048  22685973.520
  89024646.067 9
  23296994.180   122426540.270 8  23296993.600    95397304.93446

  21759598.140   114347438.564 9  21759597.280    89101883.15047

  25392887.100   133440523.579 7  25392887.620   103979638.32044

  23503594.580   123512193.153 8  23503597.480    96243261.49147  23503597.100
  92233118.968 8
  20181276.960   106053318.548 9  20181278.180    82638942.45549  20181277.400
  79195652.479 9
  23933548.880   125771614.542 8  23933548.780    98003832.64646

  23373129.960   124942773.799 7  23373133.400    97177729.584 4

  22529086.200   120599953.565 9  22529087.240    93799953.271 7

  21860761.600   117063394.458 9  21860761.060    91049300.915 7

  21200059.280   113207110.383 9  21200060.140    88049970.753 8

  21318189.640   113637929.726 8

  22580364.580   120789736.313 5  22580365.760    93947570.152 6

  19984814.980   106867792.346 6  19984818.820    83119412.915 8

  22036580.660   117922209.875 9  22036581.920    91717284.721 7

 20  5 25  0 59  0.0000000  0 17G04G08G09G11G16G21G26G27G31R01R07R08
                                R09R10R19R20R21
  20944230.280   110062678.577 8  20944230.580    85763125.32948  20944233.280
  82189670.452 9
  20459555.460   107515697.575 9  20459557.260    83778471.47249  20459555.760
  80287697.724 9
  22675662.720   119161411.988 8  22675663.860    92853057.92548  22675663.440
  88984186.994 9
  23278384.400   122328745.466 8  23278384.080    95321101.19246

  21769203.380   114397914.725 9  21769202.500    89141215.20447

  25401738.540   133487040.218 6  25401738.920   104015885.03145

  23514848.140   123571329.457 8  23514850.800    96289341.67347  23514850.120
  92277279.128 8
  20185701.000   106076567.705 9  20185702.340    82657058.66049  20185701.600
  79213013.849 9
  23945885.360   125836443.124 8  23945885.380    98054348.38046

  23367164.520   124910884.999 7  23367167.800    97152927.232 4

  22548149.360   120701998.437 9  22548150.300    93879321.476 7

  21867946.840   117101871.547 9  21867946.320    91079227.517 7

  21200799.900   113211065.100 9  21200801.000    88053046.703 8

  21311824.180   113603997.070 8

  22597518.280   120881496.351 5  22597519.300    94018939.029 6

  19979597.720   106839895.039 6  19979601.900    83097715.026 8

  22013339.740   117797842.937 9  22013340.780    91620554.879 7

 20  5 25  0 59 30.0000000  0 17G04G08G09G11G16G21G26G27G31R01R07R08
                                R09R10R19R20R21
  20945183.760   110067689.359 8  20945184.060    85767029.81148  20945186.900
  82193412.244 9
  20451487.600   107473300.834 9  20451489.480    83745435.06149  20451487.840
  80256037.819 9
  22665444.140   119107713.820 8  22665445.440    92811215.20348  22665445.100
  88944087.711 9
  23259786.540   122231013.131 8  23259786.440    95244946.14246

  21778815.400   114448426.331 8  21778814.380    89180574.89547

  25410659.560   133533919.766 6  25410660.140   104052414.42144

  23526090.560   123630408.153 8  23526093.260    96335376.93747  23526092.120
  92321396.250 8
  20190234.940   106100394.055 9  20190236.400    82675624.63749  20190235.660
  79230806.227 9
  23958264.160   125901493.955 8  23958264.120    98105037.28546

  23361317.840   124879632.547 7  23361321.080    97128619.792 4

  22567227.560   120804125.693 8  22567228.840    93958753.709 7

  21875238.940   117140919.970 9  21875238.380    91109598.473 7

  21201554.900   113215097.637 9  21201556.160    88056183.095 8

  21305452.200   113570029.671 8

  22614771.260   120973786.462 6  22614772.240    94090720.199 6

  19974529.740   106812793.601 6  19974533.640    83076636.141 8

  21990137.920   117673685.593 9  21990139.080    91523988.084 7

 20  5 25  1  0  0.0000000  0 17G04G08G09G11G16G21G26G27G31R01R07R08
                                R09R10R19R20R21
  20946247.020   110073276.444 9  20946247.400    85771383.36648  20946250.300
  82197584.404 9
  20443522.960   107431446.552 9  20443524.860    83712821.33749  20443523.180
  80224783.008 9
  22655318.400   119054502.514 8  22655319.620    92769751.84548  22655319.520
  88904351.997 9
  23241201.920   122133349.316 9  23241201.480    95168844.45646

  21788434.560   114498975.781 9  21788433.460    89219964.06747

  25419649.960   133581164.897 6  25419650.980   104089228.58344

  23537322.620   123689432.788 8  23537325.480    96381370.14646  23537324.000
  92365473.078 8
  20194878.980   106124799.469 9  20194880.720    82694641.83349  20194879.840
  79249031.048 9
  23970685.720   125966770.264 8  23970685.780    98155901.88846

  23355591.120   124849020.350 7  23355594.480    97104810.328 5

  22586320.780   120906334.394 8  22586322.180    94038249.307 7

  21882637.840   117180540.234 9  21882637.060    91140414.197 7

  21202325.400   113219213.252 9  21202326.960    88059384.125 8

  21299074.320   113536032.003 8

  22632123.040   121066606.860 5  22632123.860    94162913.800 6

  19969611.600   106786493.353 6  19969615.440    83056180.400 9

  21966976.680   117549746.082 9  21966978.000    91427590.710 7

 20  5 25  1  0 30.0000000  0 18G04G08G09G11G16G21G26G27G31R01R07R08
                                R09R10R11R19R20R21
  20947419.840   110079438.924 9  20947420.180    85776185.28848  20947423.120
  82202186.235 9
  20435661.600   107390134.822 9  20435663.520    83680630.37549  20435661.920
  80193933.336 9
  22645285.240   119001779.221 8  22645286.560    92728668.76648  22645286.720
  88864980.709 9
  23222630.760   122035756.392 8  23222630.220    95092798.02846

  21798060.560   114549561.638 8  21798059.600    89259381.58547

  25428709.780   133628774.949 6  25428710.500   104126327.26945

  23548544.280   123748402.841 8  23548547.160    96427320.81247  23548545.540
  92409509.133 8
  20199632.760   106149781.916 9  20199634.780    82714108.67049  20199634.000
  79267686.771 9
  23983149.840   126032271.766 7  23983150.200    98206941.97946

  23349984.120   124819048.027 7  23349987.600    97081498.510 4

  22605428.160   121008620.002 8  22605430.000    94117804.705 7

  21890142.640   117220728.553 8  21890142.080    91171671.751 7

  21203111.760   113223413.502 9  21203113.420    88062650.988 8

  21292690.920   113502004.233 8

  24199384.600   129314175.772 5

  22649573.240   121159953.283 5  22649573.960    94235516.549 5

  19964843.580   106760995.712 6  19964847.220    83036348.910 8

  21943856.820   117426028.304 9  21943858.400    91331365.805 7

 20  5 25  1  1  0.0000000  0 18G04G08G09G11G16G21G26G27G31R01R07R08
                                R09R10R11R19R20R21
  20948701.500   110086174.098 8  20948701.760    85781433.46648  20948704.740
  82207215.734 9
  20427903.240   107349364.320 9  20427905.200    83648861.15849  20427903.760
  80163487.836 9
  22635345.020   118949543.341 8  22635346.200    92687965.47548  22635346.660
  88825973.394 9
  23204073.100   121938234.728 8  23204072.420    95016807.13646

  21807692.800   114600180.499 8  21807692.180    89298824.81647

  25437838.860   133676747.200 6  25437839.760   104163708.24944

  23559754.900   123807316.192 8  23559758.060    96473227.27747  23559756.480
  92453502.820 8
  20204495.780   106175337.645 9  20204497.820    82734022.21549  20204497.160
  79286770.575 9
  23995656.620   126097995.833 7  23995656.980    98258155.50745

  23344496.320   124789714.098 7  23344500.400    97058683.255 4

  22624549.020   121110975.862 8  22624550.980    94197414.781 7

  21897752.620   117261479.757 9  21897752.080    91203367.122 7

  21203913.920   113227697.539 9  21203915.480    88065983.046 8

  21286301.760   113467945.669 8

  24188269.500   129254776.179 6  24188271.520   100531502.999 4

  22667120.660   121253820.309 5  22667121.400    94308524.248 6

  19960225.480   106736300.199 6  19960228.960    83017141.307 8

  21920779.140   117302534.704 9  21920780.900    91235315.262 7

 20  5 25  1  1 30.0000000  0 18G04G08G09G11G16G21G26G27G31R01R07R08
                                R09R10R11R19R20R21
  20950092.160   110093482.978 8  20950092.360    85787128.68248  20950095.460
  82212673.630 9
  20420248.280   107309137.688 9  20420250.300    83617515.71649  20420249.020
  80133448.456 9
  22625498.160   118897797.923 8  22625499.420    92647644.37548  22625499.840
  88787332.342 9
  23185529.780   121840788.727 9  23185529.060    94940875.20346

  21817331.480   114650832.924 8  21817331.180    89338294.19847

  25447037.160   133725082.129 6  25447037.320   104201372.04445

  23570955.140   123866174.455 8  23570958.660    96519090.80947  23570956.980
  92497455.372 8
  20209468.060   106201466.601 9  20209469.900    82754382.42849  20209469.400
  79306282.448 9
  24008206.360   126163944.168 8  24008206.460    98309543.77145

  23339128.380   124761020.291 7  23339132.620    97036365.835 4

  22643682.780   121213399.242 8  22643684.500    94277077.383 7

  21905467.740   117302792.073 9  21905466.900    91235498.887 7

  21204732.540   113232068.626 9  21204733.960    88069382.738 8

  21279906.900   113433858.613 8

  24177124.880   129195224.419 7  24177127.700   100485185.019 5

  22684764.660   121348205.379 5  22684765.720    94381934.866 6

  19955757.760   106712409.958 5  19955761.400    82998560.017 8

  21897744.520   117179271.361 9  21897746.240    91139443.773 7

 20  5 25  1  2  0.0000000  0 18G04G08G09G11G16G21G26G27G31R01R07R08
                                R09R10R11R19R20R21
  20951591.600   110101362.499 9  20951591.740    85793268.54448  20951594.660
  82218557.674 9
  20412696.360   107269452.998 9  20412698.600    83586592.58049  20412697.440
  80103813.779 9
  22615744.600   118846542.092 8  22615745.820    92607704.75348  22615745.880
  88749056.855 9
  23167000.880   121743418.459 8  23167000.060    94865002.26046

  21826976.200   114701515.571 8  21826975.800    89377787.11247

  25456303.660   133773775.892 7  25456304.040   104239315.26144

  23582144.560   123924975.191 8  23582148.100    96564909.52547  23582146.640
  92541364.957 8
  20214548.700   106228164.640 9  20214550.360    82775186.07949  20214549.920
  79326219.282 9
  24020798.340   126230113.838 8  24020798.320    98361104.50445

  23333879.760   124732964.698 7  23333884.060    97014544.849 4

  22662827.860   121315883.324 8  22662829.420    94356787.180 7

  21913286.200   117344659.777 9  21913285.520    91268062.639 7

  21205567.200   113236525.992 9  21205568.660    88072849.568 8

  21273506.280   113399741.647 8

  24165951.020   129135517.769 8  24165954.840   100438746.551 6

  22702504.500   121443102.291 6  22702505.880    94455743.557 6

  19951440.580   106689324.043 6  19951444.200    82980604.314 8

  21874753.160   117056240.053 9  21874755.120    91043752.798 7

 20  5 25  1  2 30.0000000  0 18G04G08G09G11G16G21G26G27G31R01R07R08
                                R09R10R11R19R20R21
  20953200.280   110109816.190 9  20953200.480    85799855.82648  20953203.200
  82224870.480 9
  20405248.500   107230314.797 9  20405250.920    83556095.29149  20405249.600
  80074587.216 9
  22606085.160   118795781.373 8  22606086.280    92568150.94348  22606086.300
  88711151.128 9
  23148487.500   121646130.537 8  23148486.660    94789193.48846

  21836627.360   114752230.977 8  21836626.620    89417305.57047

  25465638.800   133822832.039 7  25465638.460   104277540.81044

  23593323.660   123983722.420 8  23593327.380    96610686.52447  23593325.960
  92585234.588 8
  20219738.020   106255434.186 9  20219739.600    82796435.05749  20219739.080
  79346582.882 9
  24033433.260   126296508.896 7  24033432.940    98412840.88646

  23328751.520   124705551.578 7  23328755.540    96993223.526 4

  22681984.120   121418428.348 8  22681985.460    94436544.344 6

  21921208.260   117387083.984 9  21921207.860    91301059.213 7

  21206418.880   113241075.720 9  21206420.700    88076388.229 8

  21267101.360   113365600.064 8

  24154749.120   129075659.678 8  24154752.860   100392190.325 6

  22720340.480   121538511.762 6  22720341.780    94529950.899 6

  19947275.200   106667048.807 6  19947278.660    82963279.138 9

  21851806.840   116933449.700 9  21851808.800    90948249.215 8

 20  5 25  1  3  0.0000000  0 19G04G07G08G09G11G16G21G26G27G31R01R07
                                R08R09R10R11R19R20R21
  20954917.880   110118841.259 9  20954918.020    85806888.33748  20954920.560
  82231609.974 9
  25604654.600   134553368.244 6  25604654.560   104846777.73546

  20397904.480   107191721.835 9  20397906.880    83526022.85549  20397905.480
  80045767.794 9
  22596519.920   118745515.196 8  22596520.940    92528982.49548  22596521.040
  88673614.701 9
  23129989.700   121548925.752 8  23129989.280    94713449.53246

  21846284.200   114802975.973 8  21846282.960    89456847.08747

  25475042.240   133872247.975 7  25475042.140   104316046.72045

  23604492.300   124042414.298 7  23604496.200    96656420.40747  23604494.560
  92629062.862 8
  20225035.260   106283271.422 9  20225036.920    82818126.40049  20225036.260
  79367370.419 9
  24046110.360   126363127.154 7  24046110.020    98464751.17046

  23323743.040   124678778.916 7  23323747.320    96972400.351 4

  22701150.700   121521027.317 8  22701151.800    94516343.470 6

  21929233.820   117430059.209 9  21929233.280    91334484.361 7

  21207287.980   113245717.283 9  21207289.960    88079998.288 8

  21260691.460   113331432.684 8

  24143518.800   129015647.465 8  24143522.320   100345514.238 6

  22738271.100   121634427.921 5  22738272.300    94604552.343 6

  19943261.140   106645583.447 6  19943264.560    82946583.871 9

  21828906.060   116810902.529 9  21828907.820    90852934.772 8

 20  5 25  1  3 30.0000000  0 19G04G07G08G09G11G16G21G26G27G31R01R07
                                R08R09R10R11R19R20R21
  20956744.200   110128437.563 9  20956744.140    85814365.96248  20956746.780
  82238776.020 9
  25587845.800   134465040.205 6  25587845.540   104777950.71246

  20390664.500   107153675.013 9  20390666.740    83496375.98349  20390665.280
  80017356.206 9
  22587048.780   118695745.415 8  22587049.940    92490200.84948  22587050.240
  88636448.955 9
  23111508.420   121451806.918 8  23111508.080    94637772.52147

  21855946.520   114853750.073 8  21855945.000    89496411.28047

  25484514.180   133922023.183 7  25484514.240   104354832.63445

  23615650.440   124101051.261 7  23615654.360    96702111.49247  23615652.820
  92672850.146 8
  20230440.380   106311675.078 9  20230441.940    82840259.10449  20230441.260
  79388580.921 9
  24058829.880   126429968.830 7  24058829.880    98516835.55646

  23318854.840   124652647.430 7  23318858.820    96952075.832 4

  22720326.620   121623676.780 8  22720327.620    94596181.884 6

  21937361.580   117473582.563 9  21937361.200    91368335.836 7

  21208174.900   113250452.929 9  21208176.920    88083681.519 8

  21254277.260   113297241.168 8

  24132259.420   128955481.086 8  24132262.860   100298718.174 6

  22756295.760   121730847.730 5  22756297.000    94679545.489 6

  19939398.720   106624929.932 6  19939402.340    82930520.032 9

  21806051.340   116688603.521 9  21806053.240    90757813.362 8

 20  5 25  1  4  0.0000000  0 19G04G07G08G09G11G16G21G26G27G31R01R07
                                R08R09R10R11R19R20R21
  20958678.920   110138604.023 9  20958678.760    85822287.85848  20958681.440
  82246367.835 9
  25571008.840   134376562.928 7  25571009.080   104709007.41647

  20383528.620   107116174.911 9  20383530.680    83467155.13749  20383529.100
  79989352.894 9
  22577672.360   118646473.148 8  22577673.720    92451806.87748  22577674.140
  88599654.742 9
  23093044.460   121354776.585 9  23093043.760    94562164.46146

  21865613.940   114904552.219 8  21865612.520    89535997.35247

  25494054.080   133972156.497 6  25494053.820   104393897.66345

  23626798.280   124159633.072 7  23626801.940    96747759.63646  23626800.640
  92716596.288 8
  20235952.920   106340643.083 9  20235954.340    82862831.56549  20235953.720
  79410212.865 9
  24071591.860   126497033.399 7  24071591.760    98569093.59346

  23314086.480   124627157.078 7  23314090.400    96932250.013 4

  22739511.080   121726372.006 8  22739511.900    94676055.905 6

  21945590.940   117517650.680 8  21945590.980    91402611.011 7

  21209079.860   113255284.137 9  21209081.500    88087439.089 8

  21247858.800   113263026.354 8

  24120970.800   128895159.638 8  24120974.520   100251801.636 5

  22774413.760   121827766.570 5  22774414.940    94754926.767 5

  19935688.460   106605089.199 6  19935692.060    82915088.345 9

  21783243.680   116566556.870 9  21783245.700    90662888.216 8

 20  5 25  1  4 30.0000000  0 19G04G07G08G09G11G16G21G26G27G31R01R07
                                R08R09R10R11R19R20R21
  20960721.860   110149340.860 9  20960721.980    85830654.20648  20960724.620
  82254385.583 9
  25554144.020   134287938.173 7  25554144.480   104639949.18247

  20376496.980   107079222.732 9  20376498.980    83438361.23349  20376497.220
  79961758.740 9
  22568391.320   118597700.770 8  22568392.600    92413802.42348  22568393.000
  88563233.797 9
  23074597.900   121257838.265 9  23074597.000    94486628.09646

  21875286.380   114955381.894 8  21875285.260    89575604.86847

  25503661.900   134022647.443 6  25503662.600   104433241.21244

  23637935.840   124218160.690 7  23637939.340    96793365.52347  23637938.120
  92760301.916 8
  20241572.600   106370174.569 9  20241573.900    82885843.10749  20241573.480
  79432265.589 9
  24084396.280   126564321.258 7  24084396.380    98621525.62245

  23309437.880   124602308.790 7  23309442.160    96912923.572 4

  22758703.340   121829109.890 8  22758704.020    94755963.086 6

  21953921.360   117562260.884 8  21953921.880    91437307.822 7

  21210003.200   113260213.335 9  21210004.580    88091272.888 8

  21241436.140   113228790.221 8

  24109653.200   128834683.726 7  24109657.300   100204764.861 6

  22792624.480   121925181.923 5  22792625.640    94830694.235 5

  19932130.640   106586063.851 6  19932134.260    82900290.858 9

  21760484.400   116444768.130 9  21760486.320    90568163.662 7

 20  5 25  1  5  0.0000000  0 19G04G07G08G09G11G16G21G26G27G31R01R07
                                R08R09R10R11R19R20R21
  20962872.680   110160644.123 9  20962872.980    85839461.93748  20962875.640
  82262826.321 9
  25537250.720   134199163.829 7  25537251.460   104570774.40347

  20369569.180   107042815.935 9  20369571.020    83409992.30149  20369569.260
  79934571.842 9
  22559205.100   118549426.383 8  22559206.060    92376186.00948  22559206.720
  88527184.735 9
  23056168.760   121160991.776 9  23056167.740    94411163.29346

  21884963.040   115006235.056 8  21884962.320    89615230.68647

  25513337.060   134073492.428 7  25513337.780   104472860.70244

  23649062.200   124276630.903 7  23649066.040    96838926.68147  23649064.740
  92803964.678 8
  20247298.640   106400264.548 9  20247299.860    82909289.83149  20247299.500
  79454735.362 9
  24097242.540   126631829.183 8  24097242.780    98674129.16846

  23304908.820   124578099.339 7  23304913.100    96894093.992 4

  22777902.040   121931882.837 8  22777902.960    94835897.528 6

  21962351.480   117607406.322 8  21962352.300    91472420.942 7

  21210944.720   113265239.302 9  21210945.780    88095181.962 8

  21235009.040   113194530.857 8

  24098306.300   128774049.594 7  24098310.120   100157605.039 5

  22810926.400   122023086.783 5  22810928.020    94906842.411 5

  19928724.640   106567851.922 6  19928728.500    82886126.018 8

  21737773.560   116323238.346 9  21737775.480    90473640.507 7

 20  5 25  1  5 30.0000000  0 19G04G07G08G09G11G16G21G26G27G31R01R07
                                R08R09R10R11R19R20R21
  20965131.560   110172515.411 8  20965132.100    85848712.27948  20965134.700
  82271691.236 9
  25520329.420   134110243.190 7  25520330.460   104501485.67346

  20362745.620   107006957.617 9  20362747.320    83382050.76349  20362745.700
  79907794.545 9
  22550114.520   118501653.791 8  22550115.200    92338960.59248  22550115.740
  88491510.373 9
  23037757.960   121064241.930 9  23037756.880    94335773.79946

  21894644.620   115057113.327 8  21894644.180    89654876.11947

  25523079.980   134124693.261 7  25523080.400   104512757.39744

  23660178.200   124335046.290 7  23660182.280    96884445.12146  23660180.860
  92847586.505 8
  20253131.060   106430913.517 9  20253132.240    82933172.13949  20253131.740
  79477622.574 9
  24110131.260   126699559.302 7  24110131.360    98726905.82446

  23300499.540   124554531.178 6  23300503.900    96875763.192 4

  22797106.860   122034688.963 8  22797108.340    94915857.781 7

  21970882.100   117653086.639 8  21970882.660    91507950.056 7

  21211904.940   113270365.985 9  21211905.880    88099169.369 8

  21228578.280   113160251.484 8

  24086930.260   128713259.203 8  24086934.000   100110323.690 6

  22829319.740   122121479.816 5  22829321.440    94983370.266 5

  19925471.240   106550457.194 5  19925475.540    82872596.799 9

  21715112.540   116201974.464 9  21715114.440    90379324.160 7

 20  5 25  1  6  0.0000000  0 19G04G07G08G09G11G16G21G26G27G31R01R07
                                R08R09R10R11R19R20R21
  20967498.520   110184954.217 9  20967499.200    85858404.83748  20967501.740
  82280979.933 9
  25503380.720   134021177.754 6  25503381.940   104432084.14946

  20356026.200   106971648.088 9  20356028.140    83354536.84049  20356026.600
  79881427.035 9
  22541119.500   118454384.578 8  22541120.200    92302127.42948  22541120.280
  88456211.918 8
  23019366.000   120967591.618 9  23019364.760    94260461.85746

  21904330.880   115108015.192 8  21904330.480    89694539.90247

  25532890.540   134176248.569 6  25532891.580   104552930.35845

  23671284.020   124393407.113 7  23671288.060    96929921.03247  23671286.380
  92891167.608 8
  20259069.600   106462120.020 9  20259070.620    82957488.88249  20259070.140
  79500926.115 9
  24123062.180   126767511.877 8  24123062.340    98779855.82345

  23296210.400   124531604.707 7  23296215.040    96857931.490 4

  22816317.400   122137524.311 8  22816318.920    94995840.726 6

  21979511.660   117699298.135 8  21979512.400    91543892.342 7

  21212884.180   113275595.509 9  21212885.380    88103236.755 8

  21222144.380   113125954.089 8

  24075524.920   128652312.294 7  24075528.740   100062920.574 5

  22847803.780   122220357.287 5  22847805.500    95060274.909 5

  19922371.380   106533881.467 6  19922375.820    82859704.563 8

  21692502.400   116080981.485 9  21692504.080    90285218.510 7

 20  5 25  1  6 30.0000000  0 19G04G07G08G09G11G16G21G26G27G31R01R07
                                R08R09R10R11R19R20R21
  20969973.240   110197958.335 9  20969973.800    85868537.90848  20969976.280
  82290690.797 9
  25486404.520   133931966.979 7  25486405.660   104362569.29747

  20349411.200   106936887.169 9  20349413.320    83327450.41149  20349411.900
  79855469.210 9
  22532219.980   118407618.741 8  22532221.280    92265686.52148  22532220.740
  88421289.373 8
  23000993.380   120871042.362 9  23000991.860    94185228.66046

  21914021.480   115158938.909 8  21914020.800    89734220.66547

  25542768.320   134228157.008 6  25542768.780   104593378.53645

  23682379.540   124451712.263 8  23682383.060    96975353.56546  23682381.400
  92934707.087 8
  20265113.500   106493880.797 9  20265114.420    82982237.54449  20265114.020
  79524643.581 9
  24136035.260   126835685.079 8  24136035.280    98832977.76346

  23292041.200   124509318.398 7  23292045.980    96840597.703 4

  22835532.680   122240383.480 8  22835533.800    95075842.233 6

  21988239.780   117746035.933 8  21988240.340    91580243.931 7

  21213882.740   113280928.327 9  21213884.020    88107384.484 8

  21215707.020   113091638.269 8

  24064089.600   128591207.182 7  24064093.320   100015394.430 5

  22866377.540   122319714.422 5  22866379.240    95137552.651 5

  19919424.780   106518124.250 6  19919429.140    82847448.950 8

  21669943.320   115960262.505 9  21669944.920    90191325.984 7

 20  5 25  1  7  0.0000000  0 19G04G07G08G09G11G16G21G26G27G31R01R07
                                R08R09R10R11R19R20R21
  20972555.640   110211527.735 9  20972555.960    85879111.45048  20972558.480
  82300823.767 9
  25469400.840   133842612.618 6  25469402.080   104292942.53847

  20342900.800   106902675.498 9  20342902.960    83300791.97249  20342901.720
  79829921.535 9
  22523416.860   118361358.451 8  22523418.380    92229639.53548  22523417.600
  88386744.339 9
  22982640.560   120774597.529 9  22982638.840    94110076.81546

  21923716.280   115209884.176 8  21923715.200    89773918.22647

  25552713.360   134280417.187 6  25552713.740   104634100.73145

  23693464.480   124509962.641 7  23693467.560    97020743.45246  23693466.060
  92978205.731 8
  20271262.480   106526194.759 9  20271263.560    83007417.26049  20271263.140
  79548774.147 9
  24149050.300   126904079.352 7  24149050.240    98886271.93745

  23287992.420   124487673.125 7  23287996.440    96823762.476 4

  22854751.620   122343262.879 8  22854752.760    95155859.458 6

  21997065.700   117793297.945 8  21997066.260    91617003.240 7

  21214901.040   113286367.138 9  21214902.540    88111614.692 8

  21209266.540   113057305.671 8

  24052624.940   128529944.298 7  24052628.860    99967745.562 6

  22885040.520   122419547.777 5  22885041.860    95215200.779 5

  19916631.580   106503187.567 6  19916636.020    82835831.528 8

  21647436.420   115839822.627 9  21647438.040    90097650.540 7

 20  5 25  1  7 30.0000000  0 19G04G07G08G09G11G16G21G26G27G31R01R07
                                R08R09R10R11R19R20R21
  20975245.400   110225662.099 9  20975245.640    85890125.23048  20975248.240
  82311378.642 9
  25452369.960   133753116.429 7  25452371.600   104223205.28147

  20336495.340   106869014.476 9  20336497.420    83274562.61149  20336496.260
  79804785.076 9
  22514710.340   118315605.484 8  22514711.840    92193987.86748  22514711.080
  88352578.167 9
  22964308.000   120678259.959 9  22964306.520    94035008.57746

  21933415.040   115260850.143 9  21933413.700    89813631.93047

  25562725.240   134333029.425 7  25562726.120   104675097.21944

  23704538.880   124568158.883 7  23704541.860    97066091.14246  23704540.560
  93021663.924 8
  20277516.620   106559060.560 9  20277517.780    83033026.99249  20277517.140
  79573316.808 9
  24162107.400   126972695.052 7  24162107.260    98939738.66146

  23284063.700   124466669.216 7  23284067.380    96807426.075 5

  22873973.600   122446158.901 8  22873974.680    95235889.618 6

  22005989.000   117841080.727 8  22005989.580    91654167.618 7

  21215939.700   113291914.048 9  21215941.220    88115928.951 8

  21202822.880   113022958.404 8

  24041130.680   128468523.545 7  24041134.740    99919973.948 5

  22903792.200   122519854.428 5  22903793.320    95293217.021 5

  19913992.540   106489073.266 6  19913996.560    82824853.736 8

  21624982.800   115719667.224 9  21624984.220    90004196.334 8

 20  5 25  1  8  0.0000000  0 19G04G07G08G09G11G16G21G26G27G31R01R07
                                R08R09R10R11R19R20R21
  20978042.440   110240361.766 9  20978042.940    85901579.49148  20978045.340
  82322355.632 9
  25435312.800   133663480.863 7  25435314.700   104153359.44146

  20330195.060   106835905.574 9  20330197.080    83248763.47549  20330195.900
  79780060.898 9
  22506100.880   118270362.351 8  22506102.420    92158733.46148  22506101.680
  88318792.689 9
  22945996.800   120582034.235 9  22945995.480    93960027.48346

  21943117.860   115311837.534 9  21943116.420    89853362.32046

  25572804.060   134385993.795 7  25572804.580   104716368.13644

  23715602.940   124626302.353 7  23715606.200    97111397.72346  23715605.140
  93065082.726 8
  20283875.660   106592477.494 9  20283876.860    83059066.15949  20283876.020
  79598271.004 9
  24175206.900   127041533.126 8  24175206.680    98993378.66346

  23280255.080   124446307.634 7  23280258.560    96791589.287 4

  22893198.220   122549068.716 8  22893199.140    95315930.510 6

  22015009.140   117889382.086 8  22015009.540    91691735.327 7

  21216999.320   113297571.951 9  21217000.800    88120329.532 8

  21196376.960   112988599.156 8

  24029607.400   128406945.845 8  24029610.960    99872080.179 5

  22922631.600   122620631.870 5  22922632.740    95371599.424 5

  19911507.620   106475783.932 6  19911511.220    82814517.581 8

  21602583.220   115599801.875 9  21602584.400    89910967.721 8

 20  5 25  1  8 30.0000000  0 19G04G07G08G09G11G16G21G26G27G31R01R07
                                R08R09R10R11R19R20R21
  20980946.200   110255621.406 9  20980946.720    85913470.10348  20980949.140
  82333750.810 9
  25418228.540   133573701.977 7  25418230.180   104083401.92746

  20323999.140   106803344.571 9  20324000.920    83223391.26449  20323999.720
  79755745.868 9
  22497587.700   118225625.927 8  22497589.480    92123873.91448  22497588.720
  88285385.619 9
  22927706.460   120485918.275 9  22927705.380    93885131.92246

  21952823.620   115362840.985 8  21952822.180    89893105.22547

  25582948.820   134439304.811 7  25582949.100   104757909.10344

  23726656.220   124684388.788 7  23726659.820    97156659.85846  23726658.680
  93108458.934 8
  20290338.060   106626439.201 9  20290339.600    83085529.80049  20290338.640
  79623631.999 9
  24188348.000   127110588.948 8  24188347.920    99047188.34646

  23276565.680   124426584.394 7  23276568.940    96776248.958 4

  22912423.880   122651983.689 8  22912424.660    95395975.427 6

  22024124.700   117938194.446 8  22024124.880    91729700.492 7

  21218079.520   113303338.562 9  21218080.820    88124814.666 8

  21189928.440   112954224.334 8

  24018054.220   128345206.629 8  24018057.180    99824060.833 6

  22941557.800   122721871.539 5  22941558.560    95450341.333 5

  19909176.080   106463315.800 6  19909179.640    82804820.152 8

  21580237.740   115480226.851 9  21580238.800    89817964.922 7

 20  5 25  1  9  0.0000000  0 19G04G07G08G09G11G16G21G26G27G31R01R07
                                R08R09R10R11R19R20R21
  20983957.020   110271443.085 9  20983957.540    85925798.66648  20983959.880
  82345565.671 9
  25401117.920   133483784.734 7  25401119.420   104013336.60847

  20317907.980   106771335.235 9  20317909.720    83198448.92349  20317908.420
  79731842.791 9
  22489172.060   118181400.447 8  22489173.780    92089412.46848  22489173.040
  88252360.077 9
  22909437.960   120389917.907 9  22909437.220    93810326.44746

  21962532.700   115413862.639 8  21962531.380    89932862.32847

  25593159.960   134492964.751 6  25593160.940   104799721.99043

  23737699.540   124742421.369 8  23737703.080    97201880.02446  23737701.880
  93151794.919 8
  20296904.300   106660946.736 9  20296906.100    83112418.77649  20296905.180
  79649400.587 9
  24201531.000   127179865.009 8  24201530.860    99101169.63846

  23272995.560   124407501.944 7  23272999.340    96761407.094 4

  22931650.060   122754902.751 8  22931651.060    95476023.524 6

  22033335.220   117987516.999 8  22033335.480    91768062.470 7

  21219180.800   113309218.594 9  21219182.140    88129387.991 8

  21183477.800   112919838.489 8

  24006471.400   128283308.070 8  24006473.620    99775917.527 6

  22960570.140   122823572.762 5  22960570.640    95529442.186 5

  19906998.880   106451673.090 6  19907002.300    82795764.702 8

  21557947.700   115360949.433 9  21557949.020    89725193.599 7

 20  5 25  1  9 30.0000000  0 19G04G07G08G09G11G16G21G26G27G31R01R07
                                R08R09R10R11R19R20R21
  20987074.100   110287823.486 8  20987074.600    85938562.60448  20987076.980
  82357797.782 9
  25383980.760   133393727.357 7  25383981.980   103943162.10247

  20311921.300   106739875.059 9  20311923.120    83173934.50249  20311921.680
  79708349.797 9
  22480853.360   118137684.779 8  22480855.020    92055348.29748  22480854.280
  88219715.244 9
  22891191.720   120294033.634 9  22891191.080    93735611.41646

  21972244.520   115464899.074 8  21972243.380    89972630.93747

  25603437.060   134546970.207 6  25603437.400   104841804.28244

  23748732.160   124800397.910 8  23748735.740    97247056.53446  23748734.500
  93195089.054 8
  20303573.820   106695995.841 9  20303575.760    83139729.76949  20303574.840
  79675573.620 9
  24214755.540   127249358.756 7  24214755.220    99155320.55346

  23269544.600   124389057.559 7  23269549.020    96747061.459 4

  22950875.560   122857819.407 8  22950877.020    95556069.749 6

  22042639.880   118037343.931 8  22042640.300    91806816.725 7

  21220303.220   113315211.437 9  21220304.480    88134049.051 8

  21177024.580   112885440.635 8

  23994857.940   128221247.924 8  23994859.960    99727648.555 5

  22979667.540   122925729.115 5  22979668.060    95608897.061 5

  19904975.640   106440854.103 6  19904979.060    82787349.931 8

  21535714.020   115241972.055 9  21535715.100    89632655.615 7

 20  5 25  1 10  0.0000000  0 19G04G07G08G09G11G16G21G26G27G31R01R07
                                R08R09R10R11R19R20R21
  20990298.040   110304766.117 8  20990298.640    85951764.62648  20990301.120
  82370449.717 9
  25366818.180   133303535.561 7  25366818.940   103872882.78747

  20306040.180   106708969.181 9  20306042.020    83149852.00149  20306040.360
  79685270.730 9
  22472632.960   118094484.599 8  22472634.460    92021685.80248  22472633.560
  88187455.345 9
  22872968.900   120198272.555 8  22872968.540    93660992.39446

  21981959.800   115515953.580 8  21981958.740    90012413.61846

  25613780.680   134601324.636 6  25613780.840   104884158.44844

  23759755.080   124858323.057 8  23759758.740    97292193.00246  23759757.240
  93238344.857 8
  20310346.980   106731588.982 9  20310348.900    83167464.66849  20310348.120
  79702152.898 9
  24228022.180   127319074.464 8  24228021.840    99209644.40945

  23266214.400   124371255.462 7  23266218.860    96733215.342 4

  22970100.380   122960734.087 8  22970102.560    95636114.415 6

  22052038.800   118087676.070 8  22052039.580    91845963.904 7

  21221447.800   113321323.451 9  21221448.940    88138802.826 8

  21170570.200   112851036.293 8

  23983214.820   128159030.432 8  23983216.700    99679257.198 5

  22998850.120   123028341.563 5  22998850.640    95688706.683 5

  19903107.640   106430865.119 6  19903110.960    82779580.700 8

  21513537.920   115123303.545 9  21513538.820    89540357.877 8

 20  5 25  1 10 30.0000000  0 19G04G07G08G09G11G16G21G26G27G31R01R07
                                R08R09R10R11R19R20R21
  20993627.940   110322264.573 9  20993628.520    85965399.76448  20993631.100
  82383516.719 9
  25349629.100   133213205.165 7  25349629.700   103802495.46747

  20300263.500   106678612.799 9  20300265.420    83126197.67849  20300263.680
  79662602.003 9
  22464509.740   118051795.767 8  22464511.180    91988421.76848  22464510.200
  88155577.314 9
  22854769.040   120102631.403 8  22854768.700    93586466.81946

  21991677.620   115567020.690 9  21991676.520    90052206.13746

  25624189.100   134656021.547 7  25624189.680   104926779.37744

  23770767.140   124916191.673 8  23770770.720    97337285.41646  23770769.060
  93281558.403 8
  20317222.380   106767718.772 9  20317224.160    83195617.72949  20317223.460
  79729132.909 9
  24241329.880   127389006.345 8  24241329.520    99264136.71545

  23263003.680   124354090.244 7  23263007.600    96719864.611 4

  22989323.700   123063637.361 8  22989325.700    95716150.226 6

  22061530.600   118138504.349 8  22061531.380    91885496.979 7

  21222614.140   113327551.143 9  21222615.180    88143646.553 8

  21164114.240   112816621.751 8

  23971541.080   128096649.662 8  23971542.840    99630738.822 5

  23018116.020   123131400.688 5  23018116.480    95768863.777 5

  19901393.780   106421700.719 6  19901397.160    82772452.812 8

  21491419.360   115004943.053 9  21491420.220    89448299.707 7

 20  5 25  1 11  0.0000000  0 19G04G07G08G09G11G16G21G26G27G31R01R07
                                R08R09R10R11R19R20R21
  20997064.420   110340323.066 8  20997065.000    85979471.30548  20997067.720
  82397001.938 9
  25332414.440   133122742.640 6  25332415.220   103732005.24646

  20294592.380   106648811.046 9  20294594.300    83102975.53249  20294592.680
  79640347.459 9
  22456484.900   118009624.604 8  22456486.180    91955561.11148  22456485.400
  88124085.840 9
  22836593.600   120007119.016 8  22836593.180    93512041.58246

  22001398.520   115618104.073 9  22001397.260    90092011.34947

  25634663.520   134711064.790 7  25634663.740   104969670.09944

  23781769.300   124974009.134 8  23781772.860    97382337.96046  23781771.080
  93324733.764 8
  20324200.580   106804388.376 9  20324202.240    83224191.42549  20324201.540
  79756516.037 9
  24254679.400   127459159.290 8  24254679.320    99318801.29046

  23259912.820   124337566.492 7  23259916.480    96707012.802 4

  23008545.040   123166530.319 8  23008547.040    95796177.988 6

  22071115.480   118189830.705 8  22071115.960    91925417.482 7

  21223803.240   113333901.751 9  21223804.620    88148585.896 8

  21157657.700   112782203.664 8

  23959837.420   128034110.564 8  23959839.560    99582097.360 5

  23037465.540   123234907.647 5  23037465.800    95849369.180 5

  19899835.500   106413367.451 6  19899838.840    82765971.376 8

  21469360.360   114886900.658 9  21469361.200    89356488.955 7

 20  5 25  1 11 30.0000000  0 19G04G07G08G09G11G16G21G26G27G31R01R07
                                R08R09R10R11R19R20R21
  21000606.920   110358938.501 9  21000607.380    85993976.83048  21000610.220
  82410903.070 9
  25315174.100   133032146.614 6  25315175.380   103661411.00546

  20289026.480   106619562.123 9  20289028.400    83080184.17049  20289026.880
  79618505.744 9
  22448558.300   117967970.211 9  22448559.420    91923103.13448  22448559.100
  88092980.288 9
  22818442.760   119911735.979 8  22818442.360    93437717.15646

  22011121.640   115669200.808 8  22011120.600    90131826.96546

  25645203.420   134766451.892 6  25645203.360   105012828.78543

  23792761.300   125031773.617 7  23792764.940    97427349.22946  23792763.200
  93367869.557 8
  20331280.680   106841593.733 9  20331282.280    83253182.60049  20331281.600
  79784299.242 9
  24268070.440   127529530.804 7  24268070.560    99373636.16446

  23256941.240   124321682.213 7  23256944.980    96694658.349 4

  23027763.320   123269406.752 8  23027765.360    95876192.948 6

  22080792.180   118241649.133 8  22080792.460    91965720.690 7

  21225015.340   113340374.693 9  21225016.900    88153620.367 8

  21151200.000   112747780.841 8

  23948103.480   127971411.062 8  23948106.240    99533331.119 5

  23056897.160   123338856.678 5  23056898.260    95930218.374 6

  19898432.280   106405863.755 6  19898435.720    82760135.147 9

  21447361.180   114769178.551 9  21447361.980    89264927.323 7

 20  5 25  1 12  0.0000000  0 19G04G07G08G09G11G16G21G26G27G31R01R07
                                R08R09R10R11R19R20R21
  21004254.880   110378108.111 9  21004255.240    86008914.19148  21004258.100
  82425218.039 9
  25297908.580   132941416.971 6  25297910.000   103590712.61946

  20283565.440   106590864.618 9  20283567.500    83057822.48249  20283565.840
  79597075.784 9
  22440730.220   117926832.088 9  22440731.140    91891047.44249  22440730.780
  88062260.242 9
  22800316.780   119816482.914 9  22800316.260    93363494.01146

  22020846.940   115720308.551 8  22020846.040    90171651.15147

  25655808.040   134822180.024 6  25655808.320   105056253.25344

  23803743.080   125089483.649 8  23803746.880    97472318.05046  23803745.140
  93410964.672 8
  20338461.980   106879331.175 9  20338463.500    83282588.38549  20338462.820
  79812479.788 9
  24281502.860   127600119.018 8  24281503.240    99428639.90846

  23254088.840   124306435.211 7  23254092.560    96682799.670 4

  23046977.680   123372261.215 8  23046979.520    95956190.800 6

  22090559.980   118293954.330 8  22090559.960    92006402.501 7

  21226250.360   113346970.453 9  21226251.980    88158750.355 8

  21144741.520   112713353.284 8

  23936339.280   127908548.804 8  23936342.320    99484438.252 5

  23076410.980   123443242.307 5  23076412.220    96011407.172 5

  19897184.020   106399189.029 6  19897187.620    82754943.672 9

  21425422.400   114651779.735 9  21425423.120    89173617.142 7

 20  5 25  1 12 30.0000000  0 19G04G07G08G09G11G16G21G26G27G31R01R07
                                R08R09R10R11R19R20R21
  21008007.740   110397829.773 9  21008008.060    86024281.71048  21008011.100
  82439945.244 9
  25280618.000   132850554.024 7  25280619.240   103519910.41647

  20278209.120   106562717.584 9  20278211.240    83035889.72949  20278209.640
  79576056.891 9
  22433000.100   117886210.346 8  22433001.340    91859394.13649  22433000.740
  88031925.816 9
  22782215.860   119721361.641 9  22782215.160    93289373.55546

  22030574.360   115771425.513 9  22030573.260    90211482.50347

  25666477.500   134878247.051 7  25666477.660   105099941.68045

  23814714.700   125147138.482 8  23814718.260    97517243.81946  23814716.740
  93454018.496 8
  20345743.940   106917597.597 9  20345745.260    83312406.36249  20345744.660
  79841055.341 9
  24294976.140   127670922.408 7  24294976.720    99483811.31145

  23251355.180   124291823.881 7  23251359.240    96671435.408 4

  23066186.900   123475088.400 8  23066188.400    96036167.441 6

  22100417.940   118346742.072 8  22100417.560    92047459.610 7

  21227508.760   113353689.940 9  21227510.220    88163976.575 8

  21138282.080   112678921.223 8

  23924544.680   127845522.609 8  23924547.620    99435417.891 5

  23096005.040   123548059.362 5  23096006.740    96092931.562 5

  19896090.680   106393342.962 6  19896094.420    82750396.748 8

  21403544.560   114534707.644 9  21403545.360    89082561.070 7

 20  5 25  1 13  0.0000000  0 19G04G07G08G09G11G16G21G26G27G31R01R07
                                R08R09R10R11R19R20R21
  21011866.280   110418106.532 9  21011866.580    86040081.77048  21011869.800
  82455086.960 9
  25263303.060   132759562.798 7  25263304.000   103449008.22447

  20272958.520   106535125.829 9  20272960.660    83014389.65949  20272959.160
  79555452.662 9
  22425369.040   117846110.174 8  22425370.620    91828147.24548  22425370.060
  88001980.877 9
  22764141.460   119626379.147 9  22764140.400    93215361.22646

  22040304.160   115822554.930 9  22040302.900    90251323.55047

  25677211.900   134934656.105 7  25677211.800   105143896.85444

  23825676.500   125204742.534 8  23825680.000    97562130.07246  23825678.640
  93497034.508 8
  20353126.760   106956395.040 9  20353128.180    83342638.13649  20353127.540
  79870027.466 9
  24308491.120   127741944.977 7  24308491.740    99539153.49745

  23248741.240   124277851.902 7  23248745.500    96660568.331 4

  23085390.760   123577888.220 8  23085392.160    96116122.823 6

  22110366.060   118400012.370 8  22110365.380    92088892.044 7

  21228791.640   113360539.145 9  21228792.900    88169303.717 8

  21131823.120   112644490.634 8

  23912720.140   127782336.702 8  23912723.220    99386273.357 6

  23115679.960   123653308.249 5  23115681.920    96174791.766 6

  19895153.320   106388330.060 6  19895156.940    82746497.828 9

  21381729.280   114417971.111 9  21381730.380    88991766.005 8

 20  5 25  1 13 30.0000000  0 19G04G07G08G09G11G16G21G26G27G31R01R07
                                R08R09R10R11R19R20R21
  21015829.580   110438933.473 9  21015829.880    86056310.54048  21015833.160
  82470639.514 9
  25245963.120   132668440.778 7  25245963.860   103378004.09147

  20267812.960   106508085.713 9  20267815.040    82993319.43349  20267813.700
  79535260.354 9
  22417837.020   117806528.950 9  22417838.480    91797304.72449  22417838.160
  87972423.451 9
  22746093.240   119531534.557 9  22746091.900    93141456.35446

  22050035.380   115873692.303 8  22050034.160    90291170.81747

  25688010.080   134991402.090 7  25688010.320   105188114.51544

  23836627.880   125262292.361 8  23836631.620    97606974.08746  23836630.400
  93540009.999 8
  20360609.220   106995717.719 9  20360611.220    83373279.19949  20360610.420
  79899391.810 9
  24322047.140   127813182.587 8  24322047.700    99594663.25545

  23246246.240   124264515.200 7  23246250.600    96650195.340 4

  23104588.100   123680653.429 8  23104589.740    96196051.229 6

  22120402.800   118453758.296 8  22120401.980    92130694.426 7

  21230098.380   113367516.252 9  21230099.320    88174730.337 8

  21125363.980   112610059.236 8

  23900865.180   127718986.856 8  23900868.500    99337001.290 6

  23135434.100   123758981.273 5  23135436.420    96256981.790 5

  19894371.080   106384147.418 6  19894374.760    82743244.798 9

  21359977.180   114301570.839 9  21359978.400    88901232.471 8

 20  5 25  1 14  0.0000000  0 19G04G07G08G09G11G16G21G26G27G31R01R07
                                R08R09R10R11R19R20R21
  21019897.440   110460310.755 8  21019897.740    86072968.14248  21019901.120
  82486603.053 9
  25228598.740   132577190.897 7  25228599.480   103306900.34946

  20262772.600   106481598.568 9  20262774.720    82972680.09749  20262773.440
  79515480.991 9
  22410404.260   117767468.978 9  22410405.440    91766868.37649  22410405.440
  87943255.294 9
  22728072.000   119436831.852 9  22728070.660    93067662.04946

  22059768.220   115924838.318 8  22059767.060    90331024.81146

  25698872.800   135048485.507 7  25698873.260   105232595.14744

  23847569.300   125319789.496 8  23847573.140    97651777.03546  23847572.040
  93582946.148 8
  20368191.500   107035564.777 9  20368194.020    83404328.83649  20368193.140
  79929147.724 9
  24335644.380   127884636.205 8  24335644.800    99650341.33045

  23243869.960   124251814.399 7  23243874.560    96640316.949 4

  23123778.600   123783381.226 8  23123780.040    96275950.539 6

  22130527.860   118507976.785 9  22130527.020    92172864.327 7

  21231429.520   113374624.364 9  21231430.460    88180258.867 8

  21118905.260   112575629.158 8

  23888979.700   127655474.121 8  23888982.920    99287602.535 6

  23155267.520   123865075.736 5  23155269.960    96339499.610 6

  19893744.380   106380796.356 6  19893748.120    82740638.435 9

  21338289.000   114185512.536 9  21338290.200    88810964.927 8

 20  5 25  1 14 30.0000000  0 19G04G07G08G09G11G16G21G26G27G31R01R07
                                R08R09R10R11R19R20R21
  21024069.600   110482236.250 9  21024069.940    86090052.92948  21024073.380
  82502975.972 9
  25211210.100   132485813.147 7  25211210.860   103235696.98447

  20257837.240   106455663.397 9  20257839.460    82952470.87349  20257838.240
  79496113.825 9
  22403070.840   117728930.353 9  22403071.820    91736838.28549  22403071.660
  87914476.459 9
  22710078.000   119342272.562 9  22710076.860    92993979.50746

  22069502.280   115975991.085 8  22069501.180    90370884.06847

  25709799.260   135105904.389 6  25709799.140   105277337.28045

  23858500.720   125377233.174 7  23858504.140    97696538.30446  23858503.300
  93625842.368 8
  20375873.440   107075933.111 9  20375875.740    83435784.67049  20375875.000
  79959292.887 9
  24349282.540   127956304.418 8  24349282.820    99706186.61345

  23241612.480   124239747.986 6  23241617.380    96630931.968 5

  23142961.320   123886066.524 8  23142962.580    96355816.799 6

  22140740.060   118562663.657 8  22140739.700    92215398.546 7

  21232785.080   113381864.345 9  21232786.520    88185889.937 8

  21112446.960   112541201.442 8

  23877063.600   127591797.569 7  23877066.560    99238076.332 5

  23175179.020   123971586.848 5  23175181.220    96422341.554 6

  19893273.480   106378277.170 6  19893277.020    82738679.066 9

  21316665.180   114069800.017 9  21316666.440    88720966.313 8

 20  5 25  1 15  0.0000000  0 19G04G07G08G09G11G16G21G26G27G31R01R07
                                R08R09R10R11R19R20R21
  21028346.520   110504710.628 9  21028346.660    86107565.42748  21028350.040
  82519758.780 9
  25193797.460   132394310.575 7  25193798.460   103164396.34447

  20253007.420   106430282.545 9  20253009.600    82932693.58049  20253008.520
  79477160.584 9
  22395837.000   117690915.960 9  22395837.940    91707216.68649  22395837.760
  87886089.087 9
  22692112.200   119247861.793 9  22692110.980    92920412.67446

  22079237.800   116027151.580 9  22079236.600    90410749.37847

  25720789.460   135163658.614 7  25720788.840   105322340.66844

  23869422.080   125434625.547 8  23869425.420    97741259.56046  23869424.700
  93668700.219 8
  20383654.700   107116822.455 9  20383656.540    83467646.47449  20383656.000
  79989827.112 9
  24362961.680   128028188.430 7  24362961.960    99762200.07946

  23239474.280   124228317.489 7  23239479.140    96622041.589 4

  23162135.600   123988707.253 8  23162137.140    96435648.428 6

  22151039.740   118617816.952 8  22151039.420    92258295.523 7

  21234166.180   113389240.077 9  21234167.780    88191626.590 8

  21105989.520   112506779.163 8

  23865117.060   127527958.806 8  23865119.860    99188423.953 5

  23195167.360   124078512.773 5  23195169.760    96505506.055 5

  19892958.300   106376591.649 6  19892961.840    82737368.113 8

  21295107.180   113954439.527 9  21295108.660    88631241.508 8

 20  5 25  1 15 30.0000000  0 19G04G07G08G09G11G16G21G26G27G31R01R07
                                R08R09R10R11R19R20R21
  21032727.600   110527733.007 8  21032727.760    86125504.94948  21032730.900
  82536950.818 9
  25176361.440   132302684.715 7  25176362.640   103092999.59247

  20248283.080   106405456.024 9  20248285.220    82913348.24449  20248284.200
  79458621.300 9
  22388703.180   117653427.181 9  22388704.140    91678004.65249  22388703.880
  87858094.230 9
  22674175.260   119153602.582 9  22674174.000    92846963.94446

  22088974.900   116078319.771 8  22088973.700    90450620.69247

  25731843.040   135221748.023 6  25731843.280   105367605.20044

  23880333.860   125491967.370 7  23880337.160    97785941.43246  23880336.600
  93711520.330 8
  20391534.580   107158231.065 9  20391536.140    83499912.91349  20391535.780
  80020749.108 9
  24376681.920   128100288.496 7  24376682.280    99818381.86746

  23237455.280   124217522.708 7  23237459.380    96613645.642 4

  23181300.660   124091300.056 8  23181302.640    96515442.767 6

  22161425.520   118673433.032 8  22161425.300    92301552.452 7

  21235573.300   113396753.853 9  21235574.880    88197470.603 8

  21099533.400   112472364.623 8

  23853140.440   127463958.109 8  23853142.920    99138645.637 5

  23215232.920   124185849.820 5  23215235.120    96588990.337 5

  19892798.940   106375740.816 6  19892802.540    82736706.371 8

  21273616.060   113839436.200 9  21273617.680    88541794.499 8

 20  5 25  1 16  0.0000000  0 19G04G07G08G09G11G16G21G26G27G31R01R07
                                R08R09R10R11R19R20R21
  21037211.880   110551298.502 8  21037212.360    86143867.66248  21037215.120
  82554548.421 9
  25158901.700   132210933.543 7  25158902.780   103021505.21147

  20243663.600   106381180.553 9  20243665.740    82894432.28349  20243664.720
  79440493.506 9
  22381668.680   117616461.335 8  22381669.720    91649200.08949  22381669.540
  87830489.853 9
  22656266.860   119059493.928 9  22656265.740    92773632.52746

  22098712.460   116129491.110 8  22098711.540    90490494.49747

  25742959.500   135280167.545 6  25742960.640   105413126.88044

  23891235.300   125549255.397 7  23891238.780    97830581.41446  23891238.080
  93754300.305 8
  20399512.000   107200153.124 9  20399513.680    83532579.42649  20399513.240
  80052054.516 9
  24390442.780   128172600.617 8  24390442.800    99874728.90745

  23235553.800   124207358.948 7  23235558.120    96605740.500 4

  23200455.180   124193837.366 7  23200457.680    96595193.896 6

  22171896.520   118729504.965 8  22171896.560    92345163.904 7

  21237005.920   113404403.970 9  21237007.480    88203420.612 8

  21093078.240   112437955.804 8

  23841132.720   127399791.689 8  23841134.920    99088738.428 5

  23235373.880   124293590.447 5  23235376.320    96672788.518 5

  19892795.120   106375721.584 6  19892798.820    82736691.421 9

  21252191.960   113724790.807 9  21252193.380    88452625.879 8

 20  5 25  1 16 30.0000000  0 19G04G07G08G09G11G16G21G26G27G31R01R07
                                R08R09R10R11R19R20R21
  21041799.980   110575409.690 9  21041800.640    86162655.58448  21041803.180
  82572553.504 9
  25141419.320   132119062.272 7  25141420.000   102949917.24747

  20239149.740   106357459.672 9  20239151.860    82875948.47849  20239150.720
  79422779.855 9
  22374734.540   117580023.187 8  22374735.840    91620806.73148  22374735.620
  87803279.549 9
  22638388.340   118965542.493 9  22638387.600    92700423.62547

  22108450.980   116180668.563 8  22108450.420    90530373.00147

  25754139.620   135338920.395 6  25754140.580   105458908.32945

  23902127.100   125606493.600 7  23902130.880    97875182.52546  23902130.200
  93797043.012 8
  20407587.500   107242590.250 9  20407589.340    83565647.31649  20407588.740
  80083744.575 9
  24404244.680   128245128.136 8  24404244.500    99931243.79145

  23233771.400   124197829.718 7  23233775.760    96598328.862 5

  23219599.880   124296318.913 8  23219602.260    96674901.697 7

  22182452.640   118786032.564 8  22182452.520    92389129.796 7

  21238465.160   113412196.003 9  21238466.900    88209481.004 8

  21086625.020   112403557.658 8

  23829094.720   127335463.244 8  23829096.660    99038705.230 5

  23255590.140   124401735.050 5  23255593.000    96756901.020 5

  19892947.660   106376537.621 6  19892951.480    82737326.123 8

  21230836.360   113610511.797 9  21230837.480    88363742.209 7

 20  5 25  1 17  0.0000000  0 19G04G07G08G09G11G16G21G26G27G31R01R07
                                R08R09R10R11R19R20R21
  21046491.580   110600063.160 9  21046491.840    86181866.08148  21046494.520
  82590963.567 9
  25123913.960   132027070.241 7  25123914.300   102878235.23147

  20234741.300   106334291.860 9  20234743.180    82857895.64649  20234741.980
  79405479.230 9
  22367900.660   117544111.617 9  22367902.060    91592823.68248  22367901.840
  87776462.458 9
  22620539.940   118871748.792 9  22620539.380    92627337.63247

  22118190.160   116231849.492 8  22118189.840    90570254.21847

  25765382.600   135398003.245 6  25765383.160   105504946.96845

  23913009.060   125663680.662 7  23913013.580    97919743.96846  23913012.480
  93839747.745 8
  20415760.300   107285538.215 9  20415762.200    83599113.25049  20415761.380
  80115816.084 9
  24418087.000   128317868.587 8  24418086.800    99987924.59046

  23232107.100   124188931.889 7  23232111.320    96591408.297 4

  23238732.880   124398738.913 8  23238735.100    96754561.610 6

  22193092.420   118843009.900 8  22193092.740    92433445.461 7

  21239951.160   113420130.148 9  21239952.840    88215651.927 8

  21080173.740   112369169.694 8

  23817026.060   127270970.416 8  23817027.260    98988544.139 5

  23275881.120   124510276.744 5  23275883.360    96841322.358 5

  19893256.200   106378187.493 6  19893260.020    82738609.367 9

  21209549.660   113496601.480 9  21209550.620    88275145.314 8

 20  5 25  1 17 30.0000000  0 19G04G07G08G09G11G16G21G26G27G31R01R07
                                R08R09R10R11R19R20R21
  21051285.540   110625255.882 8  21051285.780    86201496.76348  21051288.600
  82609776.298 9
  25106385.440   131934956.619 7  25106385.460   102806458.43847

  20230437.660   106311675.023 9  20230439.300    82840272.14649  20230438.060
  79388590.047 9
  22361166.880   117508725.782 8  22361168.320    91565250.29448  22361168.000
  87750037.957 9
  22602721.720   118778113.957 9  22602721.260    92554375.43446

  22127929.720   116283031.401 8  22127929.420    90610136.21347

  25776687.960   135457412.939 6  25776688.760   105551240.15343

  23923881.200   125720814.519 7  23923885.980    97964263.78146  23923884.260
  93882412.556 8
  20424029.640   107328992.952 9  20424031.300    83632974.08049  20424030.520
  80148266.054 9
  24431969.240   128390819.535 8  24431969.180   100044769.40945

  23230560.260   124180663.185 7  23230564.460    96584977.073 4

  23257853.280   124501091.451 8  23257855.480    96834169.062 7

  22203815.460   118900431.420 8  22203815.580    92478106.611 7

  21241463.860   113428206.691 9  21241465.400    88221933.665 8

  21073724.680   112334792.053 8

  23804926.300   127206311.815 8  23804927.260    98938254.119 5

  23296245.200   124619209.928 5  23296246.820    96926048.075 5

  19893720.420   106380669.630 6  19893724.200    82740539.924 8

  21188332.060   113383062.654 9  21188333.280    88186837.384 8

 20  5 25  1 18  0.0000000  0 19G04G07G08G09G11G16G21G26G27G31R01R07
                                R08R09R10R11R19R20R21
  21056182.340   110650990.127 8  21056182.840    86221549.40148  21056185.720
  82628993.415 9
  25088834.660   131842726.540 7  25088834.720   102734590.89347

  20226239.380   106289612.747 9  20226240.980    82823080.75049  20226239.620
  79372114.961 9
  22354533.960   117473870.207 8  22354535.440    91538090.09148  22354535.120
  87724009.420 9
  22584935.020   118684644.423 9  22584934.500    92481542.03247

  22137670.100   116334217.323 8  22137669.820    90650021.32247

  25788055.760   135517151.836 6  25788057.200   105597789.76644

  23934744.120   125777899.349 7  23934748.780    98008745.33846  23934747.240
  93925040.709 8
  20432395.680   107372955.963 9  20432397.180    83667230.96749  20432396.400
  80181095.568 9
  24445892.080   128463984.498 8  24445892.120   100101780.97746

  23229131.740   124173026.344 7  23229135.800    96579037.270 4

  23276961.000   124603376.760 8  23276963.200    96913724.209 6

  22214621.400   118958297.103 8  22214621.660    92523113.207 7

  21243004.120   113436431.091 9  21243005.260    88228330.465 8

  21067278.260   112300429.596 8

  23792796.000   127141490.611 8  23792797.160    98887837.631 6

  23316682.480   124728534.753 5  23316683.720    97011078.433 5

  19894340.940   106383987.634 6  19894344.640    82743120.613 9

  21167185.620   113269903.667 9  21167186.860    88098824.851 8

 20  5 25  1 18 30.0000000  0 19G04G07G08G09G11G16G21G26G27G31R01R07
                                R08R09R10R11R19R20R21
  21061181.420   110677260.730 8  21061182.040    86242019.98648  21061184.860
  82648611.049 9
  25071261.380   131750377.629 7  25071261.300   102662630.74947

  20222145.800   106268101.509 9  20222147.560    82806318.74949  20222146.060
  79356051.369 9
  22348001.440   117439541.998 8  22348002.840    91511340.81648  22348002.760
  87698374.698 9
  22567179.520   118591339.250 9  22567179.240    92408836.71747

  22147410.300   116385402.798 8  22147410.140    90689906.07147

  25799485.840   135577215.562 6  25799486.760   105644592.79544

  23945597.180   125834931.952 7  23945601.520    98053186.27246  23945600.400
  93967629.898 8
  20440857.160   107417421.204 9  20440858.640    83701879.20249  20440857.840
  80214300.119 9
  24459854.760   128537359.466 7  24459855.040   100158956.19646

  23227820.640   124166017.004 7  23227824.280    96573585.528 4

  23296054.720   124705587.120 8  23296056.980    96993221.060 6

  22225508.560   119016599.296 8  22225509.180    92568459.335 7

  21244571.660   113444801.270 9  21244572.720    88234840.575 8

  21060834.340   112266080.431 8

  23780634.440   127076503.147 8  23780635.740    98837291.873 6

  23337191.720   124838243.100 5  23337192.680    97096407.106 5

  19895117.360   106388138.124 6  19895120.920    82746348.777 8

  21146110.360   113157125.212 9  21146111.540    88011108.300 8

 20  5 25  1 19  0.0000000  0 19G04G07G08G09G11G16G21G26G27G31R01R07
                                R08R09R10R11R19R20R21
  21066282.840   110704068.271 8  21066283.360    86262908.96548  21066286.280
  82668629.658 9
  25053666.200   131657913.020 7  25053666.000   102590580.41948

  20218157.380   106247142.728 9  20218159.340    82789987.23349  20218157.660
  79340400.338 9
  22341569.800   117405743.877 8  22341571.200    91485004.61048  22341571.300
  87673135.852 9
  22549456.320   118498203.030 9  22549456.040    92336263.04947

  22157150.860   116436589.048 8  22157150.640    90729791.43247

  25810977.400   135637604.622 4  25810978.100   105691649.31544

  23956440.760   125891914.527 7  23956444.760    98097588.23846  23956443.900
  94010181.770 8
  20449414.040   107462388.341 9  20449415.640    83736918.52149  20449414.720
  80247879.474 9
  24473857.580   128610945.338 8  24473857.940   100216295.75345

  23226626.620   124159636.149 6  23226630.560    96568622.624 4

  23315134.120   124807720.484 7  23315136.200    97072657.998 6

  22236477.180   119075336.002 8  22236477.980    92614143.385 7

  21246167.220   113453321.343 9  21246168.220    88241467.242 8

  21054393.820   112231748.310 8

  23768441.820   127011351.261 8  23768443.480    98786618.226 5

  23357772.240   124948333.229 5  23357773.020    97182032.756 5

  19896049.760   106393122.994 6  19896053.040    82750225.918 8

  21125107.380   113044733.569 9  21125108.660    87923692.590 8

 20  5 25  1 19 30.0000000  0 19G04G07G08G09G11G16G21G26G27G31R01R07
                                R08R09R10R11R19R20R21
  21071486.280   110731412.299 8  21071486.720    86284215.99248  21071489.700
  82689048.876 9
  25036049.400   131565335.160 7  25036049.040   102518441.84147

  20214274.620   106226737.648 9  20214276.380    82774087.17949  20214274.620
  79325162.781 9
  22335239.580   117372477.721 9  22335240.780    91459082.92049  22335241.020
  87648294.226 9
  22531766.260   118405239.776 9  22531765.680    92263824.14047

  22166891.660   116487776.296 8  22166891.280    90769677.56947

  25822530.860   135698318.348 5  25822531.640   105738958.67243

  23967275.020   125948848.333 7  23967278.940    98141952.16246  23967278.120
  94052697.149 8
  20458066.320   107507856.077 9  20458067.840    83772347.91749  20458066.960
  80281832.642 9
  24487900.840   128684743.089 8  24487901.260   100273800.40845

  23225550.160   124153883.729 7  23225554.380    96564148.559 4

  23334198.400   124909774.109 8  23334200.640    97152032.972 6

  22247526.540   119134504.464 8  22247527.380    92660163.273 7

  21247791.200   113461994.002 9  21247792.420    88248212.582 8

  21047956.860   112197435.558 8

  23756218.400   126946035.953 7  23756220.740    98735817.457 5

  23378423.400   125058801.790 5  23378424.000    97267952.679 4

  19897138.280   106398943.418 6  19897141.340    82754752.916 8

  21104177.500   112932734.329 9  21104178.920    87836582.087 8

 20  5 25  1 20  0.0000000  0 19G04G07G08G09G11G16G21G26G27G31R01R07
                                R08R09R10R11R19R20R21
  21076790.840   110759287.994 8  21076791.400    86305937.30348  21076794.220
  82709865.135 9
  25018410.460   131472642.125 7  25018410.040   102446213.56647

  20210496.320   106206882.459 9  20210497.980    82758615.60549  20210496.360
  79310335.865 9
  22329010.140   117339740.931 8  22329011.220    91433573.72549  22329011.480
  87623847.904 9
  22514109.000   118312448.790 9  22514108.120    92191519.46947

  22176631.900   116538960.744 8  22176631.280    90809561.52547

  25834145.400   135759352.151 6  25834146.260   105786517.43644

  23978099.600   126005730.455 7  23978103.420    98186275.82346  23978102.460
  94095173.996 8
  20466812.780   107553818.690 9  20466814.260    83808162.92249  20466813.400
  80316155.347 9
  24501983.540   128758748.668 8  24501983.940   100331467.01545

  23224590.960   124148755.531 7  23224595.180    96560159.978 4

  23353246.940   125011740.598 8  23353249.260    97231340.153 6

  22258655.200   119194097.355 8  22258656.080    92706513.266 7

  21249443.720   113470818.156 9  21249444.900    88255075.779 8

  21041523.260   112163140.546 8

  23743963.960   126880553.683 8  23743966.760    98684886.797 5

  23399143.960   125169641.787 5  23399144.440    97354161.520 5

  19898382.480   106405595.634 6  19898385.300    82759926.862 8

  21083321.040   112821128.662 9  21083322.680    87749777.683 8

 20  5 25  1 20 30.0000000  0 19G04G07G08G09G11G16G21G26G27G31R01R07
                                R08R09R10R11R19R20R21
  21082197.020   110787697.646 8  21082197.720    86328074.68648  21082200.500
  82731080.121 9
  25000750.620   131379838.895 7  25000749.980   102373899.39847

  20206823.120   106187581.047 9  20206825.120    82743575.55249  20206823.600
  79295922.477 9
  22322881.980   117307537.950 8  22322883.200    91408480.48948  22322883.440
  87599800.224 9
  22496485.640   118219836.706 9  22496484.580    92119354.20147

  22186371.980   116590145.443 8  22186371.340    90849445.68447

  25845821.140   135820708.983 5  25845822.720   105834327.85945

  23988915.200   126062565.138 7  23988918.800    98230562.59946  23988917.760
  94137615.484 8
  20475653.440   107600277.655 9  20475655.100    83844364.69549  20475654.320
  80350848.718 9
  24516106.320   128832965.216 7  24516106.820   100389298.00645

  23223749.040   124144254.412 7  23223753.260    96556659.148 4

  23372279.320   125113620.109 8  23372281.540    97310579.670 6

  22269863.140   119254114.599 8  22269863.900    92753193.292 6

  21251125.520   113479799.387 9  21251126.800    88262061.177 8

  21035093.960   112128868.761 8

  23731679.140   126814908.233 7  23731681.640    98633829.262 5

  23419933.780   125280852.709 5  23419934.320    97440658.843 5

  19899782.780   106413083.518 6  19899785.520    82765750.771 8

  21062539.780   112709924.900 9  21062541.600    87663285.881 8

 20  5 25  1 21  0.0000000  0 19G04G07G08G09G11G16G21G26G27G31R01R07
                                R08R09R10R11R19R20R21
  21087703.660   110816635.674 8  21087704.500    86350623.77948  21087707.160
  82752689.665 9
  24983069.220   131286923.005 7  24983068.560   102301497.45647

  20203254.720   106168828.881 9  20203256.740    82728963.48149  20203255.260
  79281919.249 9
  22316854.980   117275865.468 8  22316856.040    91383800.63048  22316856.280
  87576148.705 9
  22478895.780   118127401.910 9  22478894.620    92047327.08147

  22196111.060   116641325.427 8  22196110.540    90889326.15247

  25857557.580   135882383.117 5  25857558.940   105882385.66845

  23999720.800   126119348.526 7  23999724.480    98274809.41346  23999723.100
  94180018.712 8
  20484587.380   107647226.509 9  20484589.100    83880948.19949  20484588.520
  80385907.906 9
  24530268.680   128907388.345 7  24530269.180   100447289.95246

  23223023.520   124140375.124 7  23223027.620    96553641.912 4

  23391293.400   125215404.808 7  23391295.860    97389745.445 6

  22281148.760   119314548.014 8  22281149.140    92800197.039 6

  21252836.420   113488935.649 9  21252837.620    88269167.150 8

  21028668.360   112094617.390 8

  23719363.160   126749095.514 8  23719365.580    98582641.648 5

  23440791.320   125392426.658 5  23440792.360    97527438.504 5

  19901338.340   106421402.510 6  19901341.280    82772221.113 8

  21041833.720   112599123.272 9  21041835.640    87577106.841 8

 20  5 25  1 21 30.0000000  0 19G04G07G08G09G11G16G21G26G27G31R01R07
                                R08R09R10R11R19R20R21
  21093311.220   110846104.486 8  21093312.200    86373586.47248  21093314.780
  82774695.582 9
  24965367.360   131193899.744 7  24965366.820   102229011.85247

  20199791.760   106150629.671 9  20199793.500    82714782.27449  20199791.960
  79268328.918 9
  22310929.900   117244728.193 8  22310930.800    91359537.83549  22310930.920
  87552896.847 9
  22461341.060   118035151.081 9  22461339.740    91975443.31047

  22205849.860   116692504.375 8  22205849.580    90929205.80047

  25869354.700   135944377.478 6  25869355.460   105930692.93342

  24010517.520   126176084.955 7  24010521.240    98319019.65046  24010519.580
  94222386.858 8
  20493614.940   107694666.894 9  20493616.740    83917914.70649  20493616.320
  80421334.132 9
  24544470.980   128982021.402 8  24544471.520   100505445.47846

  23222414.620   124137120.785 7  23222419.120    96551110.790 5

  23410289.480   125317094.924 7  23410292.340    97468837.666 6

  22292512.220   119375397.871 8  22292512.440    92847524.624 7

  21254577.420   113498232.583 9  21254578.940    88276398.070 8

  21022248.000   112060392.795 8

  23707017.020   126683119.628 8  23707019.200    98531327.132 6

  23461716.740   125504363.582 5  23461718.240    97614500.482 5

  19903050.260   106430557.167 6  19903053.380    82779341.394 9

  21021204.600   112488732.382 9  21021206.360    87491247.254 8

 20  5 25  1 22  0.0000000  0 19G04G07G08G09G11G16G21G26G27G31R01R07
                                R08R09R10R11R19R20R21
  21099019.300   110876100.890 8  21099020.300    86396960.26948  21099022.900
  82797095.465 9
  24947644.900   131100768.694 7  24947644.680   102156442.23147

  20196433.460   106132981.436 9  20196435.160    82701030.39249  20196433.580
  79255150.039 9
  22305106.380   117214125.070 8  22305107.440    91335691.26048  22305107.300
  87530043.888 9
  22443821.420   117943085.600 9  22443820.360    91903703.97647

  22215588.040   116743679.770 8  22215587.860    90969082.70347

  25881212.100   136006689.168 5  25881213.060   105979247.49045

  24021304.840   126232773.009 7  24021308.400    98363192.14246  24021307.060
  94264718.852 8
  20502735.400   107742594.783 9  20502737.160    83955261.08449  20502736.860
  80457124.413 9
  24558712.700   129056862.103 8  24558713.140   100563762.84246

  23221922.140   124134488.507 7  23221926.540    96549063.486 4

  23429267.160   125418684.667 8  23429269.820    97547851.792 6

  22303952.240   119436658.404 8  22303952.580    92895171.674 7

  21256348.620   113507690.967 9  21256350.220    88283754.549 8

  21015832.640   112026194.535 9

  23694639.940   126616978.785 8  23694642.020    98479884.279 6

  23482708.800   125616657.742 5  23482710.360    97701840.288 5

  19904917.980   106440545.141 6  19904921.140    82787109.824 8

  21000652.720   112378754.880 9  21000654.280    87405709.199 8

 20  5 25  1 22 30.0000000  0 19G04G07G08G09G11G16G21G26G27G31R01R07
                                R08R09R10R11R19R20R21
  21104827.440   110906622.094 9  21104828.420    86420743.01148  21104830.860
  82819887.244 9
  24929902.220   131007530.229 7  24929902.160   102083788.92347

  20193179.580   106115882.812 9  20193181.360    82687706.79149  20193179.860
  79242381.582 9
  22299384.320   117184055.542 9  22299385.460    91312260.46748  22299385.220
  87507589.376 9
  22426337.400   117851206.770 9  22426336.480    91832110.07247

  22225325.420   116794849.856 8  22225325.100    91008955.45846

  25893129.560   136069315.518 6  25893130.800   106028040.06244

  24032082.860   126289412.000 7  24032086.360    98407326.40346  24032085.140
  94307014.187 8
  20511948.080   107791006.503 9  20511949.520    83992984.49449  20511949.400
  80493276.004 9
  24572993.580   129131908.661 8  24572994.060   100622240.58346

  23221545.560   124132476.035 7  23221549.860    96547498.230 4

  23448225.560   125520169.388 8  23448228.240    97626784.230 6

  22315467.940   119498324.495 8  22315468.480    92943134.145 7

  21258150.020   113517311.034 9  21258151.900    88291236.803 8

  21009422.360   111992023.107 8

  23682231.560   126550671.820 8  23682233.960    98428312.228 6

  23503766.340   125729304.217 5  23503768.280    97789454.209 5

  19906941.200   106451364.809 6  19906944.440    82795525.122 8

  20980178.640   112269193.961 9  20980180.160    87320495.159 8

 20  5 25  1 23  0.0000000  0 19G04G07G08G09G11G16G21G26G27G31R01R07
                                R08R09R10R11R19R20R21
  21110735.520   110937668.626 8  21110736.560    86444935.08948  21110739.020
  82843071.332 9
  24912139.720   130914187.780 7  24912139.780   102011054.56347

  20190030.700   106099335.753 9  20190032.480    82674812.98149  20190031.060
  79230025.016 9
  22293764.340   117154522.453 8  22293765.380    91289247.66248  22293765.260
  87485535.424 9
  22408890.080   117759519.668 9  22408888.900    91760665.56347

  22235062.280   116846016.402 8  22235061.720    91048825.45347

  25905106.880   136132257.461 6  25905108.440   106077085.69144

  24042852.080   126346004.373 7  24042855.300    98451424.33246  24042854.260
  94349274.696 7
  20521252.840   107839902.072 9  20521253.960    84031085.01649  20521253.900
  80529789.022 9
  24587313.860   129207162.871 7  24587314.820   100680880.12946

  23221285.400   124131084.288 7  23221289.240    96546415.771 4

  23467164.180   125621547.403 8  23467166.740    97705633.747 6

  22327058.980   119560394.451 8  22327059.560    92991410.728 7

  21259982.700   113527097.131 9  21259984.500    88298848.199 8

  21003017.880   111957882.572 9

  23669792.340   126484200.953 8  23669794.880    98376612.703 6

  23524889.340   125842301.057 5  23524891.900    97877340.649 5

  19909120.240   106463018.102 6  19909123.600    82804588.802 9

  20959783.760   112160056.429 9  20959785.160    87235610.420 8

 20  5 25  1 23 30.0000000  0 19G04G07G08G09G11G16G21G26G27G31R01R07
                                R08R09R10R11R19R20R21
  21116742.980   110969237.718 9  21116744.080    86469534.36148  21116746.360
  82866645.633 9
  24894357.480   130820741.651 7  24894357.640   101938239.40047

  20186986.620   106083338.669 9  20186988.260    82662347.71849  20186986.940
  79218079.137 9
  22288245.960   117125525.172 8  22288247.380    91266652.37348  22288247.300
  87463881.622 9
  22391479.480   117668025.737 9  22391478.240    91689371.58347

  22244797.980   116897177.394 8  22244797.480    91088691.11647

  25917143.700   136195511.986 7  25917145.220   106126374.98145

  24053612.040   126402549.395 7  24053615.260    98495485.35146  24053614.260
  94391499.855 7
  20530648.640   107889277.516 9  20530649.660    84069559.39649  20530649.540
  80566660.310 9
  24601673.620   129282622.763 8  24601674.560   100739679.92646

  23221140.840   124130310.907 7  23221144.320    96545814.235 4

  23486081.880   125722814.016 8  23486084.340    97784396.562 6

  22338724.660   119622862.644 8  22338725.040    93039997.069 7

  21261846.760   113537049.973 9  21261848.240    88306589.273 8

  20996619.240   111923773.492 8

  23657322.220   126417564.909 8  23657324.980    98324784.706 6

  23546077.080   125955642.811 5  23546080.220    97965495.285 5

  19911454.940   106475503.311 6  19911458.360    82814299.514 8

  20939468.640   112051345.385 9  20939469.980    87151057.403 8

 20  5 25  1 24  0.0000000  0 19G04G07G08G09G11G16G21G26G27G31R01R07
                                R08R09R10R11R19R20R21
  21122849.120   111001325.656 8  21122850.120    86494537.92848  21122852.520
  82890607.377 9
  24876555.420   130727191.318 7  24876555.600   101865343.05747

  20184046.800   106067889.348 9  20184048.340    82650309.27849  20184047.080
  79206542.301 9
  22282829.440   117097062.248 8  22282831.160    91244473.47048  22282831.020
  87442626.823 9
  22374105.680   117576725.873 9  22374104.460    91618228.82347

  22254532.060   116948330.384 8  22254531.680    91128550.54847

  25929239.600   136259076.133 7  25929240.820   106175905.48744

  24064363.060   126459045.506 8  24064366.380    98539508.26846  24064365.020
  94433688.460 7
  20540134.820   107939128.479 9  20540135.960    84108404.28449  20540135.760
  80603886.656 9
  24616072.160   129358285.911 8  24616073.080   100798638.10946

  23221111.000   124130152.630 7  23221114.800    96545691.131 4

  23504977.660   125823963.160 8  23504979.900    97863068.036 6

  22350463.420   119685723.586 8  22350463.980    93088888.877 7

  21263742.040   113547169.639 9  21263743.580    88314460.096 8

  20990226.000   111889695.509 8

  23644820.800   126350761.822 8  23644823.920    98272826.778 6

  23567328.440   126069323.610 4  23567331.640    98053913.631 5

  19913944.760   106488817.941 6  19913948.220    82824655.340 8

  20919233.620   111943063.117 9  20919234.920    87066837.869 8

 20  5 25  1 24 30.0000000  0 19G04G07G08G09G11G16G21G26G27G31R01R07
                                R08R09R10R11R19R20R21
  21129053.840   111033931.782 8  21129054.940    86519945.27348  21129057.200
  82914956.080 9
  24858734.200   130633539.397 7  24858734.120   101792367.54647

  20181211.300   106052988.169 9  20181212.760    82638697.96649  20181211.500
  79195414.795 9
  22277515.180   117069135.258 8  22277516.680    91222712.17748  22277516.740
  87421772.261 9
  22356769.300   117485623.632 9  22356768.360    91547240.07046

  22264264.880   116999476.068 8  22264264.440    91168404.30346

  25941394.320   136322949.489 7  25941395.340   106225677.03344

  24075105.300   126515494.010 8  24075108.280    98583494.09945  24075106.940
  94475841.565 7
  20549711.280   107989453.566 9  20549712.560    84147618.64149  20549712.280
  80641467.074 9
  24630509.380   129434152.575 8  24630510.240   100857754.87545

  23221196.540   124130609.219 7  23221199.840    96546046.231 4

  23523851.000   125924992.107 8  23523852.900    97941645.978 5

  22362274.960   119748973.924 8  22362275.660    93138083.558 6

  21265669.060   113557458.946 9  21265670.440    88322462.861 8

  20983839.320   111855651.353 8

  23632288.100   126283792.880 8  23632291.500    98220739.879 6

  23588642.720   126183340.489 4  23588645.980    98142593.413 5

  19916589.880   106502962.806 6  19916593.400    82835656.897 8

  20899079.540   111835215.340 9  20899080.960    86982956.283 8

 20  5 25  1 25  0.0000000  0 19G04G07G08G09G11G16G21G26G27G31R01R07
                                R08R09R10R11R19R20R21
  21135357.540   111067057.431 9  21135358.460    86545757.44048  21135360.780
  82939692.733 9
  24840894.300   130539790.232 7  24840894.120   101719316.24547

  20178480.700   106038637.976 9  20178482.100    82627515.99349  20178480.700
  79184698.734 9
  22272303.700   117041747.689 8  22272304.960    91201371.22748  22272305.000
  87401320.513 9
  22339471.740   117394725.064 9  22339470.880    91476410.01747

  22273996.600   117050616.308 8  22273996.260    91208253.77548

  25953608.460   136387133.733 7  25953608.680   106275690.64044

  24085838.620   126571898.365 8  24085841.280    98627445.53945  24085840.480
  94517961.691 7
  20559378.180   108040253.297 9  20559379.600    84187202.83349  20559379.200
  80679401.928 9
  24644985.620   129510225.419 8  24644986.780   100917032.28746

  23221397.480   124131682.386 7  23221400.760    96546880.935 4

  23542701.440   126025900.601 8  23542703.440    98020130.277 5

  22374158.760   119812612.710 8  22374159.820    93187580.383 7

  21267628.740   113567922.775 9  21267630.060    88330601.373 8

  20977460.160   111821645.945 8

  23619725.120   126216661.176 8  23619728.300    98168526.330 6

  23610019.760   126297692.195 5  23610022.920    98231533.564 5

  19919390.680   106517940.052 6  19919394.160    82847305.868 8

  20879008.020   111727809.125 9  20879009.520    86899418.135 8

 20  5 25  1 25 30.0000000  0 19G04G07G08G09G11G16G21G26G27G31R01R07
                                R08R09R10R11R19R20R21
  21141759.260   111100697.772 8  21141759.960    86571970.66648  21141762.280
  82964813.741 9
  24823035.580   130445942.190 7  24823035.360   101646187.91547

  20175854.100   106024835.082 9  20175855.480    82616760.49949  20175854.140
  79174391.388 9
  22267194.260   117014897.038 8  22267195.380    91180448.64048  22267195.480
  87381269.702 9
  22322212.920   117304029.699 9  22322211.980    91405738.29647

  22283726.520   117101747.661 8  22283726.340    91248096.32547

  25965881.160   136451624.243 7  25965880.700   106325942.91843

  24096563.120   126628255.880 8  24096565.760    98671360.45945  24096565.040
  94560046.807 7
  20569134.280   108091522.143 9  20569135.760    84227152.57549  20569135.340
  80717687.092 9
  24659500.380   129586500.494 8  24659501.380   100976467.29946

  23221712.820   124133367.789 7  23221716.080    96548191.787 4

  23561528.100   126126681.772 7  23561530.400    98098515.524 6

  22386114.260   119876632.871 8  22386115.380    93237373.815 7

  21269621.040   113578560.373 9  21269622.060    88338875.028 8

  20971087.900   111787678.051 8

  23607131.240   126149363.570 8  23607134.520    98116183.747 6

  23631458.600   126412371.609 5  23631461.160    98320728.575 5

  19922346.440   106533746.133 6  19922349.960    82859599.493 8

  20859019.460   111620846.105 9  20859020.900    86816224.669 8

 20  5 25  1 26  0.0000000  0 19G04G07G08G09G11G16G21G26G27G31R01R07
                                R08R09R10R11R19R20R21
  21148258.560   111134851.546 9  21148259.140    86598583.98048  21148261.680
  82990318.151 9
  24805158.500   130351997.225 8  24805158.240   101572984.08548

  20173331.660   106011579.706 9  20173333.120    82606431.63849  20173331.740
  79164492.893 9
  22262187.180   116988584.161 9  22262188.300    91159945.10649  22262188.200
  87361620.474 9
  22304993.540   117213540.495 9  22304992.440    91335227.22447

  22293454.900   117152870.220 8  22293454.740    91287932.01147

  25978211.660   136516419.697 7  25978211.500   106376432.82744

  24107278.720   126684567.416 7  24107281.680    98715239.52846  24107280.960
  94602097.587 7
  20578979.320   108143258.044 9  20578980.780    84267466.24549  20578980.300
  80756321.026 9
  24674053.620   129662977.626 8  24674054.340   101036059.76046

  23222142.460   124135664.592 6  23222146.300    96549978.188 4

  23580330.160   126227332.250 8  23580333.040    98176799.032 6

  22398140.480   119941030.856 8  22398140.980    93287461.122 6

  21271646.040   113589373.600 9  21271647.140    88347285.274 8

  20964722.960   111753749.685 8

  23594506.600   126081900.912 8  23594509.920    98063712.810 6

  23652957.900   126527375.497 5  23652960.020    98410176.110 6

  19925456.840   106550380.926 6  19925460.780    82872537.682 8

  20839114.420   111514330.876 9  20839116.140    86733379.509 8

 20  5 25  1 26 30.0000000  0 19G04G07G08G09G11G16G21G26G27G31R01R07
                                R08R09R10R11R19R20R21
  21154855.280   111169517.504 9  21154855.880    86625596.39248  21154858.500
  83016205.042 9
  24787263.300   130257957.272 8  24787263.100   101499706.20248

  20170913.220   105998871.617 9  20170914.800    82596529.22249  20170913.420
  79155003.080 9
  22257282.680   116962810.107 9  22257283.720    91139861.41449  22257283.440
  87342373.613 9
  22287813.840   117123260.596 9  22287812.680    91264879.24547

  22303181.780   117203983.730 9  22303181.320    91327760.67546

  25990600.080   136581519.902 6  25990600.100   106427160.15444

  24117985.880   126740834.032 7  24117988.780    98759083.61045  24117988.420
  94644114.806 7
  20588912.980   108195459.023 9  20588914.340    84308142.32249  20588913.760
  80795302.262 9
  24688645.360   129739656.729 8  24688645.820   101095809.60145

  23222686.140   124138571.899 7  23222689.940    96552239.362 4

  23599107.720   126327848.803 8  23599110.740    98254978.496 6

  22410236.260   120005803.016 8  22410236.620    93337839.454 7

  21273704.460   113600365.499 9  21273705.640    88355834.493 8

  20958366.000   111719863.197 8

  23581850.980   126014273.728 8  23581854.200    98011113.931 6

  23674516.820   126642700.126 5  23674518.680    98499873.066 5

  19928722.540   106567844.276 6  19928726.520    82886120.295 8

  20819294.120   111408268.316 9  20819295.940    86650886.401 8

 20  5 25  1 27  0.0000000  0 19G04G07G08G09G11G16G21G26G27G31R01R07
                                R08R09R10R11R19R20R21
  21161548.840   111204692.940 8  21161549.420    86653005.81348  21161552.220
  83042472.402 9
  24769350.100   130163822.821 7  24769349.880   101426354.67348

  20168598.660   105986709.345 9  20168600.380    82587052.12149  20168598.940
  79145920.850 9
  22252480.440   116937574.278 8  22252481.580    91120197.12648  22252480.980
  87323528.668 9
  22270674.380   117033192.202 9  22270673.260    91194696.07847

  22312906.600   117255087.076 8  22312905.900    91367581.47347

  26003045.800   136646922.260 6  26003045.740   106478122.72044

  24128684.340   126797055.163 7  24128687.200    98802892.25146  24128687.080
  94686098.063 7
  20598934.420   108248121.627 9  20598935.660    84349178.11449  20598935.140
  80834628.238 9
  24703275.280   129816536.342 8  24703275.520   101155715.69145

  23223343.740   124142087.014 7  23223347.540    96554973.335 4

  23617859.400   126428227.385 8  23617862.460    98333050.641 6

  22422401.160   120070944.615 8  22422401.500    93388505.116 6

  21275796.060   113611536.625 9  21275797.640    88364523.122 8

  20952017.060   111686019.462 9

  23569164.640   125946481.004 8  23569167.280    97958386.292 6

  23696134.200   126758340.083 4  23696136.180    98589815.093 4

  19932143.220   106586134.483 6  19932146.860    82900346.019 8

  20799559.160   111302661.973 9  20799560.660    86568748.142 8

 20  5 25  1 27 30.0000000  0 20G01G04G07G08G09G11G16G21G26G27G31R01
                                R07R08R09R10R11R19R20R21
  25044219.160

  21168339.120   111240377.348 8  21168339.880    86680811.82148  21168342.800
  83069119.830 9
  24751419.540   130069597.073 8  24751419.360   101352932.09448

  20166388.340   105975094.024 9  20166390.080    82578001.22049  20166388.720
  79137247.074 9
  22247780.860   116912878.478 8  22247782.300    91100953.63549  22247781.340
  87305086.978 9
  22253575.900   116943339.312 9  22253574.980    91124680.84747

  22322629.520   117306180.950 8  22322628.740    91407394.89347

  26015548.920   136712630.811 6  26015548.920   106529322.27444

  24139374.500   126853232.470 7  24139377.480    98846666.75745  24139377.080
  94728048.651 7
  20609043.440   108301244.623 9  20609044.640    84390572.64249  20609044.180
  80874297.990 9
  24717943.460   129893617.037 8  24717943.520   101215778.47645

  23224115.180   124146209.980 7  23224118.500    96558180.079 4

  23636585.020   126528465.331 8  23636587.800    98411013.344 6

  22434634.340   120136452.331 8  22434634.760    93439455.538 6

  21277922.080   113622890.734 9  21277923.740    88373354.048 8

  20945676.760   111652221.797 9

  23556447.800   125878524.565 8  23556450.200    97905531.309 6

  23717810.260   126874293.584 4  23717812.560    98680001.203 5

  19935718.260   106605251.871 6  19935722.060    82915215.100 8

  20779910.420   111197517.558 9  20779911.780    86486969.162 8

 20  5 25  1 28  0.0000000  0 20G01G04G07G08G09G11G16G21G26G27G31R01
                                R07R08R09R10R11R19R20R21
  25025609.580   131510472.78115  25025614.700   102475701.34045  25025614.040
  98205882.613 5
  21175225.500   111276565.290 9  21175226.200    86709010.19548  21175229.280
  83096143.276 9
  24733471.240   129975278.110 8  24733471.020   101279436.85148

  20164281.320   105964021.438 9  20164283.120    82569373.22349  20164281.820
  79128978.575 9
  22243183.820   116888719.432 9  22243184.980    91082128.40149  22243184.080
  87287046.128 9
  22236518.460   116853701.355 9  22236517.480    91054833.08347

  22332349.880   117357261.085 8  22332349.040    91447197.58447

  26028107.860   136778637.294 5  26028106.960   106580765.90545

  24150055.720   126909362.975 7  24150059.000    98890404.78045  24150058.180
  94769964.235 7
  20619239.040   108354821.906 9  20619240.120    84432321.16249  20619239.620
  80914306.992 9
  24732648.900   129970894.509 8  24732649.120   101275994.57745

  23224999.240   124150935.897 7  23225002.880    96561855.770 4

  23655283.060   126628555.160 8  23655285.320    98488860.850 6

  22446934.440   120202319.006 8  22446934.840    93490685.122 7

  21280082.360   113634425.951 9  21280084.000    88382325.850 8

  20939344.840   111618468.618 8

  23543699.440   125810400.695 8  23543702.160    97852546.108 6

  23739543.780   126990552.373 4  23739545.980    98770424.641 5

  19939447.100   106625192.122 6  19939451.000    82930724.195 8

  20760348.380   111092835.739 9  20760349.400    86405549.967 8

 20  5 25  1 28 30.0000000  0 19G01G04G07G08G09G11G16G26G27G31R01R07
                                R08R09R10R11R19R20R21
  25006965.940   131412500.102 4  25006970.960   102399359.06644  25006970.040
  98132721.292 5
  21182208.840   111313262.091 9  21182209.440    86737605.09248  21182212.500
  83123546.707 9
  24715506.860   129880874.317 8  24715506.340   101205875.47548

  20162278.720   105953497.988 9  20162280.660    82561173.12349  20162279.300
  79121120.138 9
  22238690.200   116865104.661 8  22238691.180    91063727.26248  22238690.360
  87269411.699 9
  22219503.680   116764287.949 9  22219502.580    90985160.29947

  22342068.760   117408334.473 8  22342068.060    91486995.01046

  24160729.540   126965454.173 7  24160733.220    98934112.18045  24160731.920
  94811850.476 7
  20629521.960   108408858.049 9  20629522.860    84474427.23149  20629522.380
  80954658.633 9
  24747392.960   130048375.183 8  24747393.500   101336369.00346

  23225997.300   124156270.279 7  23226001.000    96566004.723 4

  23673954.020   126728501.056 8  23673956.240    98566596.417 6

  22459302.000   120268547.382 8  22459302.580    93542196.033 6

  21282278.200   113646151.107 9  21282279.940    88391445.366 8

  20933022.640   111584768.720 8

  23530920.920   125742116.971 8  23530924.000    97799436.580 6

  23761334.700   127107119.786 5  23761337.080    98861088.105 4

  19943331.160   106645961.287 6  19943334.940    82946878.004 8

  20740874.680   110988627.973 9  20740875.620    86324499.494 8

 20  5 25  1 29  0.0000000  0 20G01G04G07G08G09G11G16G21G26G27G31R01
                                R07R08R09R10R11R19R20R21
  24988286.040   131314337.075 5  24988291.400   102322868.43845  24988290.200
  98059417.802 5
  21189287.320   111350459.508 8  21189287.900    86766590.06548  21189290.920
  83151323.958 9
  24697525.220   129786380.395 7  24697524.460   101132243.83747

  20160379.180   105943516.424 9  20160381.180    82553395.27549  20160379.820
  79113666.367 9
  22234298.780   116842028.080 9  22234299.860    91045745.50849  22234298.940
  87252179.197 9
  22202530.880   116675094.955 9  22202529.700    90915659.25047

  22351784.860   117459394.066 8  22351784.480    91526781.66347

  26053397.420   136911530.346 6  26053398.960   106684318.17544

  24171394.760   127021500.085 7  24171398.620    98977784.28745  24171397.300
  94853702.913 7
  20639890.260   108463344.101 9  20639891.340    84516883.88349  20639890.700
  80995346.260 9
  24762174.300   130126052.088 8  24762175.000   101396896.31846

  23227107.380   124162205.071 7  23227111.460    96570620.647 4

  23692595.800   126828292.654 7  23692598.460    98644211.988 5

  22471735.120   120335126.809 8  22471735.880    93593979.984 7

  21284508.860   113658062.055 9  21284510.560    88400709.402 8

  20926709.600   111551117.523 8

  23518111.160   125673667.087 8  23518114.620    97746197.792 6

  23783181.580   127223985.298 4  23783183.500    98951983.518 5

  19947368.860   106667552.477 6  19947372.440    82963671.157 8

  20721489.020   110884892.255 9  20721490.020    86243816.166 8

 20  5 25  1 29 30.0000000  0 20G01G04G07G08G09G11G16G21G26G27G31R01
                                R07R08R09R10R11R19R20R21
  24969571.060   131215989.272 5  24969576.700   102246233.84844  24969575.340
  97985976.371 6
  21196461.360   111388158.922 8  21196461.920    86795966.21648  21196464.980
  83179476.106 9
  24679527.460   129691801.803 7  24679526.700   101058546.24847

  20158583.440   105934079.878 9  20158585.480    82546042.11649  20158584.140
  79106619.592 9
  22230010.500   116819493.326 9  22230011.700    91028185.95649  22230010.700
  87235351.279 9
  22185601.200   116586128.825 9  22185600.100    90846334.99147

  22361498.920   117510442.616 8  22361498.880    91566559.73547

  26066127.380                    26066130.780

  24182052.220   127077504.593 7  24182056.100    99021424.13045  24182054.580
  94895524.422 7
  20650344.220   108518280.820 9  20650345.540    84559691.71049  20650344.800
  81036370.423 9
  24776993.600   130203927.811 8  24776994.420   101457578.56145

  23228330.500   124168741.990 7  23228334.320    96575704.916 4

  23711208.880   126927930.119 6  23711211.620    98721707.669 4

  22484233.900   120402056.815 8  22484234.520    93646036.591 6

  21286775.160   113670164.120 9  21286776.860    88410122.098 8

  20920407.020   111517520.151 8

  23505271.180   125605054.693 8  23505274.700    97692832.638 6

  23805083.860   127341148.142 5  23805085.640    99043110.150 4

  19951560.480   106689967.670 6  19951564.260    82981105.199 8

  20702192.920   110781636.055 9  20702194.040    86163505.801 8

 20  5 25  1 30  0.0000000  0 20G01G04G07G08G09G11G16G21G26G27G31R01
                                R07R08R09R10R11R19R20R21
  24950820.900                    24950826.720                    24950825.500
  97912397.732 6
  21203730.220   111426357.018 8  21203730.740    86825730.95648  21203733.780
  83208000.650 9
  24661513.420   129597138.580 7  24661512.900   100984782.73848

  20156891.180   105925186.090 9  20156893.140    82539111.88449  20156891.800
  79099978.113 9
  22225825.060   116797499.305 9  22225826.480    91011047.75049  22225825.560
  87218927.159 9
  22168714.900   116497390.828 9  22168713.780    90777188.50347

  22371210.680   117561478.572 8  22371210.660    91606328.07847

  26078913.920   137045613.11716  26078916.460   106788802.38055

  24192701.340   127133466.711 7  24192705.220    99065030.93546  24192703.740
  94937314.247 7
  20660883.100   108573664.217 9  20660884.600    84602847.59749  20660883.900
  81077728.139 9
  24791850.220   130282000.250 8  24791851.180   101518414.09446

  23229665.560   124175878.167 7  23229669.280    96581255.293 4

  23729792.360   127027408.150 5  23729794.760    98799079.336 3

  22496797.260   120469331.950 8  22496797.920    93698361.646 7

  21289077.500   113682457.737 9  21289079.240    88419683.759 8

  20914114.520   111483977.595 8

  23492400.500   125536278.523 8  23492404.020    97639340.113 6

  23827040.760   127458602.898 5  23827042.420    99134463.814 4

  19955905.940   106713204.672 6  19955909.720    82999178.440 8

  20682987.080   110678862.429 9  20682988.420    86083570.763 8

 20  5 25  1 30 30.0000000  0 20G01G04G07G08G09G11G16G21G26G27G31R01
                                R07R08R09R10R11R19R20R21
  24932036.320   131018733.786 5  24932041.980   102092544.17155  24932040.540
  97838682.727 6
  21211093.300   111465050.646 8  21211093.740    86855881.81448  21211096.940
  83236895.217 9
  24643483.560   129502391.115 8  24643482.980   100910953.57548

  20155301.760   105916833.162 9  20155303.660    82532603.09649  20155302.280
  79093740.531 9
  22221742.460   116776044.993 9  22221743.780    90994330.09149  22221743.020
  87202906.079 9
  22151872.500   116408882.577 9  22151871.260    90708221.03847

  22380919.620   117612499.982 8  22380919.400    91646085.00947

  26091755.180   137113094.439 7  26091757.520   106841385.32045

  24203342.200   127189385.627 7  24203345.800    99108654.08046  24203344.960
  94979071.846 7
  20671506.260   108629490.471 9  20671507.960    84646348.56849  20671507.340
  81119416.570 9
  24806743.940   130360267.497 8  24806745.000   101579401.42746

  23231112.080   124183610.467 7  23231115.920    96587269.272 4

  23748345.240   127126722.123 4  23748347.680    98876323.406 3

  22509424.040   120536946.705 8  22509424.480    93750950.860 6

  21291415.600   113694943.563 9  21291417.680    88429394.932 8

  20907832.320   111450490.113 8

  23479499.080   125467337.621 8  23479502.440    97585719.411 6

  23849051.260   127576344.438 5  23849052.760    99226040.515 4

  19960404.560   106737261.018 7  19960408.380    83017888.935 8

  20663872.200   110576574.227 9  20663873.600    86004013.287 8

 20  5 25  1 31  0.0000000  0 20G01G04G07G08G09G11G16G21G26G27G31R01
                                R07R08R09R10R11R19R20R21
  24913217.540   130919840.466 5  24913223.000   102015484.47645  24913221.540
  97764833.862 6
  21218550.460   111504238.712 9  21218551.020    86886417.94748  21218554.120
  83266159.005 9
  24625438.180   129407561.835 8  24625437.720   100837060.67548

  20153815.300   105909021.399 9  20153817.100    82526516.01249  20153815.720
  79087907.072 9
  22217762.880   116755131.512 9  22217763.960    90978033.85049  22217763.320
  87187288.834 9
  22135074.280   116320607.575 9  22135073.240    90639435.32747

  22390625.920   117663507.284 8  22390625.720    91685830.93646

  26104651.840   137180866.245 7  26104654.040   106894194.55045

  24213975.200   127245262.756 7  24213978.980    99152194.64045  24213978.220
  95020798.230 8
  20682213.440   108685757.818 9  20682215.300    84690193.24049  20682214.780
  81161434.380 9
  24821674.740   130438729.502 8  24821675.800   101640540.51845

  23232670.120   124191938.298 7  23232673.800    96593746.488 4

  23766867.100   127225869.444 4  23766869.520    98953437.849 3

  22522113.560   120604897.868 8  22522113.940    93803801.731 7

  21293790.440   113707624.788 9  21293792.240    88439258.102 8

  20901561.000   111417060.643 8

  23466566.960   125398232.984 8  23466570.480    97531971.388 6

  23871114.960   127694369.253 5  23871116.480    99317837.521 4

  19965056.580   106762136.721 6  19965060.220    83037236.721 8

  20644848.980   110474776.741 9  20644850.200    85924837.473 8

 20  5 25  1 31 30.0000000  0 20G01G04G07G08G09G11G16G21G26G27G31R01
                                R07R08R09R10R11R19R20R21
  24894365.160   130820770.401 6  24894370.500   101938287.02746  24894368.860
  97690852.989 6
  21226101.420   111543919.398 8  21226101.980    86917337.94248  21226105.180
  83295790.664 9
  24607377.700   129312652.489 8  24607377.140   100763105.38748

  20152431.720   105901750.085 9  20152433.400    82520850.05549  20152431.940
  79082477.200 9
  22213886.300   116734759.182 9  22213887.260    90962159.30149  22213886.720
  87172075.713 9
  22118320.980   116232568.846 9  22118320.120    90570833.73547

  22400329.600   117714500.018 8  22400329.340    91725565.51946

  26117603.780   137248927.392 6  26117604.960   106947229.26544

  24224600.300   127301098.669 7  24224604.360    99195703.08845  24224603.620
  95062493.809 8
  20693004.220   108742463.807 9  20693006.080    84734379.71949  20693005.540
  81203779.757 9
  24836642.520   130517385.803 8  24836643.660   101701830.99945

  23234339.140   124200859.992 7  23234342.740    96600685.566 4

  23785357.100   127324846.903 3  23785359.500    99030420.147 1

  22534864.940   120673181.355 8  22534865.640    93856911.056 7

  21296202.380   113720503.339 9  21296204.100    88449274.710 8

  20895300.760   111383691.008 8

  23453604.320   125328965.074 8  23453607.820    97478096.398 6

  23893230.960   127812673.854 5  23893232.460    99409852.133 4

  19969861.480   106787830.384 7  19969864.880    83057220.671 8

  20625918.040   110373474.265 9  20625919.320    85846046.679 8

 20  5 25  1 32  0.0000000  0 19G01G04G07G08G09G11G16G21G26G27G31R01
                                R08R09R10R11R19R20R21
  24875479.480   130721525.446 6  24875484.680   101860953.33146  24875483.240
  97616741.554 6
  21233745.640   111584090.155 8  21233746.320    86948639.82248  21233749.440
  83325788.294 9
  24589302.300   129217664.315 8  24589301.480   100689088.66948

  20151150.660   105895018.075 9  20151152.300    82515604.32749  20151150.880
  79077450.044 9
  22210112.360   116714927.643 8  22210113.340    90946706.13548  22210113.140
  87157266.446 9
  22101613.080   116144768.355 9  22101612.220    90502417.77247

  22410030.400   117765477.582 8  22410030.040    91765288.28147

  26130610.340   137317276.083 5  26130611.180   107000487.91043

  24235217.420   127356893.378 6  24235221.940    99239179.48746  24235221.120
  95104158.667 7
  20703877.760   108799605.237 9  20703879.660    84778905.50649  20703879.120
  81246450.301 9
  24851647.220   130596235.046 8  24851648.460   101763271.81846

  23236118.720   124210373.287 7  23236122.260    96608084.761 4

  22547677.540   120741792.391 8  22547678.480    93910275.153 7

  21298651.460   113733580.395 9  21298653.100    88459445.743 8

  20889052.220   111350383.278 8

  23440611.380   125259533.882 8  23440614.380    97424094.383 6

  23915398.340   127931253.547 5  23915399.760    99502080.794 4

  19974819.080   106814340.394 6  19974822.220    83077839.569 8

  20607080.420   110272670.382 9  20607081.700    85767643.655 8

 20  5 25  1 32 30.0000000  0 20G01G04G07G08G09G11G16G21G26G27G31R01
                                R07R08R09R10R11R19R20R21
  24856561.060   130622107.687 6  24856565.900   101783484.97047  24856564.960
  97542501.057 7
  21241482.620   111624748.514 8  21241483.420    86980321.64648  21241486.460
  83356150.036 9
  24571211.960   129122598.291 8  24571211.220   100615011.27248

  20149971.920   105888823.970 9  20149973.580    82510777.75649  20149972.140
  79072824.580 9
  22206441.140   116695636.589 8  22206442.560    90931674.13948  22206442.420
  87142860.776 9
  22084950.980   116057208.557 9  22084950.100    90434189.36047

  22419728.120   117816439.132 8  22419727.780    91804998.53646

  26143671.040   137385909.739 4  26143672.480   107053968.53843

  24245827.040   127412646.839 7  24245831.680    99282623.68546  24245830.640
  95145792.683 8
  20714833.600   108857179.045 9  20714835.660    84823768.21849  20714835.060
  81289443.738 9
  24866688.320   130675275.934 8  24866689.680   101824861.97446

  23238008.240   124220475.765 7  23238012.180    96615942.270 4

  23822237.280   127522290.691 3  23822241.900    99184028.590 1

  22560550.640   120810726.494 8  22560551.560    93963890.525 7

  21301137.940   113746857.836 9  21301139.640    88469772.616 8

  20882815.700   111317138.256 8

  23427587.680   125189939.140 8  23427590.620    97369965.179 6

  23937616.300   128050104.010 4  23937617.500    99594519.999 5

  19979929.020   106841665.090 6  19979932.080    83099092.113 8

  20588336.820   110172369.212 9  20588338.000    85689631.644 8

 20  5 25  1 33  0.0000000  0 19G01G04G07G08G09G11G16G21G26G27G31R01
                                R08R09R10R11R19R20R21
  24837610.660   130522521.964 6  24837615.220   101705885.72746  24837614.600
  97468135.132 7
  21249312.540   111665894.956 8  21249313.460    87012383.78848  21249316.340
  83386876.260 9
  24553107.420   129027458.651 8  24553106.920   100540876.50248

  20148895.840   105883169.491 9  20148897.580    82506371.66449  20148896.100
  79068602.070 9
  22202873.360   116676888.706 8  22202875.280    90917065.37648  22202875.040
  87128860.698 9
  22068335.700   115969894.387 9  22068334.720    90366152.34147

  22429423.280   117867386.680 8  22429422.860    91844697.90246

  26156786.460   137454829.598 5  26156787.240   107107672.41344

  24256429.620   127468362.168 7  24256434.040    99326038.19445  24256432.860
  95187398.234 7
  20725871.840   108915185.033 9  20725873.880    84868967.68549  20725873.200
  81332759.898 9
  24881766.340   130754510.610 7  24881767.760   101886603.11446

  23240008.540   124231168.392 7  23240012.640    96624258.778 4

  22573483.540   120879982.304 8  22573484.520    94017756.113 6

  21303662.500   113760339.812 9  21303664.520    88480258.575 8

  20876591.800   111283960.980 8

  23414534.000   125120183.535 8  23414536.660    97315710.788 6

  23959884.480   128169223.404 5  23959885.620    99687168.311 4

  19985191.440   106869805.591 6  19985194.560    83120979.163 8

  20569688.400   110072577.119 9  20569689.420    85612015.574 8

 20  5 25  1 33 30.0000000  0 20G01G04G07G08G09G11G16G21G26G27G31R01
                                R07R08R09R10R11R19R20R21
  24818628.300   130422768.238 7  24818632.620   101628155.56747  24818632.180
  97393643.736 7
  21257234.420   111707524.871 8  21257235.300    87044822.65348  21257238.440
  83417963.503 9
  24534988.600   128932244.479 8  24534988.220   100466683.66348

  20147921.980   105878051.583 9  20147923.700    82502383.68249  20147922.240
  79064780.253 9
  22199408.700   116658681.508 8  22199410.780    90902877.93348  22199410.520
  87115264.402 9
  22051767.140   115882826.083 9  22051766.080    90298306.91147

  22439115.180   117918317.301 8  22439114.700    91884384.05146

  26169954.560   137524031.801 5  26169956.100   107161596.04945

  24267024.380   127524037.308 7  24267028.620    99369421.39245  24267027.240
  95228973.779 7
  20736991.420   108973618.095 9  20736993.300    84914499.94149  20736992.560
  81376394.971 9
  24896880.680   130833935.571 8  24896882.040   101948492.52845

  23242118.420   124242446.456 7  23242122.220    96633030.632 4

  23858986.420   127719022.946 3

  22586475.060   120949552.438 8  22586476.080    94071866.207 6

  21306225.340   113774025.659 9  21306227.320    88490903.054 8

  20870380.400   111250850.608 8

  23401449.560   125050264.973 8  23401452.200    97261329.668 6

  23982201.840   128288605.215 5  23982203.040    99780020.766 4

  19990605.760   106898757.979 7  19990608.960    83143497.683 8

  20551135.340   109973295.856 9  20551136.400    85534796.839 8

 20  5 25  1 34  0.0000000  0 19G01G04G07G08G09G11G16G21G26G27G31R01
                                R08R09R10R11R19R20R21
  24799614.680   130322850.580 7  24799618.880   101550297.66947  24799618.460
  97319029.925 7
  21265248.260   111749637.761 8  21265249.080    87077637.88148  21265252.300
  83449411.426 9
  24516856.140   128836958.757 8  24516855.860   100392435.10248

  20147050.200   105873470.551 9  20147051.980    82498814.04449  20147050.560
  79061359.360 9
  22196047.180   116641016.617 8  22196049.280    90889113.08548  22196049.080
  87102073.095 9
  22035246.100   115796007.981 9  22035245.080    90230656.44347

  22448803.980   117969232.578 8  22448803.520    91924058.25647

  26183177.040   137593515.688 6  26183178.860   107215739.34945

  24277611.820   127579674.284 7  24277615.860    99412774.83545  24277614.380
  95270520.862 7
  20748191.940   109032477.086 9  20748193.820    84960364.08849  20748192.980
  81420348.107 9
  24912031.380   130913551.550 7  24912032.600   102010530.80745

  23244338.020   124254309.985 7  23244341.500    96642257.855 4

  22599525.320   121019434.585 8  22599526.260    94126218.947 7

  21308827.140   113787919.216 9  21308828.920    88501709.121 8

  20864182.040   111217811.207 8

  23388335.240   124980185.350 8  23388337.840    97206823.332 6

  24004567.780   128408247.025 5  24004568.820    99873075.444 4

  19996172.020   106928522.457 7  19996175.160    83166647.826 9

  20532678.960   109874531.308 9  20532680.000    85457979.974 8

 20  5 25  1 34 30.0000000  0 19G01G04G07G08G09G11G16G21G26G27G31R01
                                R08R09R10R11R19R20R21
  24780569.820   130222768.869 7  24780573.960   101472311.94847  24780573.540
  97244293.609 8
  21273352.980   111792228.920 8  21273353.820    87110825.78348  21273357.180
  83481216.481 9
  24498710.020   128741600.870 8  24498709.780   100318130.28448

  20146279.800   105869423.238 9  20146281.840    82495660.28649  20146280.340
  79058337.001 9
  22192788.560   116623891.526 9  22192790.300    90875768.85649  22192790.200
  87089284.860 9
  22018772.840   115709440.415 9  22018771.880    90163201.19347

  22458489.120   118020129.320 8  22458488.720    91963718.00646

  26196452.220   137663277.277 7  26196454.300   107270100.02245

  24288191.440   127635271.004 7  24288195.580    99456096.92946  24288194.300
  95312037.852 8
  20759472.340   109091756.708 9  20759474.400    85006555.98349  20759473.480
  81464615.334 9
  24927217.540   130993355.191 8  24927218.820   102072715.29546

  23246665.720   124266754.394 7  23246668.860    96651936.868 4

  22612632.180   121089621.946 8  22612632.980    94180809.070 6

  21311467.940   113802019.753 9  21311469.260    88512676.189 8

  20857997.140   111184841.757 8

  23375190.480   124909942.667 8  23375193.100    97152190.204 6

  24026980.980   128528142.128 5  24026981.940    99966327.127 4

  20001889.160   106959094.924 6  20001892.520    83190426.418 9

  20514319.280   109776284.839 9  20514320.420    85381566.079 8

 20  5 25  1 35  0.0000000  0 19G01G04G07G08G09G11G16G21G26G27G31R01
                                R08R09R10R11R19R20R21
  24761494.900   130122529.824 7  24761499.220   101394203.63447  24761498.700
  97169439.791 8
  21281549.340   111835300.481 8  21281550.160    87144388.00948  21281553.320
  83513380.285 9
  24480551.400   128646176.699 8  24480551.140   100243773.82848

  20145611.640   105865912.753 9  20145613.840    82492924.83349  20145612.220
  79055715.531 9
  22189633.640   116607310.446 9  22189634.900    90862848.52049  22189634.840
  87076902.881 9
  22002348.520   115623130.112 9  22002347.620    90095946.42047

  22468171.520   118071010.836 8  22468171.100    92003365.92246

  26209780.980   137733328.920 7  26209782.780   107324680.77444

  24298764.340   127690832.142 7  24298768.500    99499391.25946  24298767.580
  95353528.237 8
  20770833.160   109151458.499 9  20770835.180    85053076.84649  20770834.260
  81509197.842 9
  24942440.240   131073349.800 8  24942441.400   102135048.60545

  23249102.540   124279781.566 7  23249105.440    96662069.134 4

  22625796.300   121160114.268 8  22625797.100    94235636.361 6

  21314148.500   113816333.150 9  21314149.680    88523808.798 8

  20851826.300   111151948.384 8

  23362016.020   124839541.331 8  23362018.280    97097433.621 6

  24049441.360   128648291.030 5  24049442.580   100059776.197 4

  20007757.760   106990478.324 6  20007761.440    83214835.731 8

  20496057.920   109678564.798 9  20496059.340    85305561.613 8

