     2.11           OBSERVATION DATA    M (MIXED)           RINEX VERSION / TYPE
teqc  2011Oct11                         20200308 05:59:21UTCPGM / RUN BY / DATE
HKSL                                                        MARKER NAME
23015M001                                                   MARKER NUMBER
SMO                 Lands Department HKSAR                  OBSERVER / AGENCY
1870250             LEICA GR50          4.31/7.403          REC # / TYPE / VERS
725194              LEIAR25.R4      LEIT                    ANT # / TYPE
 -2393382.4157  5393861.1745  2412592.4105                  APPROX POSITION XYZ
        0.0083        0.0000        0.0000                  ANTENNA: DELTA H/E/N
     1     1                                                WAVELENGTH FACT L1/2
     6    C1    L1    P2    L2    C5    L5                  # / TYPES OF OBSERV
    30.0000                                                 INTERVAL
    18                                                      LEAP SECONDS
Linux 2.4.21-27.ELsmp|Opteron|gcc|Linux x86_64|=+           COMMENT
Spider v7.4.1.8151  SMO                 2020 03 08 00:19    COMMENT
BIT 2 OF LLI FLAGS DATA COLLECTED UNDER A/S CONDITION       COMMENT
SNR is mapped to RINEX snr flag value [1-9]                 COMMENT
LX:    >= 25dBHz -> 1; 26-27dBHz -> 2; 28-31dBHz -> 3       COMMENT
       32-35dBHz -> 4; 36-38dBHz -> 5; 39-41dBHz -> 6       COMMENT
       42-44dBHz -> 7; 45-48dBHz -> 8; >= 49dBHz -> 9       COMMENT
Forced Modulo Decimation to 30 seconds                      COMMENT
  2020     3     7     0     0    0.0000000     GPS         TIME OF FIRST OBS
                                                            END OF HEADER
 20  3  7  0  0  0.0000000  0 18G10G12G14G15G20G21G24G25G31G32R04R05
                                R06R09R15R16R20R21
  20376433.540   107078881.275 9  20376434.680    83438092.40749  20376432.300
  79961497.972 9
  22091327.580   116090688.046 9  22091326.520    90460278.47647

  23542459.600   123716462.877 8  23542459.180    96402407.20446

  25776923.400   135458633.710 7  25776924.460   105552181.93045

  20279306.420   106568475.288 9  20279304.900    83040355.04148

  23523110.880   123614758.297 8  23523109.320    96323185.58746

  23845726.480   125310142.967 7  23845727.460    97644278.90346  23845727.500
  93575761.784 7
  21114473.380   110957298.241 9  21114474.960    86460226.75749  21114474.960
  82857725.120 9
  22717444.720   119380973.983 9  22717443.420    93024099.24649

  22073307.500   115996016.643 9  22073308.160    90386519.77149  22073307.000
  86620386.224 8
  23056919.900   123468759.696 8  23056920.500    96031258.614 6

  20353086.040   108798912.479 9  20353086.540    84621396.136 8

  21553792.240   115015188.228 7

  22530821.220   120313355.620 8  22530822.240    93577030.776 7

  21336419.840   114015353.884 9  21336421.420    88678615.260 7

  19075618.140   101898523.555 8  19075618.860    79254402.818 7

  24612522.520   131614256.031 3

  24115138.540   129044977.007 6  24115139.720   100368310.637 4

 20  3  7  0  0 30.0000000  0 18G10G12G14G15G20G21G24G25G31G32R04R05
                                R06R09R15R16R20R21
  20370294.740   107046621.424 9  20370295.800    83412954.85949  20370293.500
  79937407.815 9
  22094686.920   116108340.861 9  22094685.580    90474033.93447

  23534524.120   123674760.739 8  23534523.360    96369912.03045

  25788739.600   135520727.788 6  25788740.360   105600566.80644

  20287711.500   106612643.690 9  20287709.840    83074771.96248

  23537619.660   123691002.627 8  23537618.160    96382596.69245

  23864014.520   125406246.995 7  23864015.720    97719165.13046  23864014.860
  93647527.767 7
  21106269.060   110914184.545 9  21106270.660    86426631.66749  21106270.600
  82825529.837 9
  22703104.020   119305612.770 9  22703102.600    92965376.23149

  22066434.340   115959897.413 9  22066434.900    90358374.93549  22066433.700
  86593414.087 9
  23068820.080   123532483.257 8  23068820.900    96080821.333 6

  20352010.020   108793160.113 9  20352010.420    84616922.073 8

  21538107.360   114931489.697 7

  22508565.600   120194511.992 8  22508566.740    93484596.870 7

  21355709.620   114118433.058 9  21355711.440    88758787.936 8

  19073647.300   101887996.178 8  19073648.140    79246214.858 7

  24627725.160   131695523.121 6  24627726.640   102429858.981 5

  24126205.120   129104195.814 6  24126206.240   100414369.802 4

 20  3  7  0  1  0.0000000  0 18G10G12G14G15G20G21G24G25G31G32R04R05
                                R06R09R15R16R20R21
  20364248.960   107014850.384 9  20364250.020    83388198.19849  20364247.620
  79913682.680 9
  22098157.680   116126579.576 9  22098156.240    90488245.92047

  23526581.400   123633021.204 8  23526580.660    96337387.74546

  25800564.680   135582868.175 7  25800565.060   105648987.82044

  20296215.120   106657330.297 9  20296213.460    83109592.69248

  23552125.000   123767228.976 8  23552123.920    96441993.78445

  23882296.920   125502321.477 7  23882297.920    97794028.34445  23882297.100
  93719271.700 7
  21098164.560   110871594.874 9  21098166.160    86393444.91249  21098166.060
  82793725.842 9
  22688828.680   119230595.618 8  22688827.180    92906921.30348

  22059560.680   115923776.664 9  22059561.320    90330228.89949  22059560.180
  86566440.814 9
  23080785.360   123596555.594 8  23080785.940    96130655.306 6

  20351003.600   108787779.935 9  20351003.940    84612737.482 8

  21522424.800   114847805.120 7

  22486362.400   120075947.889 9  22486363.480    93392380.375 7

  21375072.520   114221901.285 9  21375074.080    88839263.228 7

  19071825.160   101878262.580 8  19071825.880    79238644.286 7

  24642881.380   131776549.768 7  24642885.100   102492885.132 5

  24137322.620   129163686.617 7  24137323.520   100460640.402 4

 20  3  7  0  1 30.0000000  0 18G10G12G14G15G20G21G24G25G31G32R04R05
                                R06R09R15R16R20R21
  20358296.340   106983568.784 9  20358297.260    83363822.91749  20358294.960
  79890323.036 9
  22101739.660   116145402.879 9  22101738.280    90502913.43147

  23518631.320   123591242.581 8  23518630.280    96304833.00746

  25812398.560   135645054.338 7  25812398.740   105697444.46444

  20304816.940   106702533.011 9  20304815.240    83144815.56648

  23566626.220   123843433.885 8  23566625.140    96501374.16545

  23900573.140   125598363.876 7  23900574.040    97868866.53746  23900573.760
  93790991.604 7
  21090159.880   110829530.125 9  21090161.580    86360667.18449  21090161.400
  82762313.864 9
  22674618.740   119155922.664 8  22674617.180    92848734.59648

  22052686.360   115887653.198 9  22052687.200    90302080.75649  22052685.900
  86539465.511 8
  23092815.680   123660975.397 8  23092815.740    96180759.530 6

  20350066.780   108782772.710 9  20350067.220    84608842.960 8

  21506745.040   114764135.124 7

  22464211.920   119957664.982 9  22464212.800    93300382.557 7

  21394507.000   114325753.169 9  21394508.520    88920036.886 8

  19070151.220   101869320.631 8  19070151.800    79231689.443 7

  24657990.480   131857361.546 7  24657993.700   102555723.696 5

  24148489.980   129223443.904 6  24148490.680   100507118.248 5

 20  3  7  0  2  0.0000000  0 18G10G12G14G15G20G21G24G25G31G32R04R05
                                R06R09R15R16R20R21
  20352436.860   106952777.211 9  20352437.840    83339829.47849  20352435.660
  79867329.323 9
  22105432.780   116164809.570 9  22105431.140    90518035.54247

  23510673.420   123549422.801 8  23510672.140    96272246.17045

  25824240.700   135707285.196 6  25824241.240   105745935.94144

  20313516.400   106748249.528 9  20313514.840    83180438.81248

  23581122.580   123919613.273 7  23581121.680    96560734.65345

  23918842.660   125694371.175 7  23918843.740    97943677.39446  23918843.800
  93862685.317 7
  21082255.320   110787991.177 9  21082257.040    86328299.18549  21082256.840
  82731294.536 9
  22660473.920   119081592.876 8  22660472.560    92790815.28548

  22045811.600   115851525.791 9  22045812.360    90273929.53549  22045811.000
  86512487.266 8
  23104910.600   123725741.426 8  23104910.460    96231133.045 6

  20349199.860   108778139.483 9  20349200.480    84605239.324 8

  21491068.580   114680481.369 8

  22442114.580   119839665.338 9  22442115.100    93208605.060 7

  21414012.400   114429983.174 9  21414013.780    89001104.656 7

  19068625.120   101861168.853 8  19068625.840    79225349.161 7

  24673061.500   131937954.392 4  24673064.680

  24159705.940   129283462.154 7  24159706.340   100553799.128 5

 20  3  7  0  2 30.0000000  0 18G10G12G14G15G20G21G24G25G31G32R04R05
                                R06R09R15R16R20R21
  20346671.320   106922479.704 9  20346672.540    83316221.03849  20346670.260
  79844704.561 9
  22109237.160   116184801.441 9  22109235.380    90533613.63147

  23502707.880   123507563.546 8  23502706.540    96239628.58246

  25836091.860   135769563.255 7  25836092.400   105794464.19645

  20322313.880   106794480.640 9  20322312.440    83216463.03648

  23595613.960   123995766.801 8  23595613.040    96620075.00945

  23937105.540   125790343.060 7  23937106.720    98018460.63446  23937106.780
  93934352.624 7
  21074451.660   110746982.420 9  21074453.320    86296344.31349  21074453.260
  82700671.123 9
  22646395.300   119007608.858 9  22646393.860    92733165.40349

  22038936.480   115815396.794 9  22038937.180    90245777.07649  22038935.860
  86485507.816 8
  23117070.060   123790855.826 8  23117070.180    96281777.541 6

  20348403.780   108773884.829 9  20348404.620    84601930.144 8

  21475395.940   114596847.916 8

  22420071.080   119721954.489 8  22420071.520    93117052.202 7

  21433588.000   114534589.243 9  21433588.840    89082464.921 7

  19067247.220   101853808.492 8  19067248.100    79219624.438 7

  24688084.380   132018284.172 5  24688084.980   102680899.9241

  24170970.240   129343739.506 7  24170970.980   100600681.508 5

 20  3  7  0  3  0.0000000  0 18G10G12G14G15G20G21G24G25G31G32R04R05
                                R06R09R15R16R20R21
  20341000.080   106892677.788 9  20341001.420    83292998.76249  20340999.140
  79822449.880 9
  22113152.760   116205377.987 9  22113151.080    90549647.29547

  23494734.640   123465663.748 8  23494733.320    96206979.41846

  25847952.160   135831888.798 6  25847952.760   105843029.47946

  20331209.060   106841225.034 9  20331207.600    83252887.22948

  23610099.900   124071891.211 7  23610099.180    96679392.68145

  23955361.400   125886278.625 7  23955362.560    98093215.59346  23955362.860
  94005992.761 7
  21066749.020   110706505.630 9  21066750.820    86264803.96249  21066750.860
  82670444.955 9
  22632382.840   118933971.877 9  22632381.320    92675785.94549

  22032060.920   115779265.879 9  22032061.740    90217623.11749  22032060.360
  86458526.942 9
  23129294.700   123856318.192 8  23129294.980    96332692.643 6

  20347678.900   108770010.659 9  20347679.960    84598916.901 8

  21459727.400   114513237.458 8

  22398082.260   119604535.617 8  22398082.580    93025726.417 7

  21453233.120   114639566.549 9  21453233.860    89164113.924 7

  19066017.220   101847238.827 8  19066018.220    79214514.686 7

  24703061.660   132098368.834 6  24703066.680

  24182281.900   129404271.385 7  24182282.960   100647761.871 5

 20  3  7  0  3 30.0000000  0 18G10G12G14G15G20G21G24G25G31G32R04R05
                                R06R09R15R16R20R21
  20335423.760   106863373.784 9  20335425.040    83270164.47449  20335422.720
  79800567.016 9
  22117179.640   116226539.570 9  22117178.020    90566136.84547

  23486753.600   123423723.336 8  23486752.220    96174298.56945

  25859821.680   135894262.827 6  25859822.220   105891632.54045

  20340201.760   106888482.160 9  20340200.320    83289710.95748

  23624579.860   124147984.658 8  23624579.240    96738686.19945

  23973610.100   125982175.610 7  23973611.260    98167940.49445  23973611.400
  94077604.123 7
  21059148.160   110666563.427 9  21059150.020    86233680.18649  21059150.100
  82640618.005 9
  22618436.280   118860682.790 8  22618435.020    92618677.57048

  22025185.180   115743133.721 9  22025186.040    90189468.20949  22025184.620
  86431545.140 9
  23141584.200   123922128.926 8  23141584.420    96383878.706 6

  20347025.920   108766519.984 9  20347026.780    84596201.923 8

  21444063.520   114429652.562 8

  22376148.820   119487412.322 8  22376149.400    92934630.543 7

  21472947.220   114744911.514 9  21472947.780    89246048.895 8

  19064935.380   101841459.587 8  19064936.320    79210019.723 7

  24717994.580                    24717999.160

  24193640.800   129465054.551 7  24193641.580   100695037.632 5

 20  3  7  0  4  0.0000000  0 18G10G12G14G15G20G21G24G25G31G32R04R05
                                R06R09R15R16R20R21
  20329942.800   106834570.491 9  20329944.000    83247720.34949  20329941.620
  79779058.065 9
  22121318.000   116248287.156 9  22121316.360    90583083.00647

  23478764.800   123381742.618 8  23478763.460    96141586.34245

  25871700.340   135956686.778 7  25871701.320   105940274.49444

  20349291.960   106936251.888 9  20349290.620    83326934.10448

  23639053.740   124224045.458 8  23639052.980    96797954.29345

  23991851.160   126078033.135 7  23991852.480    98242634.63345  23991852.480
  94149185.988 7
  21051649.760   110627158.956 9  21051651.500    86202975.41149  21051651.660
  82611192.600 9
  22604556.120   118787743.211 8  22604555.100    92561841.54048

  22018309.480   115707001.448 9  22018310.340    90161313.19149  22018309.000
  86404563.246 8
  23153938.940   123988289.045 8  23153939.420    96435336.474 6

  20346445.160   108763415.823 9  20346446.000    84593787.559 8

  21428405.100   114346097.083 8

  22354271.480   119370588.806 9  22354272.520    92843767.819 7

  21492729.360   114850620.992 9  21492729.900    89328267.353 7

  19064001.600   101836471.157 8  19064002.400    79206139.835 7

  24732886.680   132257874.66716  24732891.740   102867254.20014

  24205045.800   129526085.634 7  24205047.000   100742506.270 5

 20  3  7  0  4 30.0000000  0 18G10G12G14G15G20G21G24G25G31G32R04R05
                                R06R09R15R16R20R21
  20324556.760   106806266.268 9  20324557.820    83225665.10849  20324555.520
  79757921.791 9
  22125566.940   116270616.743 9  22125565.640    90600482.68147

  23470767.500   123339717.673 8  23470766.500    96108839.62246

  25883587.680   136019156.961 5  25883589.020   105988952.49144

  20358478.900   106984529.807 9  20358477.640    83364553.25548

  23653520.280   124300067.536 8  23653519.380    96857192.21344

  24010084.020   126173846.980 7  24010085.040    98317294.74345  24010085.480
  94220735.262 7
  21044253.500   110588290.827 9  21044255.100    86172688.56649  21044255.280
  82582167.710 9
  22590742.160   118715150.590 8  22590741.040    92505275.86748

  22011433.160   115670865.761 9  22011433.960    90133155.51149  22011432.740
  86377578.810 9
  23166358.420   124054794.737 8  23166358.700    96487063.071 5

  20345936.560   108760696.942 9  20345937.320    84591672.861 8

  21412752.000   114262569.559 7

  22332450.220   119254065.048 8  22332451.300    92753138.234 7

  21512578.280   114956687.071 9  21512578.760    89410763.194 7

  19063214.920   101832269.316 8  19063215.880    79202871.732 7

  24747728.180   132337236.845 8  24747731.160   102928957.904 7

  24216495.600   129587357.247 7  24216497.280   100790161.932 4

 20  3  7  0  5  0.0000000  0 18G10G12G14G15G20G21G24G25G31G32R04R05
                                R06R09R15R16R20R21
  20319266.760   106778467.157 9  20319267.860    83204003.45749  20319265.520
  79737162.716 9
  22129927.540   116293532.463 9  22129926.360    90618339.07647

  23462762.580   123297652.297 8  23462761.640    96076061.42546

  25895485.120   136081678.561 6  25895486.840   106037670.56645

  20367763.200   107033318.854 9  20367761.940    83402570.68048

  23667979.860   124376052.685 7  23667979.060    96916401.33845

  24028308.680   126269619.271 7  24028309.600    98391922.45146  24028310.600
  94292253.475 7
  21036960.340   110549965.331 9  21036961.960    86142824.54449  21036962.200
  82553548.031 9
  22576995.380   118642909.740 8  22576994.020    92448984.29548

  22004556.720   115634731.047 9  22004557.780    90104998.60749  22004556.540
  86350595.109 9
  23178843.320   124121650.269 8  23178843.540    96539061.762 5

  20345501.240   108758370.035 9  20345502.280    84589863.047 8

  21397105.620   114179077.053 8

  22310686.540   119137848.745 8  22310687.640    92662747.788 7

  21532493.980   115063109.617 9  21532494.700    89493536.258 7

  19062576.360   101828857.538 8  19062577.260    79200218.131 7

  24762525.500   132416337.795 5  24762528.460   102990501.954 2

  24227990.380   129648869.418 7  24227991.540   100838004.713 4

 20  3  7  0  5 30.0000000  0 18G10G12G14G15G20G21G24G25G31G32R04R05
                                R06R09R15R16R20R21
  20314072.280   106751170.164 9  20314073.460    83182733.07549  20314071.000
  79716778.596 9
  22134398.860   116317029.074 9  22134397.500    90636648.13047

  23454748.980   123255541.049 8  23454748.160    96043247.46546

  25907391.580   136144247.428 6  25907393.040   106086425.43944

  20377143.620   107082613.131 9  20377142.280    83440981.78948

  23682431.080   124451993.538 8  23682430.220    96975575.94944

  24046524.020   126365342.861 6  24046525.360    98466512.23746  24046526.060
  94363735.329 7
  21029769.960   110512179.784 9  21029771.580    86113381.27849  21029771.880
  82525331.571 9
  22563314.380   118571016.428 8  22563313.280    92392963.55649

  21997679.920   115598592.744 9  21997680.940    90076838.90049  21997679.680
  86323608.727 9
  23191393.020   124188850.847 8  23191393.100    96591328.803 6

  20345138.780   108756432.524 9  20345139.920    84588356.084 8

  21381465.580   114095617.570 8

  22288980.200   119021938.164 8  22288981.360    92572595.131 7

  21552474.480   115169879.722 9  21552475.340    89576579.680 7

  19062084.580   101826230.358 8  19062085.380    79198174.780 7

  24777268.860   132495194.142 8  24777270.740   103051825.598 6

  24239528.640   129710613.144 8  24239530.000   100886027.599 5

 20  3  7  0  6  0.0000000  0 18G10G12G14G15G20G21G24G25G31G32R04R05
                                R06R09R15R16R20R21
  20308974.720   106724381.790 9  20308975.800    83161859.01449  20308973.260
  79696774.289 9
  22138981.420   116341110.894 9  22138980.000    90655413.17747

  23446727.580   123213388.289 7  23446727.040    96010401.18646

  25919308.080   136206868.604 6  25919309.560   106135221.08344

  20386620.800   107132416.263 9  20386619.440    83479789.41248

  23696874.340   124527892.625 8  23696873.540    97034718.02945

  24064731.040   126461021.615 7  24064732.580    98541067.07945  24064733.000
  94435183.728 7
  21022683.660   110474940.960 9  21022685.300    86084364.01049  21022685.560
  82497523.358 9
  22549700.760   118499476.716 8  22549699.800    92337218.33749

  21990803.320   115562455.778 9  21990804.400    90048680.22449  21990803.040
  86296623.309 9
  23204007.660   124256400.724 8  23204007.620    96643867.534 6

  20344850.680   108754891.385 9  20344851.700    84587157.426 8

  21365832.720   114012198.236 7

  22267332.760   118906341.434 8  22267333.680    92482686.575 7

  21572519.840   115276997.881 9  21572521.000    89659893.781 7

  19061740.300   101824391.284 8  19061741.120    79196744.395 7

  24791964.960   132573790.697 5  24791967.700   103112948.332 4

  24251110.380   129772589.096 7  24251111.280   100934231.102 5

 20  3  7  0  6 30.0000000  0 18G10G12G14G15G20G21G24G25G31G32R04R05
                                R06R09R15R16R20R21
  20303973.800   106698101.242 9  20303974.740    83141380.66049  20303972.300
  79677149.197 9
  22143674.880   116365775.295 9  22143673.540    90674632.19147

  23438697.560   123171190.693 7  23438697.360    95977519.96546

  25931234.160   136269539.419 5  25931235.700   106184055.40445

  20396194.100   107182724.405 9  20396192.700    83518990.54748

  23711308.500   124603744.270 7  23711307.740    97093823.12545

  24082928.760   126556651.017 7  24082930.400    98615583.44146  24082930.800
  94506595.246 7
  21015701.280   110438248.303 9  21015703.000    86055772.34449  21015703.140
  82470123.015 9
  22536154.360   118428288.642 9  22536153.180    92281747.11649

  21983926.440   115526317.758 9  21983927.420    90020520.73449  21983926.180
  86269637.135 9
  23216687.000   124324297.433 8  23216686.640    96696676.029 6

  20344636.600   108753746.288 9  20344637.340    84586266.777 8

  21350207.420   113928819.309 7

  22245744.120   118791059.111 8  22245744.860    92393022.565 7

  21592629.060   115384457.286 9  21592630.640    89743473.293 7

  19061542.960   101823337.252 8  19061543.900    79195924.593 7

  24806613.500   132652124.850 4  24806616.680   103173862.855 3

  24262734.620   129834790.770 7  24262734.820   100982610.124 5

 20  3  7  0  7  0.0000000  0 18G10G12G14G15G20G21G24G25G31G32R04R05
                                R06R09R15R16R20R21
  20299069.600   106672329.461 9  20299070.540    83121298.75149  20299068.120
  79657904.031 9
  22148478.880   116391021.077 9  22148477.720    90694304.22447

  23430658.800   123128947.282 8  23430658.500    95944603.01445

  25943169.640   136332260.075 6  25943171.200   106232928.53845

  20405863.120   107233535.713 9  20405861.740    83558583.75648

  23725733.160   124679545.550 7  23725732.400    97152888.98245

  24101116.660   126652228.926 6  24101118.480    98690059.69546  24101118.920
  94577968.310 7
  21008823.100   110402103.016 9  21008824.800    86027607.20149  21008824.900
  82443131.420 9
  22522674.600   118357451.700 8  22522673.320    92226549.50548

  21977049.380   115490178.146 9  21977050.180    89992359.99549  21977048.940
  86242649.770 9
  23229431.020   124392540.241 8  23229430.600    96749753.706 6

  20344496.780   108752998.787 9  20344497.520    84585685.381 8

  21334590.020   113845482.403 7

  22224214.820   118676093.879 8  22224215.480    92303605.169 7

  21612801.660   115492253.050 9  21612803.080    89827314.432 7

  19061492.160   101823066.443 8  19061493.140    79195713.970 7

  24821211.980   132730174.881 7  24821218.480

  24274399.900   129897213.028 8  24274400.400   101031160.738 5

 20  3  7  0  7 30.0000000  0 18G10G12G14G15G20G21G24G25G31G32R04R05
                                R06R09R15R16R20R21
  20294262.640   106647068.931 9  20294263.580    83101615.21749  20294261.120
  79639040.644 9
  22153393.700   116416848.523 9  22153392.680    90714429.49647

  23422611.580   123086657.998 8  23422610.820    95911650.35145

  25955114.760   136395031.339 6  25955115.980   106281841.12044

  20415627.780   107284849.647 9  20415626.440    83598568.62748

  23740147.800   124755294.579 8  23740147.200    97211914.12345

  24119294.780   126747754.191 7  24119296.360    98764494.93446  24119296.760
  94649302.076 7
  21002049.620   110366507.878 9  21002051.240    85999870.74749  21002051.340
  82416550.647 9
  22509261.700   118286967.357 9  22509260.720    92171626.64649

  21970172.280   115454037.977 9  21970172.960    89964198.82949  21970171.620
  86215661.980 9
  23242239.600   124461129.292 8  23242239.100    96803100.687 6

  20344431.720   108752651.710 9  20344432.620    84585415.428 8

  21318981.160   113762191.058 7

  22202745.600   118561449.589 8  22202746.160    92214437.423 7

  21633036.560   115600381.435 9  21633037.920    89911414.266 7

  19061587.920   101823578.481 8  19061589.020    79196112.229 7

  24835763.840   132807969.621 7  24835765.220   103295109.88414

  24286105.780   129959852.617 7  24286105.820   101079880.458 4

 20  3  7  0  8  0.0000000  0 17G10G12G14G15G20G21G24G25G31G32R04R05
                                R06R09R15R16R21
  20289553.440   106622321.747 9  20289554.380    83082331.69949  20289551.840
  79620560.603 9
  22158419.300   116443257.564 9  22158418.220    90735007.96847

  23414555.600   123044322.844 8  23414554.740    95878661.92546

  25967069.720   136457854.340 5  25967071.320   106330794.06444

  20425487.920   107336665.020 9  20425486.540    83638944.22448

  23754552.320   124830989.471 8  23754551.660    97270897.09345

  24137462.300   126843225.805 6  24137464.120    98838888.34545  24137464.280
  94720595.804 7
  20995381.300   110331465.186 9  20995382.940    85972564.75549  20995382.980
  82390382.411 9
  22495916.340   118216836.859 9  22495915.300    92116979.50949

  21963294.920   115417897.855 9  21963295.780    89936037.69549  21963294.360
  86188674.223 9
  23255112.620   124530064.988 8  23255112.560    96856717.269 6

  20344442.260   108752707.857 9  20344443.240    84585459.102 8

  21303381.300   113678948.121 7

  22181337.260   118447129.877 9  22181337.800    92125522.110 7

  21653333.020   115708838.716 9  21653334.240    89995769.919 7

  19061830.320   101824872.884 8  19061831.220    79197119.002 7

  24297851.340   130022705.926 7  24297851.260   101128766.283 5

 20  3  7  0  8 30.0000000  0 17G10G12G14G15G20G21G24G25G31G32R04R05
                                R06R09R15R16R21
  20284942.540   106598091.506 9  20284943.460    83063450.98449  20284941.020
  79602466.588 9
  22163555.980   116470249.870 9  22163554.720    90756040.93647

  23406491.060   123001943.182 8  23406490.300    95845638.84846

  25979034.940   136520731.509 6  25979036.440   106379789.18544

  20435443.560   107388982.629 9  20435442.320    83679711.18248

  23768946.380   124906629.519 8  23768945.560    97329837.33045

  24155619.720   126938643.891 6  24155621.780    98913240.09045  24155621.700
  94791849.520 7
  20988818.820   110296978.842 9  20988820.520    85945692.29649  20988820.440
  82364629.638 9
  22482638.940   118147062.776 9  22482637.580    92062610.09449

  21956418.120   115381759.964 9  21956419.020    89907878.29349  21956417.460
  86161688.135 9
  23268050.840   124599349.045 8  23268051.020    96910604.786 6

  20344529.020   108753171.254 9  20344529.780    84585819.501 8

  21287791.300   113595758.417 7

  22159990.760   118333140.192 9  22159991.360    92036863.485 7

  21673690.520   115817622.655 9  21673691.440    90080379.633 7

  19062219.320   101826950.617 8  19062220.120    79198735.025 7

  24309636.440   130085770.826 7  24309636.400   101177816.774 4

 20  3  7  0  9  0.0000000  0 17G10G12G14G15G20G21G24G25G31G32R04R05
                                R06R09R15R16R21
  20280430.060   106574378.482 9  20280430.880    83044973.29649  20280428.600
  79584758.804 9
  22168803.100   116497823.304 9  22168801.840    90777526.71847

  23398417.660   122959517.426 8  23398416.780    95812579.80345

  25991010.240   136583661.697 5  25991011.980   106428825.60143

  20445494.360   107441800.039 9  20445493.200    83720867.58948

  23783329.120   124982210.800 8  23783328.260    97388731.75745

  24173766.460   127034005.183 7  24173768.360    98987547.55244  24173768.280
  94863060.802 7
  20982362.260   110263049.301 9  20982363.900    85919253.69649  20982363.840
  82339292.653 9
  22469428.680   118077644.028 8  22469427.420    92008517.56548

  21949541.640   115345623.156 9  21949542.500    89879719.73549  21949540.820
  86134702.850 9
  23281053.760   124668979.736 8  23281054.200    96964761.948 6

  20344692.100   108754042.671 9  20344692.720    84586497.265 8

  21272211.840   113512623.124 7

  22138706.220   118219482.173 8  22138706.840    91948462.827 7

  21694107.760   115926727.550 9  21694108.960    90165238.975 7

  19062754.280   101829808.729 8  19062755.200    79200958.009 7

  24321459.900   130149041.646 6  24321460.200   101227027.394 5

 20  3  7  0  9 30.0000000  0 17G10G12G14G15G20G21G24G25G31G32R04R05
                                R06R09R15R16R21
  20276016.620   106551185.866 9  20276017.500    83026901.12649  20276015.280
  79567439.641 9
  22174160.980   116525978.877 9  22174159.880    90799466.13247

  23390335.700   122917046.408 8  23390334.820    95779485.53846

  26002995.960   136646646.825 4

  20455640.360   107495117.395 9  20455639.160    83762413.56448

  23797700.500   125057732.328 8  23797699.620    97447579.63845

  24191902.480   127129310.007 7  24191904.280    99061811.02645  24191904.240
  94934229.979 7
  20976012.160   110229680.023 9  20976013.780    85893251.67049  20976013.800
  82314374.054 9
  22456286.620   118008582.807 9  22456285.460    91954703.61849

  21942665.580   115309489.277 9  21942666.640    89851563.47049  21942664.900
  86107719.767 9
  23294121.580   124738958.318 8  23294122.260    97019189.649 5

  20344932.140   108755325.945 9  20344932.800    84587495.363 8

  21256643.660   113429546.907 7

  22117484.640   118106160.614 9  22117485.380    91860323.859 7

  21714584.680   116036150.788 9  21714585.880    90250345.933 7

  19063435.540   101833448.266 8  19063436.560    79203788.758 7

  24333321.620   130212515.712 7  24333321.840   101276396.055 4

 20  3  7  0 10  0.0000000  0 17G10G12G14G15G20G21G24G25G31G32R04R05
                                R06R09R15R16R21
  20271702.100   106528513.599 9  20271703.180    83009234.42449  20271700.960
  79550509.048 9
  22179629.100   116554714.402 9  22179628.000    90821857.44847

  23382244.840   122874527.948 8  23382243.920    95746354.28746

  26014991.780                    26014998.660

  20465880.960   107548931.402 9  20465879.660    83804346.54248

  23812059.680   125133190.068 7  23812058.940    97506377.79145

  24210027.080   127224554.892 7  24210028.960    99136027.79845  24210029.060
  95005354.339 7
  20969768.640   110196871.158 9  20969770.360    85867686.32849  20969770.380
  82289873.929 9
  22443212.840   117939878.402 9  22443211.600    91901167.71849

  21935789.620   115273356.883 9  21935791.020    89823408.37049  21935789.180
  86080737.784 9
  23307254.080   124809282.995 8  23307254.880    97073886.528 6

  20345249.280   108757021.331 9  20345250.080    84588813.980 8

  21241086.400   113346529.979 7

  22096326.300   117993177.055 8  22096326.960    91772447.776 7

  21735120.140   116145886.455 9  21735121.480    90335695.878 7

  19064262.580   101837865.885 8  19064263.500    79207224.690 7

  24345220.100   130276187.551 7  24345220.460   101325918.588 6

 20  3  7  0 10 30.0000000  0 16G10G12G14G20G21G24G25G31G32R04R05R06
                                R09R15R16R21
  20267486.340   106506359.644 9  20267487.420    82991971.59449  20267485.240
  79533965.502 9
  22185206.720   116584025.750 9  22185205.740    90844697.46747

  23374144.100   122831957.967 8  23374143.040    95713182.88745

  20476215.080   107603237.036 9  20476213.760    83846662.61248

  23826405.420   125208577.953 7  23826404.960    97565121.51945

  24228139.160   127319734.953 6  24228141.080    99210194.04045  24228141.340
  95076430.324 7
  20963631.540   110164620.905 9  20963633.320    85842556.27649  20963633.300
  82265790.960 9
  22430206.280   117871527.622 8  22430205.040    91847907.36448

  21928913.480   115237222.657 9  21928914.840    89795251.82449  21928913.200
  86053754.444 9
  23320450.700   124879949.533 8  23320451.360    97128849.312 6

  20345643.280   108759127.530 9  20345644.300    84590452.139 8

  21225540.480   113263572.632 7

  22075231.260   117880530.982 9  22075231.900    91684834.183 7

  21755712.820   116255926.524 9  21755714.060    90421282.586 8

  19065234.360   101843056.604 8  19065235.120    79211261.918 7

  24357154.360   130340048.900 7  24357154.960   101375588.459 4

 20  3  7  0 11  0.0000000  0 16G10G12G14G20G21G24G25G31G32R04R05R06
                                R09R15R16R21
  20263370.980   106484733.352 9  20263372.060    82975119.93249  20263369.860
  79517815.989 9
  22190895.340   116613920.088 9  22190894.240    90867991.77247

  23366034.940   122789343.728 8  23366033.640    95679976.99346

  20486644.020   107658040.931 9  20486642.620    83889366.94248

  23840739.020   125283901.306 8  23840738.700    97623814.94945

  24246239.960   127414856.364 6  24246242.100    99284314.57545  24246242.360
  95147462.503 6
  20957602.660   110132938.801 9  20957604.380    85817868.92849  20957604.300
  82242132.269 9
  22417268.080   117803538.753 8  22417267.240    91794929.03948

  21922038.640   115201094.653 9  21922039.820    89767100.14149  21922038.180
  86026775.749 8
  23333712.600   124950965.482 8  23333713.020    97184083.897 6

  20346115.980   108761654.214 9  20346117.100    84592417.329 8

  21210007.480   113180684.503 8

  22054201.440   117768233.389 9  22054202.220    91597491.643 7

  21776363.160   116366274.803 9  21776364.380    90507109.004 7

  19066352.120   101849027.312 8  19066352.780    79215905.802 7

  24369124.120   130404104.035 8  24369125.020   101425409.157 6

 20  3  7  0 11 30.0000000  0 16G10G12G14G20G21G24G25G31G32R04R05R06
                                R09R15R16R21
  20259355.460   106463632.269 9  20259356.720    82958677.53049  20259354.420
  79502058.683 9
  22196694.080   116644392.888 9  22196693.100    90891736.80847

  23357916.400   122746680.872 8  23357915.280    95646733.21846

  20497166.800   107713337.630 9  20497165.260    83932455.25548

  23855058.960   125359153.440 8  23855058.760    97682452.89245

  24264328.720   127509913.468 7  24264331.060    99358385.00144  24264331.200
  95218446.683 7
  20951681.340   110101822.624 9  20951683.180    85793622.57149  20951683.080
  82218896.179 9
  22404398.000   117735908.152 8  22404397.480    91742229.85548

  21915164.180   115164969.162 9  21915165.200    89738950.39749  21915163.640
  85999798.911 9
  23347038.960   125022326.570 8  23347039.560    97239586.897 5

  20346667.160   108764599.836 9  20346668.160    84594708.348 8

  21194486.960   113097864.109 8

  22033236.760   117656283.509 8  22033237.580    91510419.521 7

  21797069.400   116476922.968 9  21797070.720    90593168.670 7

  19067614.780   101855772.498 8  19067615.600    79221152.054 7

  24381129.120   130468344.407 8  24381129.700   101475373.841 5

 20  3  7  0 12  0.0000000  0 17G10G12G14G15G20G21G24G25G31G32R04R05
                                R06R09R15R16R21
  20255440.720   106443060.048 9  20255441.980    82942647.22049  20255439.760
  79486696.306 9
  22202603.020   116675445.429 9  22202602.060    90915933.58547

  23349789.040   122703971.047 8  23349787.860    95613452.83946

  26063081.180

  20507783.320   107769127.733 9  20507781.760    83975928.05448

  23869365.140   125434333.980 7  23869365.080    97741035.04445

  24282405.320   127604906.718 6  24282407.780    99432405.71345  24282407.820
  95289383.165 6
  20945868.540   110071276.275 9  20945870.460    85769820.22749  20945870.460
  82196085.599 9
  22391597.020   117668638.719 8  22391596.560    91689812.13249

  21908290.740   115128848.623 9  21908291.680    89710804.52549  21908290.300
  85972825.790 8
  23360430.020   125094034.644 8  23360430.660    97295359.758 6

  20347297.440   108767968.279 9  20347298.300    84597328.236 8

  21178980.100   113015116.612 8

  22012338.320   117544686.600 9  22012339.080    91423621.948 7

  21817831.580   116587868.962 9  21817832.860    90679459.985 7

  19069022.540   101863292.528 8  19069023.420    79227000.973 7

  24393168.180   130532768.052 7  24393169.180   101525481.062 6

 20  3  7  0 12 30.0000000  0 16G10G12G14G20G21G24G25G31G32R04R05R06
                                R09R15R16R21
  20251626.020   106423013.646 9  20251627.240    82927026.64649  20251625.060
  79471726.584 9
  22208621.400   116707072.460 8  22208620.260    90940578.04648

  23341651.860   122661209.355 8  23341650.580    95580132.05046

  20518492.520   107825405.218 9  20518491.020    84019780.63448

  23883656.600   125509436.482 7  23883656.520    97799556.39746

  24300468.800   127699830.271 6  24300471.280    99506372.03845  24300471.180
  95360267.544 7
  20940163.720   110041296.910 9  20940165.560    85746459.69549  20940165.720
  82173698.429 9
  22378864.200   117601726.245 8  22378863.600    91637672.54348

  21901417.260   115092728.804 9  21901418.340    89682659.21549  21901416.840
  85945853.205 8
  23373885.000   125166084.361 8  23373885.720    97351398.367 6

  20348006.180   108771757.285 9  20348006.880    84600275.232 8

  21163486.680   112932440.536 8

  21991505.880   117433441.278 9  21991506.460    91337097.820 7

  21838647.540   116699103.977 9  21838649.060    90765976.069 7

  19070574.480   101871581.808 8  19070575.280    79233448.203 7

  24405240.000   130597366.251 7  24405241.180   101575724.095 4

 20  3  7  0 13  0.0000000  0 16G10G12G14G20G21G24G25G31G32R04R05R06
                                R09R15R16R21
  20247912.600   106403499.553 9  20247913.820    82911820.84749  20247911.580
  79457154.360 9
  22214749.840   116739278.352 9  22214748.860    90965673.55047

  23333505.400   122618400.165 7  23333504.260    95546774.26246

  20529295.180   107882173.675 9  20529293.680    84064015.77248

  23897933.780   125584463.251 8  23897933.500    97858018.73345

  24318519.780   127794687.227 6  24318522.040    99580286.49446  24318522.220
  95431102.241 7
  20934567.980   110011891.145 9  20934569.740    85723546.12649  20934570.060
  82151739.590 9
  22366200.080   117535176.044 8  22366199.480    91585815.24448

  21894544.940   115056615.036 9  21894546.140    89654518.61949  21894544.480
  85918885.126 9
  23387404.860   125238480.555 8  23387405.440    97407706.444 6

  20348794.940   108775973.766 9  20348795.780    84603554.703 8

  21148007.960   112849843.301 8

  21970740.500   117322555.825 9  21970741.240    91250853.592 7

  21859517.900   116810628.778 9  21859519.420    90852717.577 7

  19072271.040   101880643.886 8  19072271.680    79240496.483 7

  24417344.240   130662139.838 5  24417345.460   101626115.690 5

 20  3  7  0 13 30.0000000  0 16G10G12G14G20G21G24G25G31G32R04R05R06
                                R09R15R16R21
  20244300.020   106384514.944 9  20244301.200    82897027.64149  20244298.960
  79442977.539 9
  22220987.740   116772058.197 9  22220986.520    90991216.30047

  23325349.000   122575538.900 8  23325347.960    95513375.89445

  20540190.160   107939427.102 9  20540188.640    84108628.83248

  23912195.380   125659407.469 7  23912194.780    97916416.73245

  24336556.900   127889472.018 6  24336559.080    99654144.76446  24336559.700
  95501883.074 7
  20929080.980   109983056.387 9  20929082.700    85701077.50249  20929083.000
  82130207.168 9
  22353604.420   117468984.540 9  22353603.460    91534237.45749

  21887673.160   115020503.336 9  21887674.400    89626379.65149  21887672.740
  85891918.623 9
  23400988.100   125311218.405 8  23400988.740    97464280.270 5

  20349663.320   108780615.614 9  20349664.120    84607165.029 8

  21132543.720   112767323.354 8

  21950042.060   117212028.821 9  21950043.020    91164888.163 7

  21880441.020   116922434.826 9  21880442.520    90939677.828 7

  19074111.180   101890472.841 8  19074111.540    79248141.228 7

  24429480.420   130727080.318 8  24429482.040   101676623.856 4

 20  3  7  0 14  0.0000000  0 16G10G12G14G20G21G24G25G31G32R04R05R06
                                R09R15R16R21
  20240788.940   106366063.907 9  20240790.080    82882650.20449  20240787.840
  79429199.158 9
  22227335.200   116805413.631 9  22227333.820    91017207.55847

  23317183.260   122532627.773 8  23317182.140    95479938.65646

  20551177.700   107997167.025 9  20551176.280    84153620.97248

  23926441.340   125734269.301 7  23926440.560    97974750.56045

  24354580.420   127984185.608 7  24354582.420    99727947.50146  24354583.000
  95572610.688 6
  20923703.480   109954796.937 9  20923705.200    85679057.16249  20923705.340
  82109104.342 9
  22341077.900   117403155.018 9  22341076.480    91482941.73249

  21880802.340   114984396.768 9  21880803.520    89598244.64449  21880801.900
  85864955.906 9
  23414635.460   125384300.137 8  23414635.960    97521121.534 6

  20350612.100   108785687.397 9  20350612.720    84611109.735 8

  21117094.820   112684886.528 8

  21929412.020   117101866.250 9  21929413.040    91079206.182 8

  21901416.500   117034520.756 9  21901418.140    91026855.765 7

  19076095.020   101901069.790 8  19076095.300    79256383.299 7

  24441647.080   130792186.496 7  24441647.600   101727262.094 6

 20  3  7  0 14 30.0000000  0 16G10G12G14G20G21G24G25G31G32R04R05R06
                                R09R15R16R21
  20237379.980   106348148.595 9  20237380.960    82868690.21749  20237378.680
  79415820.827 9
  22233791.960   116839344.696 9  22233790.780    91043647.33947

  23309008.000   122489666.949 8  23309006.900    95446462.70246

  20562257.740   108055392.463 9  20562256.220    84198991.43548

  23940671.100   125809047.006 7  23940670.360    98033018.83445

  24372590.300   128078827.475 6  24372592.100    99801694.40045  24372592.800
  95643284.784 7
  20918435.860   109927115.108 9  20918437.500    85657486.91749  20918437.560
  82088432.858 9
  22328620.240   117337688.036 9  22328618.480    91431928.51349

  21873932.520   114948296.303 9  21873933.800    89570114.42249  21873932.120
  85837997.780 9
  23428347.320   125457726.158 8  23428347.660    97578230.601 6

  20351641.940   108791191.726 9  20351642.440    84615390.871 8

  21101662.420   112602536.514 8

  21908850.920   116992071.754 9  21908852.060    90993810.494 8

  21922443.440   117146882.970 9  21922445.240    91114248.572 7

  19078222.360   101912434.123 8  19078222.640    79265222.227 7

  24453844.000   130857454.852 7  24453847.340   101778030.147 5

 20  3  7  0 15  0.0000000  0 16G10G12G14G20G21G24G25G31G32R04R05R06
                                R09R15R16R21
  20234073.200   106330770.771 9  20234074.160    82855149.04949  20234071.800
  79402843.880 9
  22240358.400   116873850.536 9  22240357.200    91070535.00447

  23300823.460   122446656.591 8  23300822.460    95412948.13946

  20573429.820   108114101.919 9  20573428.300    84244739.05348

  23954884.280   125883738.672 7  23954883.900    98091220.03445

  24390586.300   128173396.371 7  24390587.820    99875384.42445  24390588.320
  95713904.385 7
  20913278.540   109900012.848 9  20913279.980    85636368.27849  20913280.060
  82068194.171 9
  22316231.700   117272585.009 9  22316229.700    91381198.89649

  21867063.980   114912202.712 9  21867065.380    89541989.55849  21867063.720
  85811044.774 9
  23442123.520   125531496.064 8  23442123.380    97635607.092 5

  20352752.980   108797131.203 9  20352753.580    84620010.460 8

  21086247.000   112520276.039 8

  21888359.580   116882649.045 9  21888360.840    90908703.955 7

  21943521.200   117259517.534 8  21943523.260    91201853.201 7

  19080493.100   101924564.070 8  19080493.380    79274656.639 7

  24466070.320   130922882.605 7  24466070.000   101828899.680 5

 20  3  7  0 15 30.0000000  0 17G10G12G14G20G21G24G25G26G31G32R04R05
                                R06R09R15R16R21
  20230868.580   106313930.132 9  20230869.500    82842026.46349  20230867.100
  79390268.071 9
  22247033.700   116908929.185 9  22247032.320    91097869.02547

  23292629.040   122403594.533 8  23292628.080    95379393.29846

  20584693.360   108173292.581 9  20584691.900    84290861.64748

  23969080.520   125958340.101 7  23969080.300    98149350.95045

  24408567.500   128267888.922 6  24408569.240    99949014.93645  24408569.280
  95784466.923 7
  20908231.480   109873490.009 9  20908232.840    85615701.14049  20908232.860
  82048388.169 9
  25593203.500                                                    25593206.620
 100433241.845 6
  22303911.960   117207844.446 9  22303910.100    91330751.71949

  21860196.620   114876114.718 9  21860198.060    89513869.05349  21860196.460
  85784095.963 9
  23455963.500   125605607.674 8  23455963.280    97693249.368 6

  20353945.440   108803506.074 9  20353946.140    84624968.697 8

  21070848.620   112438106.916 8

  21867938.060   116773599.254 9  21867939.220    90823887.474 7

  21964649.060   117372418.802 9  21964651.040    91289665.286 7

  19082906.620   101937456.687 8  19082906.960    79284684.230 7

  24478325.600   130988461.802 8  24478326.860   101879905.525 5

 20  3  7  0 16  0.0000000  0 17G10G12G14G20G21G24G25G26G31G32R04R05
                                R06R09R15R16R21
  20227767.020   106297630.975 9  20227767.820    82829325.83349  20227765.440
  79378096.611 9
  22253818.160   116944582.362 9  22253816.680    91125650.75047

  23284425.100   122360483.153 8  23284424.220    95345800.06346

  20596048.640   108232965.432 9  20596047.300    84337359.97648

  23983259.680   126032851.843 7  23983259.540    98207411.95945

  24426534.740   128362307.339 7  24426536.800   100022587.68045  24426536.440
  95854974.134 7
  20903295.540   109847551.080 9  20903296.880    85595489.01349  20903296.840
  82029018.199 9
  25572676.340   134385317.06015  25572680.100   104715849.23244  25572679.900
 100352685.642 5
  22291661.820   117143469.500 9  22291660.100    91280589.46249

  21853331.060   114840035.631 9  21853332.420    89485755.50449  21853330.860
  85757153.774 9
  23469867.340   125680063.651 8  23469867.560    97751159.520 6

  20355220.440   108810321.257 9  20355221.180    84630269.410 8

  21055468.360   112356034.384 8

  21847587.540   116664928.495 9  21847588.580    90739365.806 8

  21985826.640   117485585.414 9  21985828.460    91377683.764 7

  19085462.980   101951112.805 8  19085463.420    79295305.678 7

  24490609.060   131054192.342 7  24490608.340   101931047.399 5

 20  3  7  0 16 30.0000000  0 17G10G12G14G20G21G24G25G26G31G32R04R05
                                R06R09R15R16R21
  20224767.740   106281869.807 9  20224768.500    82817044.37549  20224766.140
  79366326.894 9
  22260711.120   116980804.202 9  22260709.680    91153875.55047

  23276210.880   122317317.327 8  23276210.140    95312164.36147

  20607494.360   108293114.116 9  20607493.220    84384229.05248

  23997420.380   126107266.685 7  23997420.040    98265397.46445

  24444486.580   128456644.430 6  24444488.620   100096097.05845  24444488.020
  95925420.620 7
  20898469.980   109822192.762 9  20898471.460    85575729.26649  20898471.320
  82010081.787 9
  25552123.700   134277311.488 5  25552127.760   104631689.01045  25552126.980
 100272032.126 5
  22279480.340   117079455.782 9  22279478.660    91230708.63049

  21846466.200   114803961.000 9  21846467.560    89457645.39149  21846466.120
  85730214.932 9
  23483834.100   125754858.342 8  23483835.160    97809333.093 6

  20356577.100   108817573.797 9  20356577.940    84635910.247 8

  21040105.840   112274056.940 8

  21827307.720   116556635.124 9  21827308.860    90655137.636 8

  22007052.080   117599008.251 9  22007053.820    91465901.485 7

  19088161.140   101965526.049 8  19088161.580    79306515.954 7

  24502918.980   131120065.208 7  24502920.200   101982281.636 5

 20  3  7  0 17  0.0000000  0 16G10G12G14G20G21G24G25G26G31G32R04R05
                                R06R09R15R16
  20221871.140   106266648.445 9  20221872.020    82805183.56549  20221869.640
  79354960.284 9
  22267712.080   117017594.766 9  22267710.740    91182543.49947

  23267986.440   122274097.356 8  23267985.700    95278486.46546

  20619030.540   108353737.485 9  20619029.400    84431468.03348

  24011562.340   126181582.803 7  24011562.060    98323306.02545

  24462422.520   128550899.729 7  24462424.660   100169542.72145  24462424.420
  95995806.049 7
  20893755.240   109797416.973 9  20893756.840    85556423.46249  20893756.580
  81991580.403 9
  25531545.980   134169176.765 4  25531550.480   104547428.15244  25531549.660
 100191282.104 4
  22267367.840   117015804.278 9  22267366.280    91181110.07449

  21839602.500   114767891.735 9  21839603.720    89429539.47449  21839602.420
  85703280.093 9
  23497864.300   125829991.835 7  23497866.140    97867770.155 6

  20358016.120   108825266.039 9  20358016.780    84641893.106 8

  21024761.700   112192177.560 8

  21807099.200   116448722.477 9  21807100.380    90571205.598 8

  22028324.980   117712683.762 9  22028326.580    91554315.744 7

  19091000.820   101980694.891 8  19091001.220    79318313.944 7

 20  3  7  0 17 30.0000000  0 17G10G12G14G20G21G24G25G26G31G32R04R05
                                R06R09R15R16R21
  20219078.520   106251973.703 9  20219079.480    82793748.69349  20219077.180
  79344001.863 9
  22274822.240   117054958.278 9  22274820.920    91211657.94147

  23259752.680   122230828.245 8  23259751.980    95244770.28346

  20630657.940   108414839.322 9  20630656.640    84479079.84448

  24025686.220   126255803.531 7  24025686.080    98381140.28745

  24480343.800   128645077.561 6  24480346.060   100242927.99546  24480346.240
  96066133.584 7
  20889152.660   109773230.696 9  20889154.400    85537577.01249  20889154.060
  81973519.219 9
  25510945.080   134060921.103 6  25510950.360   104463073.05045  25510949.040
 100110441.777 5
  22255325.140   116952520.671 9  22255323.840    91131798.17749

  21832740.980   114731833.794 9  21832742.060    89401442.36749  21832740.840
  85676353.700 9
  23511959.320   125905468.975 8  23511961.080    97926474.491 6

  20359538.700   108833405.543 9  20359539.360    84648223.819 8

  21009437.620   112110405.092 8

  21786963.540   116341198.919 9  21786964.700    90487576.188 8

  22049645.580   117826613.414 9  22049646.800    91642927.681 7

  19093982.560   101996623.188 8  19093983.080    79330702.622 7

  24527614.820   131252217.190 5  24527619.460   102085071.245 6

 20  3  7  0 18  0.0000000  0 17G10G12G14G20G21G24G25G26G31G32R04R05
                                R06R09R15R16R21
  20216389.580   106237843.254 9  20216390.580    82782737.94949  20216388.300
  79333449.904 9
  22282040.400   117092890.070 9  22282039.080    91241215.17347

  23251508.640   122187506.025 8  23251508.040    95211012.71346

  20642375.500   108476414.573 9  20642374.000    84527060.54448

  24039790.960   126329922.735 7  24039790.700    98438895.42345

  24498249.420   128739172.631 6  24498251.600   100316248.79646  24498252.020
  96136399.355 6
  20884661.820   109749631.787 9  20884663.680    85519188.24849  20884663.380
  81955896.659 9
  25490321.120   133952542.250 4  25490326.540   104378621.79544  25490325.200
 100029509.469 4
  22243351.880   116889601.840 9  22243350.720    91082770.52649

  21825881.100   114695783.998 9  21825882.200    89373351.61849  21825880.860
  85649433.401 9
  23526117.880   125981285.574 8  23526119.680    97985442.867 6

  20361144.660   108841990.675 9  20361145.440    84654901.135 8

  20994133.160   112028738.527 7

  21766900.780   116234064.401 9  21766901.720    90404249.373 8

  22071012.220   117940789.410 9  22071013.160    91731731.209 7

  19097105.540   102013305.447 8  19097106.080    79343677.717 7

  24540002.260   131318501.274 7  24540002.600   102136627.375 4

 20  3  7  0 18 30.0000000  0 17G10G12G14G20G21G24G25G26G31G32R04R05
                                R06R09R15R16R21
  20213804.520   106224258.785 9  20213805.580    82772152.65149  20213803.280
  79323305.658 9
  22289366.640   117131389.847 9  22289365.320    91271215.01247

  23243254.780   122144131.477 8  23243253.940    95177214.37446

  20654182.800   108538462.016 9  20654181.220    84575409.20548

  24053875.920   126403938.561 7  24053875.320    98496569.98945

  24516139.080   128833183.981 6  24516141.360   100389504.34645  24516141.600
  96206602.579 7
  20880283.220   109726622.044 9  20880285.040    85501258.57649  20880284.800
  81938714.055 9
  25469674.540   133844043.094 5  25469680.200   104294077.00844  25469678.240
  99948487.148 5
  22231448.420   116827048.541 9  22231447.140    91034027.69849

  21819022.980   114659743.189 9  21819023.800    89345267.88649  21819022.520
  85622519.823 9
  23540339.680   126057441.470 8  23540341.320    98044675.170 6

  20362834.280   108851023.640 9  20362835.200    84661926.773 8

  20978849.300   111947181.509 8

  21746911.600   116127322.016 9  21746911.980    90321227.554 8

  22092424.340   118055207.824 9  22092424.940    91820723.331 7

  19100369.500   102030740.364 8  19100369.940    79357238.212 7

  24552413.040   131384914.065 7  24552416.340   102188282.848 6

 20  3  7  0 19  0.0000000  0 17G10G12G14G20G21G24G25G26G31G32R04R05
                                R06R09R15R16R21
  20211323.360   106211219.757 9  20211324.260    82761992.35949  20211322.040
  79313568.708 9
  22296800.680   117170455.342 9  22296799.160    91301655.64747

  23234990.260   122100701.720 8  23234989.480    95143373.01746

  20666079.220   108600978.094 9  20666077.700    84624123.01848

  24067940.440   126477847.104 7  24067939.380    98554160.97545

  24534012.320   128927108.922 6  24534014.860   100462692.56346  24534015.320
  96276741.261 7
  20876016.640   109704201.054 9  20876018.380    85483787.68549  20876018.220
  81921971.118 9
  25449004.540   133735420.076 5  25449010.380   104209437.95643  25449009.180
  99867375.039 5
  22219614.080   116764859.497 8  22219613.020    90985568.71148

  21812166.300   114623710.070 9  21812166.880    89317190.12949  21812165.740
  85595611.970 9
  23554624.380   126133934.174 8  23554626.060    98104169.381 6

  20364607.900   108860504.541 9  20364608.720    84669300.803 8

  20963586.000   111865734.717 7

  21726995.880   116020972.923 9  21726996.180    90238511.622 8

  22113880.500   118169862.984 9  22113881.240    91909899.516 7

  19103773.500   102048923.863 8  19103773.880    79371380.937 7

  24564846.680   131451449.873 3  24564850.560   102240032.833 6

 20  3  7  0 19 30.0000000  0 17G10G12G14G20G21G24G25G26G31G32R04R05
                                R06R09R15R16R21
  20208946.880   106198730.414 9  20208947.620    82752260.39949  20208945.380
  79304242.237 9
  22304342.280   117210087.035 9  22304340.820    91332537.49247

  23226715.680   122057219.570 8  23226714.900    95109490.82546

  20678064.940   108663963.754 9  20678063.620    84673202.73648

  24081984.380   126551648.698 7  24081983.620    98611668.58845

  24551869.180   129020947.911 6  24551872.100   100535813.81145  24551872.420
  96346815.790 6
  20871862.840   109682373.247 9  20871864.700    85466778.99749  20871864.540
  81905671.132 9
  25428315.280   133626711.774 5  25428318.520   104124691.85044  25428317.880
  99786179.138 5
  22207849.460   116703037.652 9  22207848.840    90937395.84749

  21805311.580   114587688.108 9  21805312.120    89289121.06849  21805311.060
  85568712.461 9
  23568972.480   126210765.941 8  23568973.440    98163927.347 6

  20366466.100   108870438.254 9  20366467.040    84677027.020 8

  20948344.840   111784404.636 8

  21707155.180   115915023.224 9  21707155.220    90156106.314 8

  22135380.980   118284753.833 9  22135381.660    91999259.041 7

  19107317.720   102067857.053 8  19107318.260    79386106.745 7

  24577303.580   131518107.487 5  24577304.740   102291875.646 3

 20  3  7  0 20  0.0000000  0 16G10G12G14G20G21G24G25G26G31G32R04R05
                                R06R09R15R16
  20206674.880   106186790.556 9  20206675.540    82742956.60549  20206673.340
  79295326.103 9
  22311991.240   117250282.915 9  22311990.040    91363858.94647

  23218430.920   122013683.156 8  23218430.180    95075566.36946

  20690139.460   108727416.363 9  20690138.300    84722646.31548

  24096007.180   126625339.706 7  24096006.820    98669090.07045

  24569709.880   129114699.092 6  24569712.480   100608866.63245  24569712.720
  96416824.755 7
  20867822.040   109661138.503 9  20867823.860    85450232.45149  20867823.740
  81889814.018 9
  25407601.620   133517843.094 5  25407606.800   104039874.73245  25407604.640
  99704896.017 4
  22196154.860   116641581.996 8  22196154.360    90889508.31649

  21798458.680   114551676.403 9  21798459.260    89261059.99849  21798458.260
  85541820.608 9
  23583383.520   126287934.877 8  23583384.280    98223947.533 6

  20368409.320   108880825.269 9  20368410.300    84685105.801 8

  20933125.700   111703192.469 8

  21687389.500   115809474.837 9  21687389.360    90074013.129 8

  22156924.440   118399874.851 9  22156925.000    92088797.607 7

  19111001.660   102087536.582 8  19111002.280    79401413.056 7

 20  3  7  0 20 30.0000000  0 17G10G12G14G20G21G24G25G26G31G32R04R05
                                R06R09R15R16R21
  20204508.020   106175403.955 9  20204508.740    82734083.92449  20204506.480
  79286823.112 9
  22319748.120   117291045.187 8  22319746.820    91395621.76647

  23210136.240   121970094.928 8  23210135.800    95041601.53746

  20702303.000   108791336.486 9  20702301.840    84772454.18948

  24110009.160   126698920.432 7  24110009.020    98726425.62945

  24587533.980   129208364.053 6  24587536.400   100681852.26746  24587536.680
  96486769.334 6
  20863894.840   109640500.731 9  20863896.580    85434151.07849  20863896.500
  81874402.696 9
  25386867.120   133408884.994 6  25386871.820   103954972.39744  25386870.260
  99623531.053 5
  22184530.460   116580495.356 8  22184529.860    90841908.34448

  21791608.440   114515678.070 9  21791609.060    89233009.34849  21791607.960
  85514938.728 9
  23597857.700   126365442.857 7  23597858.360    98284231.417 5

  20370438.140   108891670.007 9  20370438.960    84693540.597 8

  20917929.960   111622104.744 7

  21667699.780   115704333.095 9  21667699.580    89992236.247 8

  22178510.180   118515224.305 9  22178511.240    92178513.825 7

  19114825.440   102107962.763 8  19114826.120    79417300.084 7

  24602282.600   131651778.675 7  24602284.200   102395841.050 1

 20  3  7  0 21  0.0000000  0 17G10G12G14G20G21G24G25G26G31G32R04R05
                                R06R09R15R16R21
  20202445.820   106164567.528 9  20202446.680    82725639.94649  20202444.300
  79278730.975 9
  22327611.360   117332368.179 9  22327610.440    91427821.48847

  23201830.820   121926450.477 8  23201830.500    95007592.88145

  20714554.520   108855718.103 9  20714553.200    84822621.66348

  24123988.820   126772384.214 7  24123988.640    98783670.03344

  24605340.500   129301936.718 7  24605342.820   100754766.01345  24605342.800
  96556644.968 6
  20860080.560   109620456.982 9  20860082.360    85418532.57349  20860082.340
  81859434.974 9
  25366111.840   133299815.288 6  25366116.060   103869982.85544  25366114.680
  99542082.884 6
  22172975.580   116519773.908 9  22172974.700    90794592.93949

  21784759.980   114479689.365 9  21784760.660    89204966.20549  21784759.520
  85488064.055 9
  23612394.420   126443284.988 7  23612395.220    98344775.193 6

  20372552.140   108902970.089 9  20372552.880    84702329.525 8

  20902757.060   111541139.365 7

  21648085.740   115599596.489 9  21648085.800    89910774.464 8

  22200137.520   118630793.865 9  22200138.680    92268401.224 7

  19118787.820   102129129.917 8  19118788.740    79433763.427 7

  24614803.680   131718770.060 7  24614804.320   102447940.651 4

 20  3  7  0 21 30.0000000  0 17G10G12G14G20G21G24G25G26G31G32R04R05
                                R06R09R15R16R21
  20200489.380   106154286.632 9  20200490.360    82717628.85449  20200487.940
  79271053.675 9
  22335581.860   117374254.929 8  22335581.120    91460460.50247

  23193515.640   121882753.698 8  23193515.260    94973543.47846

  20726894.340   108920563.701 9  20726892.880    84873150.68648

  24137946.660   126845733.171 7  24137946.780    98840824.97044

  24623130.000   129395419.955 6  24623131.860   100827610.05045  24623131.700
  96626453.816 7
  20856380.380   109601012.752 9  20856382.220    85403381.23349  20856382.260
  81844914.955 9
  25345336.660   133190640.334 6  25345341.320   103784911.52645  25345339.300
  99460556.213 6
  22161491.040   116459422.137 9  22161490.240    90747565.58448

  21777914.220   114443715.047 9  21777914.840    89176934.28049  21777913.700
  85461200.114 9
  23626994.020   126521464.771 8  23626994.780    98405581.587 5

  20374752.340   108914731.582 9  20374753.040    84711477.340 8

  20887608.620   111460304.328 8

  21628548.860   115495272.277 9  21628549.280    89829633.426 7

  22221806.100   118746584.058 9  22221807.340    92358460.230 7

  19122889.320   102151039.514 8  19122890.240    79450804.227 7

  24627342.200   131785885.961 7  24627343.920   102500128.760 4

 20  3  7  0 22  0.0000000  0 17G10G12G14G20G21G24G25G26G31G32R04R05
                                R06R09R15R16R21
  20198638.140   106144558.516 9  20198639.240    82710048.50649  20198636.800
  79263789.176 9
  22343659.100   117416700.348 9  22343658.080    91493534.87047

  23185189.800   121839000.249 8  23185189.200    94939449.87546

  20739321.300   108985867.481 9  20739319.780    84924036.74148

  24151881.600   126918961.305 7  24151881.500    98897885.75144

  24640901.100   129488808.719 6  24640903.220   100900380.49045  24640903.080
  96696192.142 7
  20852793.780   109582165.389 9  20852795.680    85388694.97749  20852795.820
  81830840.610 9
  25324541.000   133081358.508 5  25324545.520   103699756.87344  25324543.260
  99378949.610 5
  22150076.220   116399436.249 9  22150075.380    90700823.33749

  21771070.720   114407751.739 9  21771071.120    89148910.92549  21771069.940
  85434344.407 9
  23641655.620   126599977.353 8  23641656.620    98466646.831 5

  20377038.600   108926952.244 9  20377039.260    84720982.287 8

  20872484.300   111379597.928 7

  21609088.980   115391359.745 9  21609089.780    89748812.589 8

  22243514.360   118862586.592 9  22243515.820    92448684.406 7

  19127128.700   102173685.844 8  19127129.520    79468418.037 7

  24639904.360

 20  3  7  0 22 30.0000000  0 17G10G12G14G20G21G24G25G26G31G32R04R05
                                R06R09R15R16R21
  20196893.120   106135388.339 9  20196894.260    82702902.90849  20196891.840
  79256941.305 9
  22351842.960   117459707.179 8  22351841.820    91527046.69547

  23176853.960   121795194.365 8  23176853.280    94905315.43746

  20751836.000   109051632.126 9  20751834.360    84975281.89748

  24165793.900   126992070.402 7  24165793.720    98954853.80244

  24658654.960   129582105.831 6  24658656.760   100973079.46245  24658656.880
  96765862.002 6
  20849321.780   109563920.068 9  20849323.820    85374477.85949  20849323.880
  81817215.879 9
  25303726.180   132971975.928 5  25303730.640   103614523.64044  25303728.540
  99297267.838 6
  22138731.800   116339820.518 9  22138730.700    90654369.53349

  21764230.060   114371804.054 9  21764230.420    89120899.74649  21764229.480
  85407500.361 9
  23656379.760   126678826.243 8  23656381.100    98527973.630 6

  20379411.960   108939637.997 9  20379412.560    84730848.976 8

  20857385.540   111299028.025 8

  21589707.620   115287865.725 9  21589708.680    89668317.255 8

  22265262.220   118978801.668 8  22265263.860    92539073.876 7

  19131506.400   102197070.507 8  19131507.320    79486606.115 7

  24652477.160   131920403.08114  24652478.180   102604753.436 5

 20  3  7  0 23  0.0000000  0 17G10G12G14G20G21G24G25G26G31G32R04R05
                                R06R09R15R16R21
  20195254.060   106126775.113 9  20195255.300    82696191.29349  20195252.820
  79250509.335 9
  22360133.180   117503272.411 9  22360132.300    91560993.61747

  23168507.760   121751333.622 8  23168506.880    94871138.25345

  20764437.620   109117853.640 9  20764435.860    85026883.06048

  24179682.600   127065055.997 7  24179682.440    99011725.58244

  24676390.460   129675307.529 6  24676392.520   101045704.11945  24676392.800
  96835460.612 6
  20845964.260   109546275.990 9  20845966.200    85360729.23349  20845966.280
  81804040.102 9
  25282892.280   132862492.894 6  25282896.420   103529212.30643  25282894.960
  99215511.089 6
  22127457.560   116280573.175 9  22127456.140    90608202.78249

  21757392.080   114335870.508 9  21757392.520    89092899.58249  21757391.580
  85380666.858 9
  23671166.640   126758008.706 7  23671167.860    98589559.893 5

  20381872.260   108952788.411 9  20381872.660    84741077.055 8

  20842312.320   111218595.433 8

  21570405.100   115184790.988 9  21570406.240    89588148.039 8

  22287048.860   119095223.158 9  22287050.720    92629623.888 7

  19136021.540   102221189.486 8  19136022.420    79505365.309 7

  24665068.780   131987771.851 6  24665072.520   102657165.937 4

 20  3  7  0 23 30.0000000  0 17G10G12G14G20G21G24G25G26G31G32R04R05
                                R06R09R15R16R21
  20193721.020   106118718.902 9  20193722.180    82689913.71549  20193719.800
  79244493.325 9
  22368529.280   117547393.828 8  22368528.200    91595373.94047

  23160150.740   121707416.817 8  23160149.680    94836917.37446

  20777125.420   109184528.820 9  20777123.740    85078837.73648

  24193547.300   127137915.022 7  24193547.140    99068498.75746

  24694107.340   129768412.128 6  24694109.760   101118253.11645  24694109.960
  96904986.736 6
  20842721.120   109529233.295 9  20842723.020    85347449.22749  20842723.200
  81791313.434 9
  25262039.360   132752910.659 7  25262043.200   103443823.51945  25262042.020
  99133680.110 5
  22116253.120   116221693.145 9  22116251.660    90562322.25049

  21750556.580   114299950.666 9  21750557.340    89064910.08749  21750556.140
  85353843.608 9
  23686015.600   126837522.829 8  23686016.580    98651404.095 5

  20384419.440   108966404.535 9  20384419.840    84751667.371 8

  20827265.420   111138302.174 8

  21551181.480   115082137.694 9  21551182.540    89508306.606 8

  22308873.200   119211845.993 9  22308874.960    92720330.521 7

  19140673.600   102246039.251 8  19140674.280    79524692.909 7

  24677679.260   132055251.463 5  24677679.300   102709642.270

 20  3  7  0 24  0.0000000  0 17G10G12G14G20G21G24G25G26G31G32R04R05
                                R06R09R15R16R21
  20192294.520   106111222.512 9  20192295.660    82684072.36749  20192293.160
  79238895.360 9
  22377031.020   117592071.588 8  22377030.200    91630187.76847

  23151783.260   121663444.985 8  23151782.120    94802653.62946

  20789899.560   109251658.049 9  20789898.060    85131146.20448

  24207387.700   127210646.707 6  24207387.560    99125172.72745

  24711806.360   129861420.294 6  24711808.720   101190727.00145  24711808.660
  96974440.837 7
  20839593.140   109512794.890 9  20839594.860    85334640.08049  20839595.100
  81779038.004 9
  25241168.480   132643233.268 7  25241172.400   103358360.64244  25241171.400
  99051778.186 6
  22105118.980   116163182.677 9  22105117.540    90516729.69649

  21743724.020   114264046.914 9  21743725.240    89036933.14549  21743723.760
  85327032.362 9
  23700926.780   126917369.670 8  23700926.940    98713507.074 5

  20387054.240   108980489.666 9  20387054.700    84762622.471 8

  20812245.740   111058153.568 8

  21532037.520   114979910.494 9  21532038.480    89428796.582 8

  22330735.000   119328667.974 9  22330736.480    92811192.045 7

  19145462.440   102271619.325 8  19145462.940    79544588.521 7

  24690306.980   132122817.310 8  24690309.160   102762187.820 6

 20  3  7  0 24 30.0000000  0 17G10G12G14G20G21G24G25G26G31G32R04R05
                                R06R09R15R16R21
  20190974.600   106104286.740 9  20190975.860    82678667.86549  20190973.280
  79233716.044 9
  22385638.780   117637304.416 9  22385637.520    91665434.13047

  23143405.220   121619418.051 8  23143403.900    94768346.93546

  20802759.660   109319238.636 9  20802758.240    85183806.37848

  24221203.440   127283248.774 7  24221203.340    99181745.64644

  24729486.520   129954329.999 6  24729489.240   101263124.13745  24729489.040
  97043821.433 6
  20836580.320   109496961.655 9  20836581.780    85322302.50749  20836582.160
  81767214.498 9
  25220279.820   132533462.803 7  25220283.480   103272825.15144  25220283.020
  98969806.778 6
  22094055.220   116105041.797 9  22094053.700    90471425.13149

  21736894.800   114228159.617 9  21736896.140    89008969.02049  21736894.700
  85300233.427 9
  23715899.860   126997548.096 8  23715900.040    98775867.999 5

  20389776.940   108995045.244 9  20389777.500    84773943.456 8

  20797253.520   110978151.956 8

  21512973.820   114878111.768 9  21512974.860    89349619.818 8

  22352632.920   119445684.949 8  22352634.720    92902205.199 7

  19150387.500   102297927.278 8  19150387.780    79565050.258 7

  24702947.960   132190458.248 7  24702950.100   102814803.067 4

 20  3  7  0 25  0.0000000  0 17G10G12G14G20G21G24G25G26G31G32R04R05
                                R06R09R15R16R21
  20189761.060   106097909.618 9  20189762.280    82673698.66949  20189759.820
  79228953.894 9
  22394351.260   117683088.172 8  22394350.020    91701109.78147

  23135016.100   121575333.243 8  23135014.880    94733995.15146

  20815704.880   109387266.121 9  20815703.440    85236814.78848

  24234993.680   127355716.623 7  24234993.500    99238213.98844

  24747147.480   130047137.186 6  24747149.640   101335441.37646  24747149.900
  97113125.405 7
  20833682.220   109481731.663 9  20833683.580    85310434.98949  20833683.880
  81755841.466 9
  25199372.980   132423598.320 6  25199377.000   103187216.49545  25199376.300
  98887765.105 6
  22083061.180   116047267.525 9  22083059.520    90426406.23849

  21730068.380   114192286.412 9  21730069.620    88981015.87549  21730068.260
  85273444.988 9
  23730933.720   127078054.390 8  23730934.340    98838483.890 5

  20392587.520   109010070.017 9  20392588.220    84785629.374 8

  20782288.840   110898298.010 8

  21493990.260   114776741.388 9  21493991.320    89270776.212 8

  22374566.200   119562889.822 9  22374567.800    92993364.511 6

  19155447.780   102324957.579 8  19155447.900    79586073.819 7

  24715602.720   132258178.327 4

 20  3  7  0 25 30.0000000  0 16G10G12G14G20G21G24G25G26G31G32R04R05
                                R06R09R15R16
  20188655.060   106092097.223 9  20188656.260    82669169.53049  20188653.700
  79224613.471 9
  22403169.340   117729426.865 9  22403167.880    91737217.85847

  23126617.000   121531195.630 8  23126615.740    94699602.22346

  20828735.880   109455743.763 9  20828734.400    85290173.96748

  24248758.800   127428052.751 7  24248758.900    99294579.71345

  24764789.400   130139846.280 6  24764791.680   101407682.15945  24764791.980
  97182356.228 7
  20830900.040   109467111.153 9  20830901.380    85299042.38649  20830901.640
  81744923.557 9
  25178449.800   132313647.313 7  25178454.180   103101540.41245  25178453.580
  98805658.914 6
  22072137.920   115989865.380 9  22072136.260    90381677.32249

  21723245.640   114156433.094 9  21723247.060    88953078.23949  21723245.620
  85246671.411 9
  23746029.840   127158892.867 8  23746030.740    98901358.158 5

  20395487.120   109025570.776 9  20395488.020    84797685.503 8

  20767353.580   110818600.131 8

  21475088.840   114675807.632 9  21475089.580    89192272.196 8

  22396535.160   119680283.918 8  22396536.500    93084671.020 6

  19160643.780   102352713.224 8  19160643.700    79607661.553 7

 20  3  7  0 26  0.0000000  0 16G10G12G14G20G21G24G25G26G31G32R04R05
                                R06R09R15R16
  20187655.880   106086846.232 9  20187657.060    82665077.83649  20187654.460
  79220692.260 9
  22412091.800   117776314.467 8  22412090.200    91773753.65647

  23118207.020   121487000.099 8  23118205.800    94665164.14246

  20841851.300   109524665.295 9  20841849.840    85343879.04148

  24262497.600   127500250.506 7  24262497.940    99350837.58944

  24782411.580   130232451.566 6  24782413.960   101479842.09646  24782414.100
  97251509.452 6
  20828233.140   109453096.773 9  20828234.520    85288122.09549  20828234.740
  81734458.276 9
  25157510.060   132203607.929 7  25157514.220   103015795.43645  25157513.580
  98723486.560 6
  22061284.480   115932830.790 9  22061283.020    90337234.79149

  21716426.180   114120595.956 9  21716427.400    88925153.20149  21716426.140
  85219909.912 9
  23761186.940   127240058.085 7  23761187.840    98964486.567 5

  20398475.300   109041544.760 9  20398476.200    84810109.708 8

  20752447.220   110739056.562 8

  21456268.820   114575308.806 9  21456269.540    89114106.461 8

  22418537.880   119797858.880 9  22418539.040    93176118.177 7

  19165974.200   102381187.200 8  19165974.080    79629807.989 7

 20  3  7  0 26 30.0000000  0 16G10G12G14G20G21G24G25G26G31G32R04R05
                                R06R09R15R16
  20186764.600   106082162.072 9  20186765.680    82661427.83549  20186763.160
  79217194.341 9
  22421119.300   117823754.150 9  22421117.780    91810719.63447

  23109786.720   121442751.087 8  23109785.540    94630684.39746

  20855051.600   109594033.174 9  20855050.120    85397931.91548

  24276210.620   127572312.610 7  24276211.220    99406989.77645

  24800014.640   130324955.811 6  24800017.160   101551923.26846  24800016.740
  97320587.224 6
  20825682.680   109439694.096 9  20825684.080    85277678.45449  20825684.280
  81724449.790 9
  25136554.460   132093486.864 6  25136559.260   102929986.78545  25136558.480
  98641253.327 6
  22050501.960   115876168.528 9  22050500.660    90293082.40349

  21709610.820   114084780.176 9  21709611.860    88897244.80049  21709610.540
  85193164.361 9
  23776405.680   127321554.044 7  23776406.740    99027872.215 5

  20401553.300   109057998.468 9  20401554.340    84822907.033 8

  20737571.520   110659675.666 8

  21437531.520   114475252.343 9  21437532.180    89036284.799 8

  22440574.460   119915615.270 9  22440575.620    93267706.447 7

  19171439.380   102410381.681 8  19171439.380    79652514.812 7

 20  3  7  0 27  0.0000000  0 16G10G12G14G20G21G24G25G26G31G32R04R05
                                R06R09R15R16
  20185980.400   106078041.223 9  20185981.500    82658216.76949  20185979.000
  79214117.066 9
  22430250.900   117871740.301 8  22430249.340    91848111.42247

  23101355.340   121398444.230 8  23101354.280    94596159.58346

  20868335.580   109663841.099 9  20868334.080    85452327.67248

  24289896.580   127644232.298 7  24289897.020    99463030.98645

  24817597.380   130417354.148 6  24817600.160   101623921.93045  24817599.760
  97389585.924 6
  20823247.940   109426899.640 9  20823249.480    85267708.74849  20823249.600
  81714895.494 9
  25115583.020   131983281.909 6  25115588.020   102844112.81545  25115586.920
  98558957.494 6
  22039789.500   115819874.452 8  22039788.200    90249216.90248

  21702798.620   114048982.009 9  21702799.640    88869350.11749  21702798.120
  85166431.947 9
  23791685.040   127403375.250 7  23791686.440    99091510.807 5

  20404720.580   109074928.855 9  20404721.620    84836075.091 8

  20722725.720   110580455.891 8

  21418876.720   114375636.568 9  21418877.180    88958805.883 8

  22462643.560   120033544.468 9  22462644.620    93359429.130 6

  19177038.040   102440289.650 8  19177038.280    79675776.561 7

 20  3  7  0 27 30.0000000  0 16G10G12G14G20G21G24G25G26G31G32R04R05
                                R06R09R15R16
  20185303.900   106074486.648 9  20185305.060    82655446.97149  20185302.560
  79211462.676 9
  22439486.500   117920273.594 8  22439484.860    91885929.57847

  23092913.320   121354081.567 8  23092912.060    94561591.28546

  20881703.280   109734089.334 9  20881701.900    85507066.53848

  24303555.560   127716009.755 7  24303555.960    99518961.36845

  24835160.180   130509647.191 6  24835162.740   101695838.53945  24835162.580
  97458505.998 6
  20820929.460   109414716.437 9  20820931.200    85258215.34549  20820931.160
  81705797.654 9
  25094596.860   131872997.712 7  25094602.480   102758177.14645  25094600.560
  98476602.392 6
  22029147.460   115763950.919 9  22029146.360    90205640.13149

  21695990.400   114013204.191 9  21695991.420    88841471.30249  21695989.800
  85139714.751 9
  23807025.500   127485522.773 8  23807026.760    99155403.223 6

  20407977.860   109092339.606 9  20407978.560    84849616.777 8

  20707911.060   110501402.424 8

  21400305.400   114276466.414 9  21400305.860    88881673.572 8

  22484744.500   120151644.945 8  22484745.560    93451285.033 7

  19182770.260   102470910.744 8  19182770.600    79699592.968 7

 20  3  7  0 28  0.0000000  0 16G10G12G14G20G21G24G25G26G31G32R04R05
                                R06R09R15R16
  20184735.400   106071499.124 9  20184736.480    82653119.02249  20184734.060
  79209231.722 9
  22448825.720   117969352.251 8  22448824.280    91924172.67847

  23084460.660   121309662.923 8  23084459.400    94526979.34046

  20895154.360   109804775.546 9  20895153.120    85562146.69148

  24317187.020   127787642.529 7  24317187.180    99574779.02545

  24852702.880   130601834.360 6  24852705.340   101767672.67645  24852705.200
  97527347.017 6
  20818727.620   109403145.261 9  20818729.300    85249198.85049  20818729.220
  81697156.856 9
  25073595.960   131762636.383 6  25073601.260   102672181.24545  25073599.420
  98394189.678 6
  22018575.940   115708397.648 9  22018574.960    90162351.88049

  21689186.120   113977447.319 9  21689187.040    88813608.80049  21689185.700
  85113013.182 9
  23822426.440   127567995.639 8  23822428.200    99219548.652 5

  20411325.160   109110232.266 9  20411325.700    84863533.274 8

  20693128.320   110422518.696 8

  21381818.020   114177744.518 9  21381818.240    88804889.900 8

  22506876.340   120269912.578 8  22506877.560    93543270.935 6

  19188635.340   102502242.164 8  19188636.040    79723961.846 7

 20  3  7  0 28 30.0000000  0 16G10G12G14G20G21G24G25G26G31G32R04R05
                                R06R09R15R16
  20184274.760   106069078.662 9  20184275.920    82651232.94049  20184273.420
  79207424.225 9
  22458268.520   118018974.085 8  22458267.120    91962839.03347

  23075997.260   121265187.193 7  23075996.080    94492322.93546

  20908688.320   109875897.094 9  20908687.160    85617566.06048

  24330790.280   127859127.535 6  24330790.460    99630481.53845

  24870224.940   130693912.847 6  24870227.220   101839422.11445  24870227.500
  97596106.867 7
  20816642.180   109392186.258 9  20816643.940    85240659.37349  20816643.760
  81688973.189 9
  25052580.180   131652199.414 5  25052585.780   102586126.49844  25052584.000
  98311720.570 6
  22008074.600   115653213.669 8  22008073.900    90119351.38148

  21682385.860   113941711.312 9  21682386.700    88785762.55049  21682385.500
  85086327.209 9
  23837888.140   127650792.284 7  23837889.780    99283945.966 5

  20414762.680   109128607.510 9  20414763.240    84877825.110 8

  20678377.800   110343807.450 8

  21363415.000   114079473.052 9  21363415.240    88728456.573 8

  22529038.880   120388342.771 8  22529040.180    93635383.274 6

  19194632.940   102534280.656 8  19194633.880    79748880.675 7

 20  3  7  0 29  0.0000000  0 16G10G12G14G20G21G24G25G26G31G32R04R05
                                R06R09R15R16
  20183922.620   106067227.981 9  20183923.840    82649790.84449  20183921.220
  79206042.207 9
  22467814.600   118069139.557 8  22467813.340    92001928.99047

  23067523.060   121220656.098 8  23067522.040    94457623.38946

  20922305.260   109947453.997 9  20922304.020    85673324.67248

  24344365.440   127930464.768 6  24344365.620    99686068.88645

  24887726.500   130785883.971 6  24887729.000   101911087.84945  24887729.140
  97664786.563 6
  20814673.780   109381842.123 9  20814675.540    85232599.00449  20814675.380
  81681248.669 9
  25031551.080   131541691.179 7  25031556.700   102500016.21844  25031555.000
  98229198.190 6
  21997643.900   115598401.090 8  21997643.320    90076640.28549

  21675590.080   113905998.743 9  21675591.040    88757934.56849  21675589.580
  85059658.722 9
  23853410.440   127733913.487 7  23853412.040    99348595.689 5

  20418290.980   109147468.985 9  20418291.700    84892495.138 8

  20663660.460   110265273.328 8

  21345097.040   113981656.149 9  21345097.280    88652376.779 8

  22551231.620   120506933.521 9  22551232.720    93727620.503 7

  19200762.900   102567025.653 8  19200763.800    79774349.004 7

 20  3  7  0 29 30.0000000  0 16G10G12G14G20G21G24G25G26G31G32R04R05
                                R06R09R15R16
  20183679.160   106065948.411 9  20183680.340    82648793.77349  20183677.680
  79205086.686 9
  22477464.200   118119848.148 9  22477462.720    92041442.17147

  23059038.420   121176070.268 8  23059037.700    94422881.18246

  20936004.780   110019444.654 9  20936003.400    85729421.27447

  24357912.000   128001652.810 7  24357912.360    99741539.96044

  24905207.300   130877746.810 6  24905209.940   101982669.25645  24905210.140
  97733385.391 6
  20812822.700   109372114.227 9  20812824.380    85225018.84249  20812824.240
  81673984.348 9
  25010509.240   131431114.580 7  25010514.520   102413852.66344  25010512.600
  98146624.738 6
  21987284.160   115543960.528 9  21987283.540    90034219.08449

  21668798.780   113870310.874 9  21668800.020    88730125.84849  21668798.180
  85033008.693 9
  23868993.240   127817358.958 7  23868994.860    99413497.634 5

  20421910.780   109166818.613 9  20421911.440    84907544.823 8

  20648976.960   110186920.170 8

  21326864.880   113884297.467 9  21326865.020    88576653.388 8

  22573453.880   120625681.520 8  22573454.920    93819980.017 7

  19207024.580   102600474.741 8  19207025.540    79800364.953 7

 20  3  7  0 30  0.0000000  0 16G10G12G14G20G21G24G25G26G31G32R04R05
                                R06R09R15R16
  20183543.460   106065235.547 9  20183544.660    82648238.28449  20183542.060
  79204554.347 9
  22487215.780   118171092.453 8  22487214.060    92081372.80647

  23050542.860   121131424.485 8  23050541.700    94388092.26446

  20949785.360   110091862.052 9  20949783.960    85785850.38848

  24371429.100   128072684.342 7  24371429.620    99796889.06645

  24922666.780   130969495.446 6  24922669.420   102054161.63645  24922669.420
  97801898.885 7
  20811087.920   109362998.270 9  20811089.660    85217915.48849  20811089.580
  81667176.976 9
  24989453.540   131320466.724 5  24989458.720   102327633.53045  24989456.900
  98063998.112 6
  21976994.460   115489886.843 9  21976993.660    89992083.76049

  21662011.460   113834643.312 9  21662012.720    88702332.93649  21662010.800
  85006373.815 9
  23884635.740   127901122.384 7  23884637.060    99478646.851 5

  20425621.180   109186652.509 9  20425621.840    84922971.170 8

  20634327.440   110108746.310 8

  21308718.080   113787394.441 9  21308717.960    88501284.393 8

  22595703.700   120744577.494 8  22595704.700    93912454.615 6

  19213416.860   102634620.277 8  19213417.780    79826922.589 7

 20  3  7  0 30 30.0000000  0 16G10G12G14G20G21G24G25G26G31G32R04R05
                                R06R09R15R16
  20183516.600   106065094.329 9  20183517.760    82648128.24249  20183515.300
  79204448.883 9
  22497069.660   118222875.397 9  22497068.200    92121723.14247

  23042036.600   121086722.678 8  23042035.240    94353259.69946

  20963647.340   110164708.220 9  20963646.100    85842613.62648

  24384916.720   128143561.417 7  24384917.060    99852117.86044

  24940104.740   131061132.615 6  24940107.260   102125567.16545  24940107.580
  97870329.190 6
  20809470.560   109354499.138 9  20809472.360    85211292.79849  20809472.200
  81660830.237 9
  24968385.420   131209754.249 6  24968390.500   102241364.11446  24968388.720
  97981323.271 6
  21966775.360   115436184.454 9  21966774.400    89950237.75449

  21655229.020   113799000.952 9  21655230.160    88674559.66249  21655228.440
  84979757.763 9
  23900338.280   127985206.877 8  23900339.520    99544045.795 4

  20429423.160   109206976.544 9  20429424.080    84938778.751 8

  20619712.700   110030759.356 8

  21290657.800   113690954.083 9  21290657.820    88426275.254 8

  22617981.280   120863622.021 8  22617982.120    94005044.784 6

  19219939.720   102669463.287 8  19219940.360    79854022.707 7

 20  3  7  0 31  0.0000000  0 17G10G12G14G20G21G24G25G26G29G31G32R04
                                R05R06R09R15R16
  20183598.800   106065526.004 9  20183599.820    82648464.60349  20183597.560
  79204771.228 9
  22507025.960   118275196.093 8  22507024.560    92162492.50847

  23033519.620   121041965.323 8  23033518.280    94318383.84646

  20977590.660   110237981.432 9  20977589.520    85899709.62048

  24398374.360   128214282.402 7  24398374.860    99907225.00745

  24957521.660   131152658.683 6  24957524.480   102196886.16445  24957524.540
  97938676.537 6
  20807970.860   109346618.174 9  20807972.640    85205151.79249  20807972.480
  81654945.106 9
  24947305.880   131098980.017 7  24947310.660   102155046.57945  24947309.100
  97898602.267 6
  25652305.940   134803771.078 6  25652307.820   105041914.87644

  21956627.080   115382853.529 9  21956625.700    89908681.21049

  21648451.580   113763385.120 9  21648452.580    88646807.06249  21648451.120
  84953161.519 9
  23916100.560   128069612.260 8  23916101.500    99609694.303 5

  20433317.280   109227792.922 9  20433318.200    84954969.255 8

  20605133.420   109952962.983 8

  21272684.680   113594979.351 9  21272684.980    88351628.259 8

  22640285.980   120982811.668 8  22640286.440    94097747.826 6

  19226592.720   102705002.037 8  19226593.160    79881663.953 7

 20  3  7  0 31 30.0000000  0 17G10G12G14G20G21G24G25G26G29G31G32R04
                                R05R06R09R15R16
  20183789.880   106066530.511 9  20183790.880    82649247.32949  20183788.760
  79205521.340 9
  22517084.080   118328052.107 8  22517082.280    92203679.01047

  23024991.760   120997151.894 8  23024990.860    94283464.30846

  20991614.880   110311679.105 9  20991613.740    85957136.35748

  24411802.020   128284844.880 7  24411802.660    99962208.65545

  24974916.920   131244071.189 6  24974919.440   102268116.60945  24974919.920
  98006939.054 6
  20806588.660   109339355.279 9  20806590.520    85199492.39549  20806590.400
  81649521.521 9
  24926214.940   130988145.691 6  24926219.540   102068682.14346  24926217.880
  97815836.403 6
  25643730.680   134758708.862 7  25643731.760   105006801.46245

  21946549.460   115329893.536 9  21946547.660    89867413.70049

  21641679.160   113727795.818 9  21641680.060    88619075.13649  21641678.760
  84926585.086 9
  23931922.540   128154336.641 8  23931923.200    99675590.925 5

  20437303.680   109249102.151 9  20437304.640    84971543.087 8

  20590590.740   109875359.941 8

  21254799.120   113499472.371 9  21254799.580    88277345.078 8

  22662617.300   121102141.842 9  22662617.480    94190560.156 6

  19233375.140   102741232.943 8  19233375.620    79909843.536 7

 20  3  7  0 32  0.0000000  0 17G10G12G14G20G21G24G25G26G29G31G32R04
                                R05R06R09R15R16
  20184089.600   106068105.803 9  20184090.620    82650474.82249  20184088.540
  79206697.682 9
  22527243.560   118381439.250 8  22527241.620    92245279.38747

  23016452.700   120952279.469 8  23016451.740    94248498.78646

  21005718.980   110385796.483 9  21005717.780    86014890.14548

  24425198.920   128355244.141 7  24425199.180   100017065.12444

  24992290.080   131335366.189 6  24992292.320   102339255.44544  24992293.060
  98075113.778 6
  20805323.780   109332708.492 9  20805325.600    85194313.08349  20805325.580
  81644558.010 9
  24905112.500   130877250.960 7  24905116.620   101982270.72044  24905115.300
  97733025.466 6
  25635114.600   134713434.270 5  25635116.280   104971522.59344

  21936541.460   115277301.325 9  21936539.660    89826432.76449

  21634911.460   113692231.110 9  21634912.400    88591362.39149  21634910.940
  84900027.023 9
  23947803.180   128239376.024 8  23947804.080    99741732.553 5

  20441382.080   109270903.015 9  20441382.840    84988499.290 8

  20576084.280   109797950.619 8

  21237001.140   113404432.725 9  21237001.780    88203425.384 8

  22684973.500   121221605.995 8  22684973.860    94283476.691 7

  19240286.160   102778150.267 8  19240286.600    79938557.021 7

 20  3  7  0 32 30.0000000  0 17G10G12G14G20G21G24G25G26G29G31G32R04
                                R05R06R09R15R16
  20184499.240   106070258.110 9  20184500.200    82652151.93549  20184498.180
  79208304.913 9
  22537504.300   118435361.358 9  22537502.660    92287296.57747

  23007903.760   120907353.716 8  23007902.640    94213491.72246

  21019903.520   110460336.799 9  21019902.300    86072973.47948

  24438565.400   128425483.373 7  24438565.280   100071796.88944

  25009641.380   131426548.386 5  25009643.740   102410306.48944  25009644.320
  98143204.350 6
  20804177.320   109326683.986 9  20804179.160    85189618.66249  20804179.120
  81640059.196 9
  24884000.180   130766303.906 6  24884004.280   101895818.48845  24884002.800
  97650175.368 6
  25626459.980   134667955.553 7  25626461.060   104936072.59144

  21926604.420   115225082.976 9  21926602.800    89785743.14549

  21628149.760   113656697.374 9  21628150.500    88563673.76249  21628149.040
  84873492.094 9
  23963743.640   128324735.028 7  23963744.460    99808122.809 5

  20445553.640   109293202.410 9  20445554.400    85005843.253 8

  20561615.900   109720744.296 8

  21219292.240   113309869.159 9  21219293.120    88129875.971 8

  22707354.880   121341206.108 9  22707355.900    94376498.931 7

  19247326.200   102815756.774 8  19247326.680    79967806.516 7

 20  3  7  0 33  0.0000000  0 17G10G12G14G20G21G24G25G26G29G31G32R04
                                R05R06R09R15R16
  20185017.800   106072983.035 9  20185018.800    82654275.24349  20185016.700
  79210339.750 9
  22547865.780   118489811.802 9  22547864.020    92329725.49947

  22999343.500   120862369.425 8  22999342.260    94178439.03046

  21034167.360   110535293.245 9  21034166.080    86131381.08848

  24451899.880   128495555.813 7  24451899.580   100126398.59244

  25026970.360   131517611.955 6  25026972.380   102481265.09145  25026973.300
  98211206.314 6
  20803148.420   109321277.429 9  20803150.400    85185405.76349  20803150.280
  81636021.832 9
  24862877.120   130655301.715 7  24862880.820   101809323.29745  24862880.060
  97567284.220 6
  25617766.080   134622268.837 6  25617767.900   104900472.67244

  21916737.380   115173233.062 9  21916736.100    89745340.63649

  21621393.100   113621190.366 9  21621393.560    88536005.96349  21621392.240
  84846977.119 9
  23979742.280   128410407.787 7  23979743.580    99874757.100 5

  20449817.680   109315996.578 9  20449818.740    85023572.040 8

  20547185.180   109643739.057 8

  21201672.120   113215778.883 9  21201673.080    88056694.651 8

  22729760.140   121460933.214 8  22729761.380    94469619.994 6

  19254493.620   102854044.775 8  19254494.260    79997586.062 7

 20  3  7  0 33 30.0000000  0 17G10G12G14G20G21G24G25G26G29G31G32R04
                                R05R06R09R15R16
  20185645.920   106076283.429 9  20185646.880    82656846.96449  20185644.720
  79212804.316 9
  22558327.860   118544791.352 8  22558326.320    92372566.68047

  22990772.820   120817328.984 8  22990771.440    94143342.60146

  21048510.360   110610665.751 9  21048509.080    86190112.88448

  24465202.400   128565461.577 6  24465202.480   100180870.60945

  25044277.040   131608558.470 6  25044279.260   102552132.40645  25044279.580
  98279120.779 6
  20802237.700   109316491.668 9  20802239.620    85181676.60349  20802239.660
  81632448.036 9
  24841744.760   130544249.400 7  24841748.300   101722789.05844  24841747.680
  97484355.535 6
  25609033.680   134576379.061 7  25609035.020   104864714.36044

  21906941.060   115121754.033 8  21906939.900    89705227.12348

  21614642.140   113585713.180 9  21614642.540    88508361.39249  21614641.120
  84820484.411 9
  23995799.780   128496395.169 7  23995801.240    99941636.024 5

  20454175.040   109339289.228 9  20454175.960    85041688.533 8

  20532793.160   109566940.379 8

  21184141.660   113122166.761 9  21184142.460    87983885.240 8

  22752188.880   121580785.862 8  22752190.100    94562838.675 6

  19261788.540   102893013.473 8  19261789.160    80027895.053 7

 20  3  7  0 34  0.0000000  0 17G10G12G14G20G21G24G25G26G29G31G32R04
                                R05R06R09R15R16
  20186383.420   106080158.755 9  20186384.360    82659866.69449  20186382.200
  79215698.216 9
  22568890.260   118600296.984 9  22568888.700    92415817.81347

  22982191.040   120772231.360 8  22982189.660    94108201.59746

  21062931.780   110686450.996 9  21062930.680    86249166.31748

  24478472.600   128635197.606 7  24478473.100   100235210.19144

  25061560.800   131699385.465 6  25061563.040   102622906.61845  25061563.420
  98346946.062 5
  20801445.040   109312326.133 9  20801446.900    85178430.73949  20801446.980
  81629337.415 9
  24820602.840   130433148.057 6  24820606.480   101636216.59845  24820605.900
  97401390.280 6
  25600262.580   134530287.003 6  25600264.540   104828798.51544

  21897215.140   115070644.586 9  21897214.160    89665401.60449

  21607896.500   113550265.549 9  21607897.200    88480739.86549  21607895.940
  84794013.779 9
  24011915.760   128582694.838 7  24011917.260   100008757.879 5

  20458625.700   109363080.813 9  20458626.440    85060193.081 8

  20518440.080   109490350.872 8

  21166701.160   113029034.583 9  21166701.840    87911449.116 8

  22774640.180   121700759.163 8  22774641.580    94656151.205 6

  19269210.160   102932658.833 8  19269210.860    80058730.325 7

 20  3  7  0 34 30.0000000  0 17G10G12G14G20G21G24G25G26G29G31G32R04
                                R05R06R09R15R16
  20187230.760   106084611.906 9  20187231.800    82663336.67049  20187229.620
  79219023.611 9
  22579553.020   118656329.309 9  22579551.420    92459479.35347

  22973598.600   120727078.721 8  22973597.380    94073017.73946

  21077431.840   110762649.662 9  21077430.920    86308541.87448

  24491710.740   128704764.228 7  24491711.360   100289417.86744

  25078822.180   131790094.309 5  25078824.380   102693588.77944  25078825.000
  98414683.121 4
  20800771.060   109308783.774 9  20800772.840    85175670.45549  20800772.840
  81626692.151 9
  24799452.540   130322002.552 7  24799456.080   101549609.74144  24799455.640
  97318392.062 6
  25591453.380   134483997.078 6  25591456.580   104792728.55245

  21887559.840   115019906.735 8  21887559.120    89625865.61848

  21601156.900   113514850.638 9  21601157.940    88453143.82349  21601156.820
  84767567.589 9
  24028090.100   128669308.329 7  24028091.540   100076123.840 5

  20463170.420   109387374.741 9  20463171.040    85079088.341 8

  20504127.620   109413975.966 8

  21149351.360   112936387.155 9  21149352.040    87839390.028 8

  22797113.840   121820851.762 8  22797115.020    94749556.516 6

  19276758.460   102972980.360 8  19276759.180    80090091.509 7

 20  3  7  0 35  0.0000000  0 17G10G12G14G20G21G24G25G26G29G31G32R04
                                R05R06R09R15R16
  20188187.920   106089641.755 9  20188188.900    82667256.02349  20188186.680
  79222779.652 9
  22590315.380   118712885.207 9  22590314.060    92503548.87047

  22964995.480   120681869.724 8  22964994.480    94037789.96046

  21092009.920   110839257.506 9  21092008.960    86368236.28448

  24504915.860   128774158.043 6  24504916.660   100343490.86344

                                                                  25096063.040
  98482341.783 3
  20800215.380   109305863.362 9  20800217.080    85173394.81149  20800217.100
  81624511.333 9
  24778293.860   130210813.681 7  24778297.680   101462969.08945  24778297.080
  97235361.447 6
  25582607.460   134437510.177 7  25582609.900   104756504.87445

  21877975.120   114969538.923 9  21877974.520    89586617.98749

  21594423.600   113479467.656 9  21594424.840    88425572.66649  21594423.340
  84741145.205 9
  24044322.940   128756232.672 7  24044324.180   100143731.533 5

  20467808.960   109412170.689 9  20467809.620    85098374.073 8

  20489855.780   109337818.007 8

  21132092.380   112844224.846 9  21132092.980    87767708.253 8

  22819608.980   121941058.203 8  22819609.940    94843050.402 6

  19284432.520   103013973.293 8  19284433.100    80121974.905 7

 20  3  7  0 35 30.0000000  0 16G10G12G14G20G21G25G26G29G31G32R04R05
                                R06R09R15R16
  20189253.520   106095241.676 9  20189254.560    82671619.58749  20189252.220
  79226961.399 9
  22601175.600   118769955.783 9  22601174.300    92548019.44447

  22956380.260   120636597.144 8  22956379.300    94002512.63746

  21106664.140   110916265.355 9  21106663.080    86428242.38048

  24518086.400   128843369.795 6  24518087.280   100397422.03345

  20799776.620   109303558.338 9  20799778.460    85171598.69749  20799778.460
  81622790.061 9
  24757125.980   130099576.725 7  24757130.200   101376290.99144  24757129.260
  97152294.936 6
  25573726.180   134390839.403 7  25573729.200   104720141.90345

  21868459.440   114919533.558 9  21868458.820    89547652.78649

  21587695.160   113444110.317 9  21587696.500    88398021.50149  21587694.920
  84714741.991 9
  24060611.920   128843459.439 7  24060613.140   100211574.495 5

  20472540.260   109437462.670 9  20472541.100    85118045.602 8

  20475623.580   109261872.362 8

  21114923.400   112752543.355 9  21114923.980    87696400.450 8

  22842123.340   122061367.374 8  22842124.120    94936624.164 6

  19292230.360   103055627.421 8  19292230.780    80154372.556 7

 20  3  7  0 36  0.0000000  0 16G10G12G14G20G21G25G26G29G31G32R04R05
                                R06R09R15R16
  20190431.640   106101432.415 9  20190432.700    82676443.53649  20190430.300
  79231584.354 9
  22612137.100   118827559.380 8  22612135.800    92592905.36447

  22947756.800   120591281.239 8  22947756.020    93967201.55646

  21121397.840   110993691.201 9  21121396.660    86488574.19748

  24531225.760   128912418.113 6  24531226.700   100451225.72544

  20799459.120   109301889.365 9  20799460.860    85170298.20749  20799460.780
  81621543.752 9
  24735953.340   129988314.408 7  24735957.780   101289593.13045  24735956.660
  97069209.476 6
  25564800.860   134343926.485 6  25564807.860   104683620.78145

  21859016.800   114869911.490 9  21859016.040    89508986.25249

  21580975.960   113408799.708 9  21580977.100    88370506.73049  21580975.720
  84688373.699 9
  24076961.220   128931008.170 7  24076962.520   100279667.878 5

  20477368.500   109463272.511 9  20477369.660    85138119.925 8

  20461435.720   109186163.551 7

  21097848.680   112661365.565 9  21097849.420    87625484.405 8

  22864660.220   122181796.623 8  22864660.920    95030291.308 6

  19300155.220   103097960.445 8  19300155.500    80187298.246 7

 20  3  7  0 36 30.0000000  0 16G10G12G14G20G21G25G26G29G31G32R04R05
                                R06R09R15R16
  20191717.920   106108191.700 9  20191718.960    82681710.49449  20191716.620
  79236631.846 9
  22623195.560   118885671.835 9  22623194.280    92638187.78047

  22939121.140   120545899.547 8  22939120.200    93931839.19247

  21136206.340   111071510.301 9  21136205.060    86549212.43548

  24544329.700   128981278.198 7  24544330.400   100504882.86644

  20799258.460   109300834.251 9  20799260.100    85169476.03849  20799260.040
  81620755.836 9
  24714772.180   129877006.595 7  24714776.880   101202859.80244  24714775.340
  96986090.045 6
  25555845.960   134296857.763 7  25555850.840   104646943.85544

  21849642.840   114820649.324 9  21849641.800    89470600.16149

  21574261.540   113373514.154 9  21574262.640    88343011.50849  21574261.180
  84662024.098 9
  24093365.880   129018854.513 7  24093367.240   100347992.697 5

  20482289.560   109489578.549 9  20482290.780    85158580.173 8

  20447288.680   109110672.221 8

  21080864.360   112570670.954 9  21080865.200    87554944.173 8

  22887214.520   122302319.034 8  22887215.120    95124030.925 6

  19308202.360   103140946.259 8  19308202.560    80220731.663 7

 20  3  7  0 37  0.0000000  0 16G10G12G14G20G21G25G26G29G31G32R04R05
                                R06R09R15R16
  20193114.560   106115531.211 9  20193115.700    82687429.58149  20193113.300
  79242112.634 9
  22634352.540   118944302.005 8  22634351.320    92683873.61547

  22930475.160   120500463.262 8  22930473.940    93896434.28146

  21151091.440   111149731.594 9  21151090.100    86610164.06948

  24557399.420   129049959.283 5  24557400.220   100558400.50945

  20799176.700   109300404.599 9  20799178.340    85169141.25349  20799178.280
  81620435.002 9
  24693584.920   129765666.939 6  24693589.940   101116101.66445  24693587.900
  96902946.845 6
  25546854.140   134249602.508 7  25546856.680   104610121.49644

  21840339.320   114771758.222 9  21840338.040    89432503.20849

  21567554.220   113338265.699 9  21567555.180    88315545.16749  21567553.620
  84635702.191 9
  24109828.080   129107008.571 7  24109829.740   100416556.905 5

  20487305.700   109516393.095 9  20487307.100    85179435.911 8

  20433185.300   109035412.597 8

  21063973.300   112480473.662 9  21063974.060    87484790.742 8

  22909787.560   122422942.117 8  22909788.220    95217848.840 6

  19316373.120   103184592.880 8  19316373.460    80254679.033 7

 20  3  7  0 37 30.0000000  0 18G10G12G14G20G21G25G26G29G31G32R04R05
                                R06R07R09R10R15R16
  20194621.080   106123448.436 9  20194622.440    82693598.84249  20194619.900
  79248024.840 9
  22645607.120   119003445.469 9  22645605.880    92729959.41947

  22921818.140   120454969.634 8  22921816.740    93860984.70146

  21166052.100   111228349.904 9  21166050.700    86671425.06748

  24570434.280   129118456.327 7  24570435.140   100611774.65744

  20799213.480   109300597.887 9  20799215.120    85169291.86549  20799214.940
  81620579.346 9
  24672391.640   129654295.123 7  24672396.600   101029318.47945  24672394.480
  96819779.654 6
  25537826.020   134202159.662 6  25537828.840   104573153.05945

  21831105.820   114723235.271 9  21831104.400    89394693.13149

  21560853.280   113303052.392 9  21560854.160    88288106.23149  21560852.740
  84609406.540 9
  24126346.820   129195466.488 8  24126349.140   100485357.391 5

  20492416.880   109543715.071 9  20492418.200    85200686.332 8

  20419125.160   108960385.484 8

  24152999.100   129292889.937 5

  21047175.080   112390772.948 9  21047175.740    87415023.545 8

  24673117.680   131521609.922 6

  22932378.080   122543659.253 8  22932378.920    95311739.902 6

  19324666.300   103228894.297 8  19324666.800    80289135.696 7

 20  3  7  0 38  0.0000000  0 18G10G12G14G20G21G25G26G29G31G32R04R05
                                R06R07R09R10R15R16
  20196238.500   106131948.207 9  20196239.880    82700222.02549  20196237.360
  79254372.057 9
  22656960.000   119063104.975 9  22656958.660    92776447.34547

  22913151.000   120409423.159 8  22913149.560    93825493.94346

  21181088.640   111307367.549 9  21181087.280    86732997.23848

  24583434.760   129186772.274 6  24583435.200   100665007.77744

  20799369.680   109301418.879 9  20799371.420    85169931.59649  20799371.080
  81621192.424 9
  24651193.460   129542897.977 7  24651198.280   100942515.55446  24651196.080
  96736593.520 6
  25528763.460   134154535.769 7  25528766.720   104536043.63644

  21821943.180   114675084.624 9  21821941.560    89357173.15049

  21554160.140   113267879.539 9  21554161.000    88260698.81249  21554159.520
  84583141.092 9
  24142923.120   129284231.163 7  24142925.380   100554396.474 6

  20497623.900   109571549.577 9  20497625.100    85222335.365 8

  20405110.040   108885599.087 8

  24133522.920   129188633.026 5  24133522.140   100480048.375 1

  21030471.140   112301575.732 9  21030471.860    87345647.946 8

  24650302.400   131399991.169 7

  22954986.500   122664471.546 8  22954987.340    95405704.969 6

  19333082.500   103273852.289 8  19333083.120    80324103.017 7

 20  3  7  0 38 30.0000000  0 18G10G12G14G20G21G25G26G29G31G32R04R05
                                R06R07R09R10R15R16
  20197965.380   106141023.183 9  20197966.780    82707293.43149  20197964.280
  79261148.819 9
  22668408.980   119123270.846 8  22668408.000    92823329.81547

  22904472.140   120363816.162 8  22904470.920    93789956.01946

  21196199.280   111386774.504 9  21196197.840    86794872.76348

  24596398.880   129254897.574 7  24596398.980   100718092.33644

  20799644.040   109302860.240 9  20799645.660    85171054.73549  20799645.360
  81622268.772 9
  24629989.400   129431470.434 7  24629994.200   100855688.97245  24629991.980
  96653384.684 6
  25519665.860   134106725.976 6  25519668.540   104498789.19545

  21812849.660   114627298.445 9  21812848.100    89319937.17749

  21547473.380   113232740.409 9  21547474.200    88233317.66949  21547472.920
  84556900.831 9
  24159555.020   129373293.900 8  24159557.020   100623667.432 5

  20502925.560   109599889.806 9  20502926.740    85244377.766 8

  20391139.320   108811048.843 8

  24114013.080   129084196.235 4  24114013.760   100398819.783 4

  21013860.480   112212876.581 9  21013861.360    87276659.729 8

  24627515.320   131278526.142 5

  22977610.300   122785367.570 8  22977611.240    95499735.170 6

  19341619.460   103319455.550 8  19341620.220    80359572.212 7

 20  3  7  0 39  0.0000000  0 18G10G12G14G20G21G25G26G29G31G32R04R05
                                R06R07R09R10R15R16
  20199803.320   106150681.192 9  20199804.720    82714819.13849  20199802.140
  79268360.947 9
  22679955.600   119183948.940 9  22679954.480    92870611.43347

  22895783.160   120318156.596 8  22895782.260    93754377.14346

  21211385.040   111466575.893 9  21211383.500    86857055.63548

  24609327.780   129322837.760 7  24609327.820   100771032.62144

  20800037.840   109304929.713 9  20800039.420    85172667.30749  20800039.240
  81623814.149 9
  24608781.540   129320022.453 7  24608786.440   100768846.43345  24608783.960
  96570160.564 6
  25510534.760   134058739.667 6  25510536.860   104461397.31944

  21803826.960   114579883.805 9  21803825.440    89282990.71049

  21540794.640   113197643.457 9  21540795.340    88205969.38249  21540794.160
  84530692.062 9
  24176243.940   129462660.780 7  24176246.500   100693174.838 5

  20508323.760   109628744.782 9  20508324.600    85266820.502 8

  20377214.860   108736745.779 8

  24094471.120   128979589.095 4  24094472.220   100317458.664 4

  20997345.020   112124685.352 9  20997345.920    87208066.568 8

  24604751.840   131157185.141 6

  23000250.500   122906351.126 8  23000251.820    95593833.450 6

  19350278.080   103365708.365 8  19350278.800    80395546.615 7

 20  3  7  0 39 30.0000000  0 18G10G12G14G20G21G25G26G29G31G32R04R05
                                R06R07R09R10R15R16
  20201751.800   106160920.042 9  20201753.120    82722797.45949  20201750.720
  79276006.836 9
  22691599.160   119245134.698 8  22691597.620    92918288.65347

  22887083.980   120272441.865 8  22887083.080    93718755.27546

  21226644.860   111546767.246 9  21226643.420    86919542.38048

  24622220.520   129390588.578 6  24622220.820   100823825.42645

  20800550.800   109307625.123 9  20800552.340    85174767.62949  20800552.240
  81625826.963 9
  24587569.420   129208553.981 7  24587574.500   100681987.93546  24587572.160
  96486921.229 6
  25501370.140   134010576.889 8  25501372.200   104423867.91044

  21794874.380   114532838.100 9  21794872.940    89246331.73149

  21534123.620   113162587.136 9  21534124.320    88178652.76849  21534122.860
  84504513.642 9
  24192988.800   129552328.156 7  24192991.060   100762916.075 5

  20513817.940   109658113.115 9  20513818.500    85289662.522 8

  20363337.120   108662691.112 8

  24074897.460   128874810.687 5  24074898.500   100235964.378 3

  20980924.760   112037002.357 9  20980925.520    87139868.706 8

  24582018.080

  23022906.060   123027416.229 8  23022907.580    95687995.153 6

  19359057.200   103412605.201 8  19359057.960    80432021.924 7

 20  3  7  0 40  0.0000000  0 18G10G12G14G20G21G25G26G29G31G32R04R05
                                R06R07R09R10R15R16
  20203810.380   106171737.690 9  20203811.600    82731226.78549  20203809.360
  79284084.944 9
  22703338.320   119306823.825 8  22703336.820    92966358.08247

  22878373.840   120226669.884 8  22878372.920    93683088.79546

  21241977.980   111627344.071 8  21241976.700    86982329.50348

  24635076.220   129458145.834 6  24635076.400   100876467.30344

  20801182.520   109310944.319 8  20801183.960    85177354.01748  20801183.880
  81628305.592 9
  24566353.780   129097065.371 6  24566359.020   100595113.74445  24566356.600
  96403666.779 6
  25492171.960   133962237.163 7  25492173.380   104386200.56744

  21785991.360   114486158.713 8  21785990.000    89209958.18148

  21527459.940   113127570.102 9  21527460.760    88151366.75549  21527459.160
  84478364.537 9
  24209788.940   129642292.180 6  24209791.160   100832887.950 5

  20519407.740   109687993.465 9  20519408.040    85312902.784 8

  20349506.020   108588885.910 7

  24055291.900   128769860.367 4  24055292.620   100154336.422 3

  20964599.720   111949827.039 8  20964600.400    87072065.699 8

  24559313.320

  23045576.020   123148556.941 7  23045577.280    95782215.634 6

  19367955.800   103460140.464 7  19367956.600    80468993.785 7

 20  3  7  0 40 30.0000000  0 18G10G12G14G20G21G25G26G29G31G32R04R05
                                R06R07R09R10R15R16
  20205979.620   106183136.961 9  20205980.700    82740109.31749  20205978.580
  79292597.374 9
  22715173.320   119369016.975 9  22715171.940    93014820.25747

  22869653.200   120180843.087 8  22869652.280    93647379.61146

  21257384.500   111708306.432 9  21257383.300    87045417.04048

  24647894.980   129525509.911 6  24647895.180   100928958.67843

  20801933.340   109314890.102 9  20801934.760    85180428.65949  20801934.780
  81631252.120 9
  24545135.320   128985561.575 7  24545140.500   100508227.71845  24545138.240
  96320401.025 6
  25482940.380   133913725.200 5  25482941.720   104348399.03245

  21777178.420   114439847.803 8  21777177.280    89173871.77348

  21520804.260   113092595.849 9  21520805.280    88124114.09149  21520803.980
  84452247.416 9
  24226645.020   129732554.315 7  24226646.960   100903091.755 5

  20525093.820   109718389.410 9  20525094.340    85336544.070 8

  20335722.800   108515336.421 8

  24035654.800   128664742.747 5  24035655.940   100072578.311 4

  20948370.760   111863164.489 9  20948371.360    87004661.512 8

  24536640.560

  23068260.000   123269772.282 8  23068261.180    95876494.195 6

  19376973.940   103508313.739 8  19376974.680    80506461.887 7

 20  3  7  0 41  0.0000000  0 18G10G12G14G20G21G25G26G29G31G32R04R05
                                R06R07R09R10R15R16
  20208259.640   106195118.541 9  20208260.720    82749445.60749  20208258.600
  79301544.647 9
  22727103.800   119431712.848 8  22727102.480    93063674.18047

  22860922.240   120134962.310 8  22860921.420    93611628.36146

  21272864.140   111789652.460 9  21272862.880    87108803.53148

  24660676.780   129592679.919 7  24660677.340   100981298.81544

  20802803.380   109319463.128 9  20802804.940    85183992.03449  20802805.000
  81634667.028 9
  24523914.500   128874045.691 7  24523919.440   100421332.26845  24523917.480
  96237126.244 7
  25473676.760   133865044.249 7  25473677.820   104310465.73344

  21768435.660   114393905.837 8  21768434.900    89138072.84248

  21514157.260   113057665.897 9  21514158.460    88096895.94649  21514157.100
  84426163.350 9
  24243556.580   129823113.612 7  24243558.380   100973526.604 4

  20530876.640   109749302.669 9  20530877.240    85360587.683 8

  20321988.480   108442046.411 8

  24015987.100   128559460.100 5  24015988.020    99990691.918 4

  20932238.280   111777017.465 9  20932238.900    86937658.299 8

  24513993.020   130673368.95318

  23090957.480   123391059.147 8  23090958.280    95970828.388 6

  19386111.040   103557121.942 8  19386111.640    80544423.821 7

 20  3  7  0 41 30.0000000  0 18G10G12G14G20G21G25G26G29G31G32R04R05
                                R06R07R09R10R15R16
  20210650.200   106207681.397 9  20210651.380    82759234.83949  20210649.160
  79310925.997 9
  22739129.540   119494908.320 8  22739128.200    93112917.38847

  22852181.200   120089026.989 8  22852180.340    93575834.60846

  21288416.200   111871378.816 9  21288414.960    87172486.38448

  24673421.160   129659653.099 6  24673421.500   101033485.62343

  20803792.760   109324662.274 9  20803794.260    85188043.31849  20803794.440
  81638549.503 9
  24502691.520   128762519.004 7  24502696.300   100334428.38045  24502694.460
  96153843.399 6
  25464380.780   133816195.287 6  25464382.580   104272401.64745

  21759763.080   114348331.550 9  21759762.520    89102560.42349

  21507518.700   113022780.010 9  21507520.060    88069712.14249  21507518.620
  84400112.199 9
  24260523.140   129913967.619 7  24260524.420   101044190.771 5

  20536756.160   109780732.688 9  20536757.020    85385033.234 8

  20308302.900   108369018.380 8

  23996288.980   128454013.042 5  23996289.620    99908677.535 5

  20916202.500   111691387.191 9  20916203.140    86871056.991 8

  24491374.700   130552831.153 4

  23113667.220   123512412.746 8  23113667.960    96065214.460 6

  19395366.140   103606560.614 8  19395366.640    80582876.115 7

 20  3  7  0 42  0.0000000  0 18G10G12G14G20G21G25G26G29G31G32R04R05
                                R06R07R09R10R15R16
  20213150.980   106220823.508 9  20213152.260    82769475.43949  20213149.860
  79320739.895 9
  22751249.480   119558599.356 9  22751248.240    93162546.74647

  22843429.340   120043034.779 8  22843428.340    93539996.52546

  21304039.820   111953480.858 9  21304038.540    87236461.97848

  24686127.340   129726425.338 6  24686127.720   101085515.80643

  20804900.940   109330485.415 9  20804902.340    85192580.82749  20804902.500
  81642897.947 9
  24481466.680   128650981.872 7  24481471.340   100247516.40145  24481469.400
  96070552.748 6
  25455053.260   133767179.012 7  25455055.640   104234207.16546

  21751160.140   114303122.312 9  21751159.580    89067332.46749

  21500888.340   112987936.941 9  21500889.520    88042561.68949  21500888.340
  84374093.003 9
  24277544.060   130005112.470 7  24277544.580   101115081.104 5

  20542732.180   109812678.525 9  20542733.080    85409879.980 8

  20294666.540   108296253.498 8

  23976559.860   128348401.402 6  23976560.520    99826535.138 4

  20900263.540   111606273.537 9  20900263.920    86804857.511 8

  24468790.300   130432433.747 6

  23136388.480   123633827.391 8  23136389.260    96159648.025 6

  19404738.020   103656624.035 8  19404738.680    80621814.319 7

 20  3  7  0 42 30.0000000  0 18G10G12G14G20G21G25G26G29G31G32R04R05
                                R06R07R09R10R15R16
  20215762.660   106234547.961 9  20215763.900    82780169.80149  20215761.600
  79330988.660 9
  22763463.840   119622786.432 9  22763462.560    93212562.63747

  22834667.200   119996988.716 8  22834665.920    93504116.49246

  21319735.100   112035959.228 9  21319733.680    87300730.82747

  24698795.600   129792997.520 6  24698796.000   101137390.14344

  20806128.480   109336935.614 9  20806129.760    85197606.96049  20806129.900
  81647714.660 9
  24460240.660   128539439.808 7  24460245.920   100160600.59345  24460243.480
  95987258.414 6
  25445694.460   133717999.820 6  25445697.140   104195885.77344

  21742627.240   114258280.161 9  21742626.460    89032390.53849

  21494266.780   112953140.682 9  21494268.000    88015447.71949  21494266.900
  84348108.785 9
  24294619.420   130096550.049 7  24294619.580   101186199.074 4

  20548805.420   109845143.807 9  20548806.500    85435130.736 8

  20281081.000   108223758.341 8

  23956801.120   128242629.629 7  23956801.340    99744268.247 5

  20884422.280   111521681.574 9  20884422.460    86739063.794 8

  24446236.320   130312193.219 6

  23159120.880   123755302.420 8  23159121.740    96254128.531 6

  19414226.880   103707312.207 8  19414227.680    80661238.436 7

 20  3  7  0 43  0.0000000  0 18G10G12G14G20G21G25G26G29G31G32R04R05
                                R06R07R09R10R15R16
  20218485.300   106248854.713 9  20218486.380    82791317.91049  20218484.160
  79341672.267 9
  22775772.120   119687467.329 9  22775770.800    93262963.33047

  22825894.540   119950888.791 8  22825893.380    93468194.47846

  21335501.540   112118811.465 9  21335499.920    87365290.98247

  24711425.540   129859367.842 6  24711425.900   101189107.13243

  20807475.260   109344012.809 9  20807476.540    85203121.65249  20807476.680
  81652999.582 9
  24439013.960   128427895.240 7  24439019.560   100073682.78944  24439017.240
  95903962.185 7
  25436305.060   133668659.956 7  25436308.180   104157439.09646

  21734164.160   114213805.017 9  21734163.140    88997734.59449

  21487654.420   112918392.123 9  21487655.680    87988370.92149  21487654.600
  84322160.184 9
  24311748.580   130188279.040 7  24311749.800   101257543.748 5

  20554976.020   109878129.417 9  20554977.120    85460786.188 8

  20267546.640   108151535.920 8

  23937012.460   128136699.685 7  23937012.940    99661878.332 5

  20868679.020   111437613.631 9  20868679.240    86673677.618 8

  24423712.280   130192130.689 5

  23181863.660   123876834.365 8  23181864.960    96348653.317 6

  19423832.160   103758621.138 8  19423832.840    80701145.383 7

 20  3  7  0 43 30.0000000  0 18G10G12G14G20G21G25G26G29G31G32R04R05
                                R06R07R09R10R15R16
  20221318.500   106263742.452 9  20221319.440    82802918.73549  20221317.280
  79352789.720 9
  22788173.740   119752638.939 9  22788172.480    93313746.38747

  22817111.720   119904734.119 8  22817110.420    93432229.80146

  21351338.320   112202033.751 9  21351336.560    87430139.50448

  24724016.520   129925532.749 7  24724017.280   101240664.08544

  20808940.920   109351715.564 9  20808942.340    85209123.78649  20808942.560
  81658751.630 9
  24417787.700   128316349.185 6  24417792.760    99986763.83045  24417790.780
  95820664.899 6
  25426885.280   133619160.265 6  25426888.480   104118867.92744

  21725770.440   114169695.145 9  21725769.220    88963363.29249

  21481051.060   112883690.837 9  21481052.300    87961330.96349  21481051.180
  84296246.894 9
  24328931.440   130280296.119 6  24328933.880   101329112.482 4

  20561244.080   109911634.796 9  20561245.020    85486845.916 8

  20254063.980   108079588.873 8

  23917194.500   128030611.986 7  23917194.780    99579365.671 4

  20853033.800   111354070.244 9  20853034.280    86608699.451 8

  24401220.060   130072238.037 7

  23204616.280   123998418.216 8  23204617.840    96443218.474 6

  19433552.620   103810546.339 8  19433553.420    80741531.644 7

 20  3  7  0 44  0.0000000  0 18G10G12G14G20G21G25G26G29G31G32R04R05
                                R06R07R09R10R15R16
  20224262.100   106279211.563 9  20224263.080    82814972.57849  20224260.900
  79364341.319 9
  22800668.760   119818299.588 9  22800667.260    93364910.51846

  22808318.360   119858524.885 8  22808317.000    93396222.60546

  21367245.080   112285624.037 9  21367243.260    87495274.75748

  24736568.400   129991491.289 6  24736569.160   101292060.31045

  20810525.800   109360044.249 9  20810527.200    85215613.67049  20810527.460
  81664971.092 9
  24396561.540   128204804.767 7  24396566.480    99899846.18345  24396564.600
  95737368.791 6
  25417435.940   133569503.929 6  25417438.860   104080174.75844

  21717446.220   114125950.530 9  21717444.840    88929276.58749

  21474456.960   112849038.280 9  21474458.340    87934328.96149  21474456.980
  84270369.975 9
  24346168.660   130372600.419 7  24346171.640   101400904.509 5

  20567609.680   109945661.475 9  20567610.400    85513311.101 8

  20240633.600   108007921.229 8

  23897347.400   127924369.039 7  23897347.640    99496732.326 4

  20837487.280   111271053.955 9  20837488.000    86544131.255 8

  24378760.540   129952518.473 6

  23227378.100   124120050.900 8  23227379.420    96537821.629 5

  19443387.900   103863084.380 8  19443388.720    80782394.550 7

 20  3  7  0 44 30.0000000  0 18G10G12G14G20G21G25G26G29G31G32R04R05
                                R06R07R09R10R15R16
  20227316.200   106295261.080 9  20227317.260    82827478.68749  20227314.980
  79376326.333 9
  22813255.980   119884445.941 8  22813254.700    93416453.11747

  22799514.480   119812260.766 8  22799513.280    93360172.63747

  21383221.080   112369579.059 9  21383219.500    87560694.23848

  24749080.340   130057240.554 5  24749081.360   101343293.40144

  20812229.620   109368997.707 9  20812231.020    85222590.38749  20812231.160
  81671657.103 9
  24375336.060   128093263.394 7  24375340.680    99812930.82646  24375339.020
  95654074.966 6
  25407957.200   133519691.986 6  25407959.760   104041360.26245

  21709190.960   114082569.616 9  21709189.760    88895473.28949

  21467872.080   112814434.386 9  21467873.420    87907364.89049  21467872.040
  84244529.407 9
  24363459.380   130465189.574 7  24363462.500   101472918.160 4

  20574072.660   109980208.847 9  20574073.200    85540181.263 8

  20227255.980   107936535.135 8

  23877471.640   127817971.643 7  23877471.480    99413978.773 4

  20822039.600   111188565.938 9  20822040.600    86479973.917 8

  24356334.500   129832974.602 8

  23250148.180   124241727.838 8  23250149.280    96632459.243 6

  19453337.280   103916231.248 8  19453338.000    80823731.005 7

 20  3  7  0 45  0.0000000  0 18G10G12G14G20G21G25G26G29G31G32R04R05
                                R06R07R09R10R15R16
  20230481.200   106311893.173 9  20230482.240    82840438.75149  20230479.900
  79388746.394 9
  22825935.760   119951078.611 8  22825934.680    93468374.65147

  22790700.680   119765943.717 8  22790699.600    93324081.43146

  21399266.320   112453898.621 9  21399265.020    87626397.76248

  24761552.440   130122780.823 6  24761553.120   101394363.60143

  20814052.760   109378578.105 9  20814054.120    85230055.63049  20814054.260
  81678811.298 9
  24354112.260   127981729.809 7  24354116.440    99726021.64945  24354115.040
  95570786.990 7
  25398449.640   133469728.933 7  25398451.620   104002428.02644

  21701005.480   114039554.397 9  21701004.240    88861954.93549

  21461297.280   112779882.465 9  21461298.260    87880441.30749  21461296.920
  84218727.645 9
  24380803.340   130558064.176 7  24380806.260   101545153.862 4

  20580633.540   110015280.081 9  20580634.040    85567458.887 8

  20213932.100   107865436.575 8

  23857567.440   127711423.884 7  23857567.400    99331108.357 5

  20806691.840   111106610.229 9  20806692.780    86416230.608 8

  24333942.340   129713610.563 5

  23272925.980   124363447.737 8  23272927.660    96727130.195 6

  19463400.360   103969985.635 8  19463400.960    80865539.966 7

 20  3  7  0 45 30.0000000  0 18G10G12G14G20G21G25G26G29G31G32R04R05
                                R06R07R09R10R15R16
  20233757.120   106329108.398 9  20233758.200    82853853.20049  20233755.860
  79401601.898 9
  22838707.760   120018195.186 8  22838706.620    93520673.28147

  22781876.940   119719574.865 8  22781875.840    93287949.86947

  21415380.680   112538580.714 9  21415379.460    87692383.78248

  24773984.640   130188111.505 7  24773985.200   101445270.43444

  20815995.300   109388785.901 9  20815996.560    85238009.75649  20815996.680
  81686433.994 9
  24332890.440   127870207.286 7  24332894.220    99639121.01745  24332892.940
  95487507.188 7
  25388914.000   133419617.855 6  25388915.900   103963380.43844

  21692889.500   113996904.960 9  21692888.240    88828721.63049

  21454732.460   112745384.155 9  21454733.440    87853559.51249  21454732.000
  84192965.907 9
  24398200.820   130651223.500 7  24398203.620   101617611.018 4

  20587292.680   110050876.640 9  20587293.160    85595145.080 8

  20200662.940   107794629.832 8

  23837635.800   127604728.290 6  23837635.840    99248122.932 5

  20791444.500   111025189.739 9  20791445.200    86352903.575 8

  24311584.280   129594429.815 7

  23295711.660   124485207.895 8  23295713.680    96821832.515 6

  19473576.580   104024344.428 8  19473577.000    80907819.031 7

 20  3  7  0 46  0.0000000  0 18G10G12G14G20G21G25G26G29G31G32R04R05
                                R06R07R09R10R15R16
  20237143.400   106346903.559 9  20237144.500    82867719.54949  20237142.200
  79414890.490 9
  22851570.900   120085790.709 8  22851569.500    93573345.08747

  22773042.840   119673151.031 8  22773041.720    93251775.45147

  21431563.060   112623619.983 9  21431561.900    87758648.12948

  24786375.720   130253227.262 7  24786376.260   101496009.97645

  20818056.400   109399617.824 9  20818057.680    85246450.20849  20818057.980
  81694522.759 9
  24311670.600   127758695.089 6  24311673.760    99552228.39246  24311672.840
  95404235.175 6
  25379349.500   133369357.695 6  25379351.360   103924216.70145

  21684842.360   113954617.687 9  21684841.160    88795770.51849

  21448177.360   112710937.359 9  21448178.360    87826717.84249  21448176.920
  84167242.648 9
  24415649.800   130744663.152 8  24415653.080   101690286.186 5

  20594049.480   110086996.081 9  20594050.200    85623237.965 8

  20187448.400   107724114.880 8

  23817676.280   127497883.995 7  23817676.560    99165021.836 5

  20776297.160   110944303.340 9  20776297.760    86289991.954 8

  24289260.560   129475432.896 5

  23318503.680   124607001.759 7  23318505.920    96916561.007 5

  19483864.620   104079300.794 8  19483864.940    80950562.864 7

 20  3  7  0 46 30.0000000  0 18G10G12G14G20G21G25G26G29G31G32R04R05
                                R06R07R09R10R15R16
  20240640.560   106365281.582 9  20240641.740    82882040.07249  20240639.400
  79428614.309 9
  22864525.220   120153866.197 8  22864523.620    93626390.91947

  22764198.920   119626675.949 8  22764197.840    93215561.11146

  21447813.400   112709016.569 9  21447812.280    87825190.89548

  24798726.400   130318129.614 5  24798727.120   101546583.16645

  20820236.960   109411076.652 9  20820238.260    85255379.15949  20820238.500
  81703079.678 9
  24290453.700   127647198.913 8  24290456.960    99465348.37945  24290456.000
  95320975.113 7
  25369758.060   133318954.248 6  25369759.620   103884941.25145

  21676864.620   113912695.043 9  21676863.440    88763103.53349

  21441633.020   112676546.176 9  21441633.780    87799919.51349  21441632.480
  84141560.901 9
  24433151.800   130838384.440 7  24433154.840   101763235.378 5

  20600904.820   110123642.003 9  20600905.540    85651740.319 8

  20174289.600   107653898.245 8

  23797689.940   127390895.849 7  23797690.220    99081808.873 6

  20761250.840   110863956.089 9  20761251.440    86227499.664 8

  24266972.380   129356624.888 8

  23341302.200   124728828.753 8  23341304.040    97011315.290 6

  19494264.340   104134854.389 8  19494264.680    80993771.213 7

 20  3  7  0 47  0.0000000  0 18G10G12G14G20G21G25G26G29G31G32R04R05
                                R06R07R09R10R15R16
  20244248.060   106384239.656 9  20244249.260    82896812.58949  20244247.000
  79442771.304 9
  22877570.060   120222417.291 8  22877568.540    93679807.33247

  22755344.780   119580147.205 8  22755343.780    93179304.95646

  21464130.940   112794765.937 9  21464129.940    87892008.55347

  24811035.220   130382814.466 6  24811036.820   101596986.78344

  20822536.400   109423159.542 9  20822537.700    85264794.39649  20822537.840
  81712102.605 9
  24269239.880   127535718.727 7  24269243.140    99378480.68345  24269241.960
  95237726.942 7
  25360139.520   133268407.236 7  25360141.180   103845554.01244

  21668955.900   113871134.360 9  21668954.680    88730718.60449

  21435099.000   112642208.991 9  21435099.740    87773163.25349  21435098.380
  84115919.496 9
  24450705.920   130932383.005 8  24450708.640   101836345.252 4

  20607858.180   110160812.600 9  20607859.000    85680650.763 8

  20161187.300   107583981.405 8

  23777676.780   127283763.339 8  23777676.860    98998483.579 5

  20746305.220   110784147.066 9  20746305.780    86165425.998 8

  24244719.860   129238006.125 7

  23364105.880   124850683.011 8  23364107.360    97106090.752 5

  19504774.780   104190999.447 8  19504775.140    81037439.589 7

 20  3  7  0 47 30.0000000  0 18G10G12G14G20G21G25G26G29G31G32R04R05
                                R06R07R09R10R15R16
  20247966.340   106403779.875 9  20247967.560    82912038.72549  20247965.320
  79457363.016 9
  22890705.140   120291443.582 8  22890703.800    93733594.02547

  22746480.960   119533567.265 8  22746479.900    93143008.89847

  21480515.560   112880867.436 9  21480514.700    87959100.60848

  24823302.920   130447282.411 6  24823304.800   101647221.43444

  20824954.880   109435868.504 9  20824956.140    85274697.48349  20824956.300
  81721593.062 9
  24248029.700   127424259.135 7  24248033.000    99291629.15446  24248031.720
  95154494.248 6
  25350494.560   133217721.153 7  25350496.140   103806058.33445

  21661116.460   113829937.267 9  21661115.080    88698616.98649

  21428575.680   112607929.170 9  21428576.520    87746451.69649  21428575.200
  84090320.909 9
  24468312.000   131026660.167 9  24468314.180   101909671.882 6

  20614910.360   110198510.817 9  20614911.280    85709971.573 8

  20148142.280   107514369.636 8

  23757637.220   127176490.489 7  23757637.400    98915049.168 5

  20731461.180   110704880.560 9  20731461.760    86103774.301 8

  24222503.660   129119581.446 7

  23386914.300   124972563.245 8  23386915.840    97200886.458 5

  19515395.400   104247733.945 8  19515396.040    81081566.413 7

 20  3  7  0 48  0.0000000  0 18G10G12G14G20G21G25G26G29G31G32R04R05
                                R06R07R09R10R15R16
  20251795.160   106423900.546 9  20251796.320    82927717.15649  20251794.140
  79472388.172 9
  22903930.260   120360941.032 8  22903928.840    93787747.87447

  22737607.240   119486934.584 8  22737606.000    93106671.74946

  21496966.440   112967317.241 9  21496965.620    88026464.05848

  24835528.880   130511529.773 4  24835530.560   101697284.36144

  20827492.060   109449201.630 9  20827493.440    85285086.93049  20827493.580
  81731549.617 9
  24226823.700   127312821.423 8  24226827.200    99204794.61045  24226825.600
  95071277.793 7
  25340823.140   133166896.631 7  25340824.760   103766454.83345

  21653345.700   113789101.201 9  21653344.200    88666796.69149

  21422063.160   112573706.238 9  21422064.140    87719784.48049  21422062.940
  84064764.831 9
  24485969.240   131121250.237 8  24485972.760

  20622061.020   110236735.660 9  20622062.180    85739701.978 8

  20135154.480   107445065.169 8

  23737571.420   127069077.673 7  23737571.780    98831505.887 5

  20716718.740   110626156.945 9  20716719.500    86042544.839 8

  24200324.260   129001352.782 6

  23409726.660   125094464.520 8  23409728.120    97295698.504 5

  19526125.480   104305053.118 8  19526126.320    81126147.974 7

 20  3  7  0 48 30.0000000  0 18G10G12G14G20G21G25G26G29G31G32R04R05
                                R06R07R09R10R15R16
  20255734.620   106444602.908 9  20255735.780    82943848.85449  20255733.740
  79487847.712 9
  22917244.740   120430909.097 8  22917243.380    93842268.43047

  22728723.660   119440250.944 8  22728722.360    93070294.88447

  21513483.380   113054114.355 9  21513482.480    88094098.13748

  24847713.260   130575556.523 7  24847714.640   101747175.07143

  20830148.280   109463160.165 9  20830149.560    85295963.70649  20830149.820
  81741973.202 9
  24205622.500   127201409.443 7  24205625.980    99117980.09846  24205624.440
  94988080.603 6
  25331126.040   133115937.921 7  25331128.020   103726746.74945

  21645643.880   113748627.299 9  21645642.340    88635258.59349

  21415562.060   112539542.771 9  21415563.020    87693163.59349  21415561.760
  84039253.142 9
  24503676.940   131216076.949 8  24503680.940   102056955.06015

  20629310.720   110275489.256 9  20629311.880    85769843.653 8

  20122225.380   107376072.622 8

  23717480.280   126961528.801 8  23717480.820    98747856.795 6

  20702078.720   110547979.877 9  20702079.400    85981740.454 8

  24178182.500   128883323.929 7

  23432542.580   125216385.026 8  23432543.940    97390525.525 6

  19536964.860   104362954.703 8  19536965.600    81171182.543 7

 20  3  7  0 49  0.0000000  0 18G10G12G14G20G21G25G26G29G31G32R04R05
                                R06R07R09R10R15R16
  20259784.380   106465885.045 9  20259785.740    82960432.33249  20259783.660
  79503740.205 9
  22930648.060   120501343.838 8  22930646.520    93897152.62146

  22719830.220   119393515.107 8  22719829.000    93033877.36946

  21530065.660   113141254.488 9  21530064.620    88161999.51547

  24859854.940   130639359.309 7  24859855.900   101796891.47543

  20832923.100   109477742.035 9  20832924.420    85307326.20049  20832924.640
  81752862.263 9
  24184426.420   127090024.197 8  24184429.940    99031186.50944  24184428.280
  94904903.362 6
  25321403.380   133064845.521 7  25321405.380   103686934.53445

  21638010.500   113708513.406 9  21638008.900    88604001.04149

  21409072.300   112505438.177 9  21409073.200    87666588.57049  21409071.700
  84013785.416 9
  24521435.960   131311175.416 7  24521438.820   102130924.527 5

  20636659.100   110314770.590 9  20636660.240    85800395.779 8

  20109355.340   107307394.758 8

  23697363.960   126853844.415 8  23697364.520    98664102.286 6

  20687541.120   110470349.047 9  20687541.520    85921360.941 8

  24156078.540   128765496.075 7

  23455361.080   125338319.603 8  23455362.520    97485363.481 6

  19547912.160   104421433.343 8  19547912.960    81216665.917 7

 20  3  7  0 49 30.0000000  0 18G10G12G14G20G21G25G26G29G31G32R04R05
                                R06R07R09R10R15R16
  20263944.900   106487748.894 9  20263946.440    82977469.08849  20263944.260
  79520067.091 9
  22944140.260   120572245.194 9  22944138.700    93952400.41946

  22710927.240   119346729.679 8  22710925.940    92997421.19146

  21546713.180   113228737.538 9  21546712.120    88230168.09947

  24871953.540   130702996.541 7  24871954.520   101846496.79244

  20835816.860   109492949.075 9  20835818.160    85319175.85049  20835818.520
  81764218.165 9
  24163236.440   126978670.379 7  24163240.140    98944417.31246  24163238.220
  94821749.604 7
  25311656.120   133013624.091 7  25311658.260   103647021.77145

  21630445.880   113668761.320 9  21630444.220    88573025.40649

  21402594.240   112471395.808 9  21402595.260    87640062.03749  21402593.680
  83988364.160 9
  24539246.040   131406547.029 7  24539248.200   102205102.417 4

  20644106.680   110354582.256 9  20644107.740    85831360.385 8

  20096545.080   107239037.285 8

  23677222.920   126746028.391 8  23677223.540    98580245.408 6

  20673106.600   110393269.080 9  20673107.060    85861409.864 8

  24134013.080   128647874.556 7

  23478182.080   125460267.402 8  23478183.820    97580211.685 6

  19558967.200   104480487.625 8  19558968.100    81262597.018 7

 20  3  7  0 50  0.0000000  0 18G10G12G14G20G21G25G26G29G31G32R04R05
                                R06R07R09R10R15R16
  20268216.060   106510193.397 9  20268217.560    82994958.30249  20268215.380
  79536827.597 9
  22957720.460   120643610.131 8  22957719.220    94008009.43647

  22702014.740   119299894.101 8  22702013.220    92960925.93646

  21563425.340   113316560.117 9  21563424.260    88298601.23847

  24884009.480   130766350.119 5  24884010.620   101895863.08544

  20838829.220   109508780.140 9  20838830.780    85331511.73649  20838831.080
  81776040.057 9
  24142052.680   126867349.944 8  24142056.580    98857674.23345  24142054.820
  94738620.825 7
  25301884.720   132962275.334 7  25301886.900   103607009.74944

  21622949.960   113629369.703 9  21622948.240    88542330.65449

  21396128.040   112437416.015 9  21396128.980    87613584.28249  21396127.600
  83962989.628 9
  24557106.360   131502189.329 6  24557108.880   102279490.681 4

  20651653.520   110394924.011 9  20651654.380    85862737.293 8

  20083795.220   107171002.405 8

  23657057.660   126638082.315 8  23657058.300    98496287.361 6

  20658775.080   110316740.478 9  20658775.880    85801887.631 8

  24111986.700   128530461.178 7

  23501004.660   125582224.072 8  23501006.600    97675066.827 6

  19570129.360   104540113.010 8  19570130.060    81308972.308 7

 20  3  7  0 50 30.0000000  0 18G10G12G14G20G21G25G26G29G31G32R04R05
                                R06R07R09R10R15R16
  20272597.200   106533215.689 9  20272598.620    83012897.73649  20272596.420
  79554019.543 9
  22971387.920   120715433.596 9  22971386.860    94063975.75046

  22693092.360   119253006.244 8  22693090.700    92924389.93346

  21580201.080   113404717.204 9  21580200.140    88367295.05447

  24896023.660   130829478.678 6  24896023.460   101945033.21944

  20841959.940   109525232.208 9  20841961.640    85344331.52649  20841961.720
  81788325.690 9
  24120875.360   126756062.944 7  24120879.180    98770957.11645  24120877.780
  94655516.938 7
  25292089.180   132910798.933 7  25292091.140   103566898.29644

  21615521.940   113590335.404 9  21615520.340    88511914.32949

  21389673.580   112403497.376 9  21389674.420    87587154.16349  21389673.180
  83937660.762 9
  24575016.540   131598098.167 8  24575019.080   102354086.342 6

  20659299.220   110435794.012 9  20659300.140    85894525.045 8

  20071106.220   107103291.355 8

  23636867.980   126530005.907 8  23636868.720    98412227.951 6

  20644546.800   110240762.730 9  20644547.480    85742793.832 8

  24089999.420   128413256.027 7

  23523827.900   125704183.847 8  23523829.660    97769924.381 6

  19581397.200   104600303.372 8  19581397.700    81355787.037 7

 20  3  7  0 51  0.0000000  0 18G10G12G14G20G21G25G26G29G31G32R04R05
                                R06R07R09R10R15R16
  20277089.920   106556824.488 9  20277091.280    83031294.19249  20277089.020
  79571649.486 9
  22985144.160   120787722.684 8  22985142.720    94120304.90346

  22684161.700   119206075.591 8  22684160.260    92887820.61947

  21597041.640   113493215.234 8  21597040.840    88436254.52348

  24907989.180   130892380.016 7  24907991.800   101994058.14443

  20845210.480   109542313.906 9  20845212.280    85357641.94249  20845212.240
  81801081.519 9
  24099706.540   126644820.919 7  24099710.700    98684275.09146  24099709.040
  94572446.694 7
  25282271.020   132859206.726 7  25282273.540   103526696.64445

  21608163.440   113551666.854 9  21608162.040    88481783.01049

  21383232.480   112369650.086 9  21383233.560    87560779.66249  21383232.240
  83912385.198 9
  24592977.960   131694280.016 6  24592980.340   102428894.355 4

  20667045.440   110477201.631 9  20667046.300    85926730.954 8

  20058480.560   107035917.045 8

  23616656.140   126421810.179 7  23616656.760    98328075.785 6

  20630423.860   110165346.676 9  20630424.460    85684136.923 8

  24068053.260   128296271.175 7

  23546652.760   125826152.441 8  23546654.340    97864788.788 5

  19592771.600   104661064.230 8  19592772.100    81403045.463 7

 20  3  7  0 51 30.0000000  0 18G10G12G14G20G21G25G26G29G31G32R04R05
                                R06R07R09R10R15R16
  20281691.700   106581006.122 9  20281692.900    83050137.00949  20281690.620
  79589707.180 9
  22998985.880   120860461.818 8  22998984.540    94176984.73646

  22675220.320   119159088.981 8  22675219.140    92851207.67546

  21613944.160   113582038.342 9  21613943.360    88505467.30447

  24919914.580   130955027.755 6  24919917.340   102042887.02045

  20848578.220   109560011.402 9  20848579.940    85371432.19049  20848580.020
  81814297.164 9
  24078544.360   126533613.230 8  24078548.520    98597619.78845  24078547.000
  94489402.031 7
  25272429.160   132807487.629 7  25272431.860   103486396.05045

  21600871.920   113513350.265 9  21600870.640    88451925.93149

  21376802.880   112335862.008 9  21376803.800    87534451.28249  21376802.440
  83887153.833 9
  24610987.860   131790721.474 6  24610990.540   102503904.286 4

  20674889.760   110519134.025 9  20674890.680    85959345.007 8

  20045915.880   106968869.257 8

  23596420.140   126313484.152 8  23596420.500    98243822.206 6

  20616403.940   110090480.803 9  20616404.420    85625907.912 8

  24046146.600   128179496.212 7

  23569476.180   125948113.383 8  23569477.440    97959647.234 5

  19604249.680   104722377.995 8  19604250.160    81450733.949 7

 20  3  7  0 52  0.0000000  0 17G10G12G14G20G21G25G26G29G31G32R05R06
                                R07R09R10R15R16
  20286404.140   106605769.257 9  20286405.140    83069432.95149  20286402.920
  79608199.130 9
  23012914.440   120933657.570 8  23012913.440    94234020.34846

  22666270.020   119112056.227 8  22666268.980    92814558.79646

  21630909.880   113671193.130 8  21630908.980    88574938.54447

  24931795.280   131017465.809 5  24931797.140   102091545.91043

  20852064.780   109578333.306 9  20852066.440    85385708.99949  20852066.560
  81827979.098 9
  24057390.900   126422451.460 7  24057394.940    98511000.29245  24057393.880
  94406391.720 7
  25262565.460   132755653.278 7  25262568.200   103446005.70045

  21593649.040   113475393.874 9  21593647.740    88422349.53349

  21370386.520   112302143.383 9  21370387.380    87508177.01449  21370385.860
  83861974.331 9
  20682834.120   110561600.832 9  20682834.960    85992374.717 8

  20033414.940   106902161.456 8

  23576161.720   126205039.061 8  23576162.180    98159476.041 6

  20602489.180   110016175.818 9  20602489.480    85568115.161 8

  24024281.380   128062942.591 7

  23592299.100   126070072.396 8  23592300.360    98054504.194 5

  19615832.300   104784250.465 8  19615832.900    81498856.973 7

 20  3  7  0 52 30.0000000  0 17G10G12G14G20G21G25G26G29G31G32R05R06
                                R07R09R10R15R16
  20291226.240   106631109.017 9  20291227.160    83089178.20449  20291224.900
  79627121.658 9
  23026928.800   121007303.356 8  23026927.840    94291406.64846

  22657310.120   119064972.927 8  22657309.060    92777870.49246

  21647937.280   113760672.579 8  21647936.380    88644662.76047

  24943631.680   131079664.007 6  24943634.020   102140011.78644

  20855669.220   109597274.614 9  20855670.980    85400468.45949  20855670.820
  81842123.591 9
  24036245.840   126311334.027 8  24036249.960    98424415.35945  24036248.880
  94323414.469 7
  25252679.560   132703701.834 7  25252681.820   103405524.04044

  21586493.820   113437792.936 9  21586492.300    88393050.11849

  21363982.680   112268491.006 9  21363983.620    87481954.38849  21363981.940
  83836844.303 9
  20690877.640   110604597.971 9  20690878.520    86025816.913 8

  20020977.300   106835792.085 8

  23555880.500   126096472.657 8  23555881.000    98075035.502 5

  20588678.940   109942428.999 9  20588679.000    85510756.542 8

  24002457.560   127946609.332 6

  23615120.260   126192021.981 8  23615121.660    98149353.783 5

  19627517.860   104846673.457 8  19627518.680    81547408.187 7

 20  3  7  0 53  0.0000000  0 17G10G12G14G20G21G25G26G29G31G32R05R06
                                R07R09R10R15R16
  20296158.180   106657026.697 9  20296159.160    83109373.78949  20296156.860
  79646475.754 9
  23041028.560   121081398.150 8  23041027.460    94349142.83646

  22648341.140   119017841.268 8  22648340.120    92741144.51846

  21665026.300   113850475.909 9  21665025.320    88714639.34647

  24955421.980   131141646.435 5  24955426.160   102188298.18043

  20859391.720   109616836.426 9  20859393.620    85415711.42349  20859393.340
  81856731.421 9
  24015110.080   126200265.068 7  24015114.120    98337868.13746  24015112.980
  94240473.405 7
  25242772.240   132651637.271 7  25242774.520   103364954.25844

  21579406.320   113400548.217 9  21579404.900    88364028.25449

  21357592.080   112234907.669 9  21357592.980    87455785.54249  21357591.240
  83811765.823 9
  20699020.740   110648127.430 9  20699021.600    86059673.113 8

  20008603.840   106769766.572 8

  23535577.500   125987788.790 8  23535577.860    97990503.599 6

  20574973.740   109869243.587 9  20574973.700    85453834.564 8

  23980675.820   127830500.379 7

  23637939.460   126313960.386 8  23637940.680    98244194.701 5

  19639306.200   104909644.706 8  19639307.120    81596385.805 7

 20  3  7  0 53 30.0000000  0 17G10G12G14G20G21G25G26G29G31G32R05R06
                                R07R09R10R15R16
  20301199.820   106683521.149 9  20301200.860    83130018.80449  20301198.640
  79666260.556 9
  23055213.480   121155939.086 8  23055212.200    94407226.66447

  22639362.860   118970660.851 8  22639362.080    92704380.57547

  21682176.460   113940599.733 9  21682175.260    88784865.67447

  24967168.920   131203345.738 5  24967171.280   102236394.92544

  20863232.000   109637017.449 9  20863233.980    85431436.87749  20863233.740
  81871801.656 9
  23993984.000   126089246.527 7  23993987.760    98251360.27345  23993986.840
  94157570.026 7
  25232843.640   132599461.327 7  25232845.480   103324297.69745

  21572386.460   113363658.553 9  21572385.080    88335283.06649

  21351214.400   112201393.909 9  21351215.720    87429670.92649  21351213.940
  83786739.314 9
  20707263.560   110692189.043 9  20707264.220    86093943.238 8

  19996295.640   106704088.227 8

  23515252.960   125878989.178 8  23515253.180    97905881.684 6

  20561373.560   109796620.653 9  20561373.700    85397350.082 8

  23958936.460   127714617.757 7

  23660755.660   126435883.901 7  23660757.180    98339024.029 5

  19651196.500   104973159.796 8  19651197.220    81645786.432 7

 20  3  7  0 54  0.0000000  0 17G10G12G14G20G21G25G26G29G31G32R05R06
                                R07R09R10R15R16
  20306351.640   106710594.656 9  20306352.760    83151115.03649  20306350.600
  79686477.777 9
  23069483.220   121230926.461 8  23069481.800    94465658.36946

  22630376.060   118923435.184 8  22630375.420    92667581.36046

  21699387.600   114031044.335 9  21699386.260    88855341.95847

  24978870.380   131264841.693 6  24978871.120   102284300.57744

  20867190.740   109657819.833 9  20867192.520    85447646.53149  20867192.300
  81887335.904 9
  23972868.540   125978283.873 7  23972871.960    98164895.89445  23972871.220
  94074708.360 7
  25222894.020   132547179.463 6  25222896.620   103283558.64145

  21565434.520   113327125.791 9  21565433.100    88306815.98949

  21344850.960   112167953.743 9  21344852.400    87403613.64849  21344850.680
  83761767.752 9
  20715606.400   110736785.532 9  20715606.880    86128629.367 8

  19984053.800   106638762.999 8

  23494907.640   125770078.956 8  23494907.840    97821173.760 6

  20547879.500   109724564.455 9  20547879.940    85341306.391 8

  23937240.660   127598967.273 7

  23683569.040   126557792.066 7  23683570.760    98433841.430 5

  19663188.300   105037217.992 8  19663189.020    81695609.456 7

 20  3  7  0 54 30.0000000  0 17G10G12G14G20G21G25G26G29G31G32R05R06
                                R07R09R10R15R16
  20311613.080   106738244.322 9  20311614.320    83172660.21849  20311612.120
  79707125.247 9
  23083836.900   121306355.487 8  23083835.580    94524434.18847

  22621380.280   118876162.183 8  22621379.660    92630745.26847

  21716658.700   114121804.856 9  21716657.320    88926064.40647

  24990525.620   131326089.044 5  24990527.240   102332025.62144

  20871266.840   109679240.645 9  20871268.740    85464338.06949  20871268.440
  81903331.963 9
  23951763.620   125867377.337 7  23951767.440    98078475.28846  23951765.980
  93991888.613 7
  25212924.780   132494791.883 6  25212927.140   103242737.22045

  21558549.900   113290947.324 9  21558548.480    88278624.98149

  21338501.420   112134586.028 9  21338502.680    87377612.82549  21338501.180
  83736850.307 9
  20724048.840   110781915.177 9  20724049.120    86163730.173 8

  19971878.500   106573792.403 8

  23474541.600   125661057.778 8  23474541.960    97736379.536 6

  20534491.500   109653074.505 9  20534492.100    85285703.097 8

  23915588.360   127483549.630 7

  23706378.540   126679679.292 7  23706380.440    98528642.567 5

  19675280.700   105101812.741 8  19675281.380    81745849.821 7

 20  3  7  0 55  0.0000000  0 17G10G12G14G20G21G25G26G29G31G32R05R06
                                R07R09R10R15R16
  20316984.080   106766469.493 9  20316985.380    83194653.84049  20316983.180
  79728202.466 9
  23098274.460   121382223.806 8  23098272.880    94583552.35946

  22612375.640   118828842.262 8  22612375.000    92593872.61046

  21733989.520   114212878.683 9  21733988.080    88997030.98947

  25002134.720   131387094.512 6  25002136.460   102379562.32644

  20875460.660   109701278.994 9  20875462.360    85481510.79349  20875462.260
  81919789.164 9
  23930669.860   125756529.458 7  23930674.020    97992100.37346  23930672.100
  93909112.670 7
  25202935.940   132442300.876 7  25202938.640   103201835.11044

  21551732.620   113255122.470 9  21551731.320    88250709.52349

  21332165.620   112101291.847 9  21332167.000    87351669.31949  21332165.420
  83711987.780 9
  20732590.880   110827578.185 9  20732591.580    86199245.825 8

  19959770.140   106509179.906 8

  23454155.380   125551928.021 8  23454155.540    97651500.844 6

  20521209.920   109582152.025 9  20521210.580    85230541.183 8

  23893980.460   127368366.975 6

  23729183.560   126801542.375 7  23729185.560    98623424.913 5

  19687472.780   105166940.358 8  19687473.520    81796504.626 7

 20  3  7  0 55 30.0000000  0 17G10G12G14G20G21G25G26G29G31G32R05R06
                                R07R09R10R15R16
  20322464.740   106795270.403 9  20322466.020    83217096.09749  20322463.860
  79749709.627 9
  23112794.980   121458529.712 8  23112793.320    94643011.47946

  22603362.520   118781476.633 8  22603361.400    92556964.31446

  21751379.600   114304263.708 9  21751378.160    89068240.05847

  25013697.880   131447857.289 5  25013699.000   102426909.99643

  20879772.000   109723935.013 9  20879773.600    85499164.82949  20879773.620
  81936707.608 9
  23909587.860   125645743.754 7  23909592.160    97905773.91047  23909590.240
  93826383.135 7
  25192928.260   132389710.002 7  25192931.040   103160855.23545

  21544982.540   113219650.768 9  21544981.300    88223069.24649

  21325844.340   112068073.281 9  21325845.600    87325784.70849  21325844.120
  83687181.696 9
  20741232.920   110873775.491 9  20741233.980    86235177.036 8

  19947729.640   106444929.889 8

  23433749.400   125442692.709 8  23433749.240    97566540.035 5

  20508035.000   109511799.456 9  20508035.680    85175822.535 8

  23872416.980   127253422.705 6

  23751983.700   126923379.020 6  23751985.660    98718186.689 4

  19699763.700   105232597.667 8  19699764.760    81847571.404 7

 20  3  7  0 56  0.0000000  0 17G10G12G14G20G21G25G26G29G31G32R05R06
                                R07R09R10R15R16
  20328054.780   106824646.104 9  20328056.020    83239986.24649  20328053.860
  79771646.008 9
  23127398.120   121535270.511 8  23127396.500    94702809.46846

  22594340.720   118734065.546 8  22594339.460    92520020.59547

  21768828.260   114395957.082 9  21768826.920    89139689.39847

  25025214.180   131508387.780 6  25025215.780   102474073.05444

  20884200.600   109747207.594 9  20884202.280    85517299.29649  20884202.280
  81954086.468 9
  23888518.160   125535022.406 8  23888522.660    97819497.60847  23888520.680
  93743701.697 7
  25182902.320   132337021.500 7  25182904.680   103119799.29444

  21538299.620   113184531.413 9  21538298.340    88195703.53549

  21319537.620   112034931.246 9  21319538.760    87299959.74449  21319537.300
  83662432.759 9
  20749974.960   110920507.045 9  20749976.080    86271523.769 8

  19935757.660   106381045.224 8

  23413323.900   125333354.190 8  23413323.860    97481498.980 6

  20494967.140   109442017.762 9  20494967.820    85121547.898 8

  23850899.000   127138719.760 7

  23774778.300   127045185.685 6  23774780.180    98812925.146 5

  19712153.360   105298780.863 8  19712154.340    81899047.214 7

 20  3  7  0 56 30.0000000  0 17G10G12G14G20G21G25G26G29G31G32R05R06
                                R07R09R10R15R16
  20333754.040   106854595.999 9  20333755.260    83263323.81649  20333753.160
  79794011.185 9
  23142083.740   121612443.736 8  23142082.120    94762944.43646

  22585310.240   118686609.275 8  22585308.920    92483041.70146

  21786335.160   114487956.387 9  21786333.900    89211377.13347

  25036683.580   131568660.307 6  25036684.920   102521038.61843

  20888746.400   109771096.016 9  20888748.120    85535913.64849  20888748.040
  81971925.222 9
  23867461.540   125424368.217 8  23867465.740    97733273.60848  23867463.720
  93661070.364 7
  25172858.000   132284237.478 7  25172860.280   103078668.96344

  21531683.600   113149763.827 9  21531682.260    88168611.91349

  21313245.900   112001866.983 9  21313246.840    87274195.38149  21313245.260
  83637741.925 9
  20758816.960   110967772.952 9  20758818.160    86308286.118 8

  19923854.840   106317529.747 8

  23392879.660   125223914.559 8  23392879.740    97396379.271 6

  20482006.720   109372809.039 9  20482007.280    85067718.906 8

  23829426.740   127024260.636 7

  23797566.680   127166959.485 6  23797568.440    98907637.996 4

  19724640.760   105365485.733 8  19724641.720    81950928.771 7

 20  3  7  0 57  0.0000000  0 17G10G12G14G20G21G25G26G29G31G32R05R06
                                R07R09R10R15R16
  20339562.380   106885119.008 9  20339563.640    83287107.96849  20339561.500
  79816804.316 9
  23156851.200   121690046.285 8  23156849.620    94823413.93246

  22576271.200   118639108.001 8  22576269.760    92446027.72946

  21803899.740   114580258.525 9  21803898.440    89283300.83647

  25048105.640   131628683.522 5  25048106.720   102567810.63043

  20893409.160   109795598.996 9  20893410.900    85555006.87549  20893410.800
  81990222.894 9
  23846418.060   125313783.245 7  23846421.900    97647103.54747  23846419.980
  93578490.771 7
  25162796.020   132231360.315 7  25162797.540   103037465.99645

  21525134.180   113115346.771 9  21525133.000    88141793.43349

  21306969.100   111968881.362 9  21306969.860    87248492.28549  21306968.240
  83613109.784 9
  20767758.840   111015573.120 9  20767760.360    86345464.012 8

  19912021.640   106254386.919 7

  23372416.760   125114375.664 8  23372416.880    97311182.417 6

  20469153.520   109304173.593 9  20469154.200    85014335.781 8

  23808000.920   126910047.575 7

  23820347.980   127288696.642 6  23820350.000    99002322.386 4

  19737224.920   105432708.062 8  19737225.900    82003212.805 7

 20  3  7  0 57 30.0000000  0 17G10G12G14G20G21G25G26G29G31G32R05R06
                                R07R09R10R15R16
  20345479.960   106916216.187 9  20345481.280    83311339.52749  20345479.080
  79840026.228 9
  23171700.120   121768077.518 8  23171698.540    94884217.46046

  22567224.040   118591563.927 8  22567222.380    92408980.38447

  21821521.680   114672862.387 8  21821520.380    89355459.65947

  25059480.360                    25059481.520

  20898189.120   109820717.495 9  20898190.840    85574579.71349  20898190.640
  82008980.203 9
  23825388.620   125203272.101 8  23825392.220    97560991.01248  23825390.380
  93495966.257 7
  25152717.120   132178394.153 8  25152718.220   102996193.67844

  21518651.660   113081281.196 9  21518650.620    88115248.83549

  21300707.660   111935977.378 9  21300708.500    87222852.81549  21300706.840
  83588538.621 9
  20776801.100   111063909.174 9  20776802.640    86383058.688 8

  19900259.520   106191622.039 8

  23351936.040   125004741.954 8  23351936.260    97225911.775 6

  20456408.500   109236115.054 9  20456409.120    84961401.378 9

  23786622.000   126796085.163 7

  23843122.460   127410395.951 6  23843124.080    99096977.341 4

  19749905.640   105500445.738 8  19749906.460    82055897.658 7

 20  3  7  0 58  0.0000000  0 17G10G12G14G20G21G25G26G29G31G32R05R06
                                R07R09R10R15R16
  20351506.560   106947886.352 9  20351507.980    83336017.56349  20351505.700
  79863676.003 9
  23186629.920   121846534.659 8  23186628.500    94945352.85546

  22558168.460   118543976.940 8  22558167.040    92371899.61347

  21839200.340   114765765.132 8  21839199.260    89427851.36547

  25070807.960   131747984.92416  25070809.200   102660774.98951

  20903085.900   109846450.164 9  20903087.540    85594631.13749  20903087.320
  82028196.145 9
  23804373.420   125092836.798 7  23804376.960    97474937.59747  23804375.340
  93413498.386 7
  25142621.440   132125341.485 6  25142622.860   102954853.98645

  21512236.000   113047566.042 9  21512234.820    88088977.29549

  21294461.800   111903155.829 9  21294462.840    87197277.58749  21294461.160
  83564029.025 9
  20785943.600   111112780.921 9  20785945.120    86421070.018 8

  19888569.020   106129238.074 8

  23331438.000   124895015.209 8  23331438.300    97140568.758 6

  20443771.540   109168634.043 9  20443772.200    84908916.154 8

  23765290.460   126682375.832 7

  23865889.440   127532054.079 7  23865890.740    99191600.254 4

  19762682.040   105568694.589 8  19762682.620    82108980.102 7

 20  3  7  0 58 30.0000000  0 17G10G12G14G20G21G25G26G29G31G32R05R06
                                R07R09R10R15R16
  20357642.240   106980129.040 9  20357643.600    83361141.73949  20357641.380
  79887753.325 9
  23201640.120   121925415.474 8  23201639.260    95006818.40346

  22549104.740   118496347.805 8  22549103.480    92334786.03546

  21856935.620   114858964.726 8  21856934.580    89500474.40347

  25082088.100   131807262.110 6  25082089.220   102706961.92744

  20908099.420   109872796.436 9  20908101.100    85615160.70849  20908100.700
  82047870.292 9
  23783373.120   124982480.288 8  23783376.640    97388945.57948  23783375.180
  93331089.383 7
  25132510.000   132072205.073 7  25132511.300   102913449.04744

  21505886.680   113014200.881 9  21505885.580    88062978.47649

  21288232.120   111870418.272 9  21288233.020    87171767.80849  21288231.540
  83539582.144 9
  20795186.480   111162188.923 9  20795187.720    86459498.440 8

  19876950.600   106067239.113 8

  23310923.160   124785198.036 8  23310923.560    97055155.446 6

  20431243.100   109101732.282 9  20431243.720    84856881.484 8

  23744006.780   126568922.318 7

  23888647.920   127653667.943 7  23888649.220    99286188.742 3

  19775553.360   105637450.590 8  19775553.840    82162456.993 7

 20  3  7  0 59  0.0000000  0 17G10G12G14G20G21G25G26G29G31G32R05R06
                                R07R09R10R15R16
  20363886.540   107012942.701 9  20363887.880    83386710.79349  20363885.660
  79912257.009 9
  23216730.520   122004716.450 8  23216729.700    95068611.34146

  22540033.140   118448676.872 8  22540032.040    92297639.84447

  21874726.600   114952457.054 8  21874725.640    89573325.52947

  25093320.020                    25093320.220

  20913229.260   109899754.487 9  20913230.960    85636166.97449  20913230.740
  82068001.308 9
  23762388.220   124872204.496 7  23762391.660    97303016.41947  23762390.260
  93248740.636 7
  25122382.700   132018986.481 7  25122384.540   102871980.00946

  21499603.440   112981183.687 9  21499602.580    88037250.77749

  21282018.440   111837765.229 9  21282019.420    87146323.86649  21282018.020
  83515198.362 9
  20804529.420   111212132.217 9  20804530.560    86498343.189 8

  19865404.680   106005627.813 8

  23290391.860   124675292.570 8  23290392.360    96969673.420 5

  20418823.060   109035410.437 9  20418823.680    84805297.822 8

  23722771.440   126455726.630 7

  23911397.420   127775233.810 6  23911398.820    99380739.906 3

  19788518.820   105706709.403 8  19788519.240    82216324.940 7

 20  3  7  0 59 30.0000000  0 17G10G12G14G20G21G25G26G29G31G32R05R06
                                R07R09R10R15R16
  20370238.680   107046323.317 9  20370239.980    83412721.64849  20370237.740
  79937184.076 9
  23231899.920   122084432.238 8  23231899.080    95130727.53346

  22530953.040   118400961.102 8  22530951.900    92260458.72147

  21892572.200   115046236.362 8  21892571.400    89646400.28847

  25104503.000                    25104513.000

  20918474.860   109927320.209 9  20918476.560    85657646.75549  20918476.340
  82088586.110 9
  23741418.420   124762008.772 7  23741422.120    97217149.67647  23741420.720
  93166451.673 7
  25112239.660   131965684.916 7  25112241.280   102830446.36245

  21493386.000   112948510.733 9  21493385.100    88011791.33249

  21275820.400   111805194.722 9  21275821.400    87120944.26049  21275820.160
  83490876.238 9
  20813971.900   111262607.382 9  20813972.980    86537601.636 8

  19853931.580   105944404.595 8

  23269843.740   124565297.594 8  23269844.160    96884121.829 5

  20406511.180   108969666.520 9  20406511.860    84754163.684 8

  23701584.440   126342788.422 7

  23934136.560   127896745.483 6  23934138.460    99475248.933 3

  19801576.860   105776463.827 8  19801577.460    82270578.381 7

 20  3  7  1  0  0.0000000  0 16G10G12G14G20G25G26G29G31G32R05R06R07
                                R09R10R15R16
  20376699.220   107080273.326 9  20376700.480    83439176.18549  20376698.220
  79962536.340 9
  23247148.060   122164563.260 8  23247147.600    95193167.23747

  22521865.180   118353204.296 8  22521864.120    92223245.60747

  21910472.560   115140303.452 8  21910471.900    89719699.27647

  20923836.360   109955495.881 9  20923838.140    85679601.81649  20923838.100
  82109626.381 9
  23720465.060   124651899.084 8  23720468.960    97131349.98548  23720467.660
  93084227.002 7
  25102082.240   131912306.741 7  25102083.860   102788852.94445

  21487234.660   112916184.698 9  21487233.680    87986602.21749

  21269639.220   111772711.403 9  21269639.840    87095632.56349  21269638.800
  83466619.206 9
  20823514.600   111313618.080 9  20823515.460    86577276.597 8

  19842532.440   105883576.240 8

  23249280.300   124455219.167 8  23249280.200    96798505.227 5

  20394308.540   108904505.135 9  20394309.100    84703482.617 8

  23680446.680   126230113.090 7

  23956865.800   128018203.370 5  23956867.640    99569716.097 3

  19814727.660   105846713.118 8  19814728.360    82325216.696 7

 20  3  7  1  0 30.0000000  0 16G10G12G14G20G25G26G29G31G32R05R06R07
                                R09R10R15R16
  20383268.120   107114792.874 9  20383269.380    83466074.51149  20383267.060
  79988313.893 9
  23262475.120   122245107.596 8  23262474.920    95255929.02846

  22512769.580   118305407.894 8  22512768.760    92186001.68046

  21928427.480   115234656.836 9  21928426.760    89793221.36047

  20929313.980   109984281.504 9  20929315.980    85702032.15749  20929315.860
  82131122.113 9
  23699528.780   124541879.028 8  23699532.800    97045620.14347  23699531.580
  93002069.246 7
  25091910.640   131858855.187 7  25091912.420   102747202.37645

  21481149.300   112884205.466 9  21481148.260    87961683.34349

  21263474.900   111740317.494 9  21263475.320    87070390.54349  21263474.340
  83442428.928 9
  20833157.480   111365165.059 9  20833158.200    86617368.656 8

  19831208.120   105823147.351 8

  23228702.120   124345060.562 8  23228702.020    96712826.316 6

  20382215.440   108839928.333 9  20382216.060    84653256.228 8

  23659358.900   126117704.422 7

  23979584.620   128139605.316 4  23979586.340    99664139.823 3

  19827970.680   105917454.280 8  19827971.220    82380237.602 7

 20  3  7  1  1  0.0000000  0 16G10G12G14G20G25G26G29G31G32R05R06R07
                                R09R10R15R16
  20389945.080   107149879.931 9  20389946.220    83493415.05949  20389943.960
  80014515.254 9
  23277880.600   122326061.840 8  23277880.000    95319010.23146

  22503666.560   118257571.500 8  22503665.820    92148726.58046

  21946436.140   115329292.600 9  21946435.360    89866963.47347

  20934907.300   110013674.841 9  20934909.220    85724936.05449  20934909.380
  82153071.680 9
  23678610.060   124431950.197 8  23678613.900    96959961.36548  23678612.840
  92919979.595 7
  25081725.420   131805332.238 7  25081727.260   102705496.20545

  21475129.460   112852570.980 9  21475128.480    87937033.10349

  21257327.660   111708013.196 9  21257328.100    87045218.35949  21257327.060
  83418305.588 9
  20842900.580   111417247.021 9  20842901.440    86657876.828 8

  19819959.140   105763119.993 8

  23208108.920   124234823.140 8  23208108.780    96627086.135 5

  20370231.920   108775936.236 9  20370232.220    84603484.603 8

  23638321.420   126005563.996 7

  24002292.060   128260947.199 4  24002293.960    99758516.785 2

  19841304.740   105988682.334 8  19841305.260    82435637.181 7

 20  3  7  1  1 30.0000000  0 16G10G12G14G20G25G26G29G31G32R05R06R07
                                R09R10R15R16
  20396729.860   107185533.865 9  20396730.960    83521197.32449  20396728.780
  80041139.923 9
  23293363.300   122407423.888 8  23293362.260    95382409.20146

  22494556.200   118209695.699 8  22494555.240    92111420.74547

  21964497.980   115424208.052 8  21964497.200    89940923.52647

  20940616.240   110043675.084 9  20940618.040    85748312.86349  20940618.180
  82175474.465 9
  23657709.220   124322115.431 8  23657712.860    96874375.88648  23657711.720
  92837960.175 7
  25071527.180   131751740.012 7  25071528.740   102663735.99045

  21469174.960   112821280.857 9  21469174.260    87912651.19349

  21251197.640   111675800.075 9  21251198.220    87020117.21249  21251197.300
  83394250.332 9
  20852744.060   111469864.448 9  20852744.860    86698801.465 8

  19808786.080   105703498.625 8

  23187501.420   124124509.652 8  23187501.320    96541286.782 6

  20358357.900   108712530.288 9  20358358.260    84554168.866 8

  23617334.580   125893694.560 7

  24024987.780   128382226.483 4  24024989.800

  19854729.200   106060393.376 8  19854729.740    82491412.430 7

 20  3  7  1  2  0.0000000  0 16G10G12G14G20G25G26G29G31G32R05R06R07
                                R09R10R15R16
  20403622.260   107221753.737 9  20403623.420    83549420.58949  20403621.240
  80068187.210 9
  23308922.920   122489190.919 8  23308921.940    95446123.75246

  22485438.300   118161780.982 8  22485437.360    92074084.61047

  21982612.560   115519400.599 9  21982611.680    90015099.50347

  20946440.520   110074281.196 9  20946442.100    85772161.78149  20946442.280
  82198329.669 9
  23636826.880   124212377.419 8  23636830.260    96788865.80648  23636829.160
  92756013.034 7
  25061316.220   131698081.544 7  25061317.960   102621924.18445

  21463285.820   112790334.031 9  21463285.260    87888536.80249

  21245085.140   111643679.493 9  21245085.860    86995088.18949  21245084.860
  83370264.181 9
  20862687.460   111523017.101 9  20862688.060    86740142.390 8

  19797689.740   105644286.589 8

  23166880.340   124014123.035 8  23166879.980    96455430.557 5

  20346593.920   108649711.660 9  20346594.340    84505309.951 8

  23596399.280   125782098.987 7

  24047671.300   128503440.267 4  24047673.680    99947146.39011

  19868243.220   106132583.495 8  19868243.920    82547560.281 7

 20  3  7  1  2 30.0000000  0 16G10G12G14G20G25G26G29G31G32R05R06R07
                                R09R10R15R16
  20410621.900   107258537.758 9  20410623.200    83578083.44449  20410621.040
  80095655.776 9
  23324559.160   122571359.265 8  23324557.920    95510151.01347

  22476313.140   118113827.599 8  22476312.140    92036718.33947

  22000779.260   115614866.798 8  22000778.420    90089488.70347

  20952379.580   110105491.175 9  20952381.280    85796481.23749  20952381.260
  82221635.818 9
  23615963.320   124102738.022 8  23615966.560    96703432.56548  23615965.400
  92674139.517 7
  25051092.880   131644358.428 7  25051094.880   102580061.96745

  21457461.960   112759728.978 9  21457461.160    87864688.72949

  21238990.600   111611651.962 9  21238991.320    86970131.66749  21238990.100
  83346347.499 9
  20872730.660   111576704.034 9  20872731.320    86781898.860 8

  19786670.680   105585486.565 8

  23146245.940   123903664.577 8  23146244.820    96369518.404 5

  20334940.140   108587480.449 9  20334940.440    84456907.909 8

  23575515.980   125670779.252 7

  24070342.020                    24070344.360

  19881846.240   106205248.161 8  19881846.880    82604077.235 7

 20  3  7  1  3  0.0000000  0 15G10G12G14G20G25G26G29G31G32R05R06R07
                                R09R10R16
  20417728.920   107295885.892 9  20417730.320    83607185.86949  20417728.160
  80123545.596 9
  23340271.400   122653927.518 8  23340270.280    95574489.87446

  22467180.900   118065836.823 8  22467179.900    91999322.92546

  22018997.780   115710604.889 8  22018996.740    90164089.75847

  20958433.700   110137304.784 9  20958435.200    85821271.06649  20958435.200
  82245392.738 9
  23595118.980   123993200.791 7  23595122.120    96618078.92548  23595121.080
  92592342.291 7
  25040857.740   131590574.262 7  25040860.180   102538152.24545

  21451703.340   112729465.605 9  21451702.120    87841106.88449

  21232914.080   111579719.745 9  21232914.920    86945249.41549  21232913.560
  83322502.004 9
  20882873.980   111630925.729 9  20882874.880    86824071.258 8

  19775729.560   105527102.725 8

  23125598.620   123793137.754 8  23125597.660    96283553.140 6

  20323396.560   108525838.846 9  20323396.960    84408964.448 8

  23554685.140   125559738.673 7

  19895537.460   106278383.865 8  19895538.040    82660960.550 7

 20  3  7  1  3 30.0000000  0 15G10G12G14G20G25G26G29G31G32R05R06R07
                                R09R10R16
  20424943.080   107333796.627 9  20424944.460    83636726.67949  20424942.340
  80151855.543 9
  23356059.400   122736892.541 8  23356058.100    95639137.89946

  22458041.360   118017808.773 8  22458040.360    91961898.47547

  22037267.460   115806611.659 9  22037266.180    90238900.19447

  20964602.260   110169720.394 9  20964603.720    85846529.96749  20964603.600
  82269599.194 9
  23574294.480   123883767.854 8  23574297.580    96532806.55247  23574296.660
  92510622.955 7
  25030611.740   131536731.487 7  25030613.960   102496196.82445

  21446009.360   112699542.610 9  21446007.960    87817790.26549

  21226855.920   111547883.702 9  21226856.820    86920442.10949  21226855.620
  83298728.339 9
  20893117.340   111685681.619 9  20893118.000    86866659.143 8

  19764867.060   105469138.565 8

  23104938.840   123682544.915 8  23104938.380    96197536.520 6

  20311963.460   108464787.392 9  20311963.860    84361479.990 8

  23533907.100   125448979.020 8

  19909316.040   106351986.392 8  19909316.580    82718206.956 7

 20  3  7  1  4  0.0000000  0 15G10G12G14G20G25G26G29G31G32R05R06R07
                                R09R10R16
  20432264.420   107372270.247 9  20432265.680    83666706.10349  20432263.580
  80180585.805 9
  23371922.460   122820253.192 8  23371921.180    95704094.22446

  22448895.020   117969745.346 8  22448894.180    91924446.47747

  22055587.920   115902885.654 8  22055586.460    90313918.84447

  20970885.520   110202738.061 9  20970886.800    85872258.02549  20970886.560
  82294255.238 9
  23553490.620   123774443.257 8  23553493.780    96447618.61048  23553492.940
  92428984.520 7
  25020355.340   131482833.749 7  25020357.960   102454198.57246

  21440380.060   112669960.176 9  21440378.540    87794739.03249

  21220816.580   111516146.491 9  21220817.420    86895711.81149  21220816.300
  83275028.466 9
  20903460.840   111740972.913 9  20903461.260    86909663.452 8

  19754084.060   105411598.779 8

  23084267.440   123571890.074 8  23084267.340    96111471.638 6

  20300641.420   108404328.536 9  20300641.840    84314456.439 8

  23513182.360   125338504.523 7

  19923181.500   106426053.081 8  19923182.080    82775814.375 7

 20  3  7  1  4 30.0000000  0 15G10G12G14G20G25G26G29G31G32R05R06R07
                                R09R10R16
  20439692.460   107411304.480 9  20439693.640    83697122.36249  20439691.480
  80209734.731 9
  23387860.100   122904005.365 8  23387858.820    95769355.62846

  22439742.200   117921646.104 8  22439741.180    91886966.54147

  22073958.420   115999422.973 8  22073956.840    90389142.67946

  20977282.660   110236355.379 9  20977284.100    85898453.32449  20977283.700
  82319359.074 9
  23532707.680   123665228.467 8  23532710.880    96362516.21548  23532710.100
  92347428.072 7
  25010088.720   131428882.840 7  25010091.400   102412158.92844

  21434815.220   112640716.466 9  21434813.560    87771951.73749

  21214795.860   111484508.276 9  21214796.820    86871058.65149  21214795.700
  83251402.527 9
  20913904.120   111796797.927 9  20913904.560    86953082.887 8

  19743381.000   105354485.741 8

  23063584.800   123461174.468 8  23063584.780    96025359.530 6

  20289430.400   108344461.804 9  20289430.780    84267893.430 8

  23492511.440   125228316.259 7

  19937132.820   106500578.619 8  19937133.440    82833778.680 7

 20  3  7  1  5  0.0000000  0 15G10G12G14G20G25G26G29G31G32R05R06R07
                                R09R10R16
  20447226.900   107450898.274 9  20447228.120    83727974.65749  20447225.920
  80239301.502 9
  23403871.780   122988146.478 8  23403870.340    95834920.12246

  22430582.580   117873511.524 8  22430581.400    91849459.07947

  22092378.440   116096220.831 8  22092376.900    90464569.53347

  20983793.700   110270571.109 9  20983795.200    85925114.93249  20983794.820
  82344909.780 9
  23511946.100   123556126.164 7  23511949.420    96277501.47448  23511948.520
  92265955.620 8
  24999812.600   131374881.232 8  24999815.100   102370079.74244

  21429314.700   112611810.531 9  21429312.940    87749427.64149

  21208794.240   111452970.507 9  21208795.420    86846483.75949  21208794.200
  83227851.575 9
  20924447.220   111853156.561 9  20924447.760    86996917.355 8

  19732758.680   105297803.135 8

  23042891.320   123350400.892 8  23042891.380    95939202.312 6

  20278330.540   108285188.528 9  20278330.760    84221791.989 8

  23471894.860   125118417.143 8

  19951169.380   106575559.083 8  19951170.080    82892096.797 7

 20  3  7  1  5 30.0000000  0 15G10G12G14G20G25G26G29G31G32R05R06R07
                                R09R10R16
  20454867.560   107491050.402 9  20454868.880    83759262.01349  20454866.640
  80269285.214 9
  23419956.940   123072674.157 7  23419955.540    95900785.81546

  22421416.240   117825342.129 8  22421415.080    91811924.49447

  22110847.400   116193276.433 8  22110846.040    90540197.23847

  20990418.380   110305383.828 9  20990419.860    85952241.71549  20990419.580
  82370906.276 9
  23491206.380   123447138.836 8  23491209.840    96192576.35147  23491208.920
  92184569.047 7
  24989527.760   131320831.413 7  24989529.680   102327963.03545

  21423878.100   112583241.268 9  21423876.460    87727165.87349

  21202812.180   111421534.409 9  21202813.440    86821988.09249  21202812.080
  83204376.554 9
  20935090.160   111910048.429 9  20935090.420    87041166.554 8

  19722217.700   105241554.179 8

  23022187.600   123239571.849 8  23022187.660    95853001.973 6

  20267341.660   108226509.384 9  20267342.000    84176152.661 9

  23451332.480   125008809.272 7

  19965290.420   106650990.426 8  19965291.060    82950765.622 7

 20  3  7  1  6  0.0000000  0 15G10G12G14G20G25G26G29G31G32R05R06R07
                                R09R10R16
  20462614.380   107531760.095 9  20462615.660    83790983.82549  20462613.380
  80299685.276 9
  23436114.760   123157585.296 8  23436113.460    95966950.26945

  22412243.520   117777139.326 8  22412242.480    91774363.87647

  22129364.920   116290587.577 8  22129363.740    90616024.05446

  20997156.520   110340792.606 9  20997157.900    85979832.96149  20997157.680
  82397347.906 9
  23470489.200   123338269.606 7  23470492.620    96107743.23248  23470491.700
  92103270.658 7
  24979234.260   131266736.433 7  24979235.480   102285811.10845

  21418505.460   112555007.773 9  21418503.860    87705165.74749

  21196849.940   111390201.754 9  21196851.140    86797573.02849  21196849.740
  83180978.786 9
  20945832.720   111967473.251 9  20945832.760    87085830.277 8

  19711758.720   105185742.777 8

  23001474.080   123128690.548 8  23001474.040    95766760.962 6

  20256464.360   108168425.553 9  20256464.780    84130976.352 8

  23430825.280   124899495.519 6

  19979494.920   106726868.764 8  19979495.700    83009782.090 7

 20  3  7  1  6 30.0000000  0 15G10G12G14G20G25G26G29G31G32R05R06R07
                                R09R10R16
  20470467.280   107573027.390 9  20470468.520    83823140.13849  20470466.220
  80330501.741 9
  23452345.700   123242878.629 8  23452344.180    96033412.57846

  22403064.840   117728904.750 9  22403063.680    91736778.49647

  22147930.840   116388152.479 8  22147929.820    90692048.61047

  21004007.860   110376797.306 9  21004009.480    86007888.56849  21004009.280
  82424234.513 9
  23449795.260   123229522.304 8  23449798.520    96023005.11248  23449797.600
  92022063.294 7
  24968932.540   131212600.287 8  24968934.000   102243627.16445

  21413196.840   112527110.726 9  21413195.280    87683427.79949

  21190907.840   111358975.114 9  21190908.960    86773240.56749  21190907.540
  83157660.189 9
  20956675.180   112025432.349 9  20956675.380    87130909.558 8

  19701382.420   105130373.679 8

  22980751.340   123017760.714 8  22980751.480    95680482.240 7

  20245698.980   108110939.254 9  20245699.440    84086264.791 8

  23410374.260   124790479.882 7

  19993782.540   106803191.261 8  19993783.440    83069144.014 7

 20  3  7  1  7  0.0000000  0 15G10G12G14G20G25G26G29G31G32R05R06R07
                                R09R10R16
  20478425.740   107614849.442 9  20478427.020    83855728.73649  20478424.720
  80361732.477 9
  23468648.680   123328550.311 8  23468646.840    96100169.73746

  22393879.940   117680637.641 8  22393878.740    91699167.76247

  22166544.340   116485966.932 8  22166543.400    90768267.61146

  21010972.060   110413394.886 9  21010973.760    86036406.14749  21010973.580
  82451563.869 9
  23429124.760   123120897.907 8  23429127.840    95938362.77348  23429126.940
  91940947.753 7
  24958623.040   131158423.740 7  24958624.700   102201411.70845

  21407951.680   112499547.445 9  21407950.100    87661949.91949

  21184985.720   111327854.303 9  21184986.920    86748990.58749  21184985.520
  83134420.618 9
  20967617.020   112083923.257 9  20967617.440    87176402.444 8

  19691089.340   105075448.478 8

  22960019.880   122906783.548 8  22960019.980    95594166.685 7

  20235045.280   108054049.483 9  20235045.820    84042017.199 9

  23389979.360   124681763.359 7

  20008152.440   106879952.618 8  20008153.300    83128847.283 7

 20  3  7  1  7 30.0000000  0 15G10G12G14G20G25G26G29G31G32R05R06R07
                                R09R10R16
  20486489.820   107657226.332 9  20486491.040    83888749.66749  20486488.820
  80393377.543 9
  23485022.860   123414598.442 8  23485021.540    96167220.19246

  22384689.060   117632339.590 8  22384687.960    91661532.92147

  22185205.220   116584029.462 9  22185204.180    90844679.93547

  21018049.080   110450585.284 9  21018050.880    86065385.67849  21018050.700
  82479335.904 9
  23408478.420   123012400.469 8  23408481.600    95853819.37448  23408480.500
  91859926.986 7
  24948306.580   131104211.115 8  24948308.140   102159168.16844

  21402770.020   112472317.988 9  21402768.460    87640732.16849

  21179084.260   111296842.013 9  21179085.460    86724825.17249  21179084.000
  83111262.080 9
  20978658.540   112142947.106 9  20978659.040    87222309.851 8

  19680880.640   105020972.749 8

  22939280.300   122795762.739 8  22939280.380    95507817.185 7

  20224503.840   107997758.539 9  20224504.360    83998235.364 9

  23369641.140   124573349.378 7

  20022604.040   106957149.833 8  20022604.680    83188889.553 7

 20  3  7  1  8  0.0000000  0 15G10G12G14G20G25G26G29G31G32R05R06R07
                                R09R10R16
  20494659.240   107700156.567 9  20494660.420    83922201.77949  20494658.180
  80425435.812 9
  23501468.180   123501020.215 7  23501467.060    96234561.78446

  22375492.620   117584011.394 8  22375491.440    91623874.57447

  22203912.620   116682336.906 8  22203911.560    90921283.08747

  21025238.500   110488366.748 9  21025240.460    86094825.76849  21025240.240
  82507549.337 9
  23387856.700   122904032.321 8  23387859.860    95769376.70648  23387858.680
  91779002.784 7
  24937983.980   131049964.832 8  24937985.340   102116898.39845

  21397651.620   112445421.234 9  21397650.220    87619773.65549

  21173203.660   111265939.328 9  21173204.700    86700745.14949  21173203.340
  83088185.398 9
  20989799.700   112202503.015 9  20989800.160    87268631.068 8

  19670756.540   104966948.622 8

  22918533.060   122684701.299 8  22918533.040    95421436.076 6

  20214074.740   107942066.864 9  20214075.120    83954919.621 8

  23349360.200   124465240.379 7

  20037136.120   107034778.325 8  20037136.760    83249267.255 7

 20  3  7  1  8 30.0000000  0 15G10G12G14G20G25G26G29G31G32R05R06R07
                                R09R10R16
  20502933.480   107743638.233 9  20502934.760    83956083.58149  20502932.480
  80457905.865 9
  23517983.900   123587812.223 7  23517983.120    96302191.87946

  22366290.360   117535653.007 8  22366289.260    91586192.72547

  22222665.960   116780885.950 8  22222664.960    90998074.50347

  21032540.020   110526737.262 9  21032542.120    86124724.86549  21032541.860
  82536202.639 9
  23367259.880   122795795.529 8  23367262.920    95685036.41548  23367261.680
  91698176.670 7
  24927655.120   130995686.842 7  24927656.760   102074603.95745

  21392596.160   112418855.582 9  21392595.040    87599073.15749

  21167344.120   111235147.098 9  21167345.120    86676751.19649  21167343.700
  83065191.194 9
  21001040.120   112262589.945 9  21001040.740    87315365.318 8

  19660717.900   104913379.881 8

  22897778.600   122573600.940 8  22897778.460    95335024.710 7

  20203757.860   107886974.534 9  20203758.080    83912070.031 9

  23329136.860   124357437.936 7

  20051748.400   107112833.866 8  20051748.800    83309977.122 7

 20  3  7  1  9  0.0000000  0 15G10G12G14G20G25G26G29G31G32R05R06R07
                                R09R10R16
  20511312.360   107787669.965 9  20511313.760    83990394.00549  20511311.480
  80490786.689 9
  23534569.860   123674971.616 8  23534569.020    96370108.25046

  22357082.660   117487265.085 8  22357081.280    91548487.83146

  22241464.740   116879673.969 8  22241463.680    91075052.14147

  21039953.340   110565695.231 9  21039955.400    86155081.71449  21039955.380
  82565294.615 9
  23346688.660   122687692.650 8  23346691.600    95600800.46248  23346690.000
  91617450.555 7
  24917320.580   130941379.829 7  24917322.460   102032286.86346

  21387603.580   112392619.720 9  21387602.560    87578629.62649

  21161505.700   111204466.650 9  21161506.840    86652844.35249  21161505.400
  83042280.469 9
  21012379.720   112323207.333 9  21012380.740    87362512.142 8

  19650764.980   104860269.304 8

  22877017.480   122462464.533 8  22877017.060    95248585.306 6

  20193553.280   107832482.070 9  20193553.380    83869687.012 9

  23308971.360   124249944.519 8

  20066439.640   107191312.028 8  20066440.080    83371015.686 7

 20  3  7  1  9 30.0000000  0 15G10G12G14G20G25G26G29G31G32R05R06R07
                                R09R10R16
  20519795.800   107832250.131 9  20519797.140    84025131.78049  20519794.980
  80524077.047 9
  23551225.260   123762495.382 8  23551224.420    96438308.56946

  22347869.140   117438848.065 8  22347867.960    91510760.27947

  22260308.420   116978697.847 8  22260307.340    91152213.54947

  21047478.160   110605238.863 9  21047480.220    86185894.92849  21047480.280
  82594823.935 9
  23326143.340   122579726.086 8  23326146.240    95516670.71148  23326144.500
  91536826.239 7
  24906981.040   130887046.005 7  24906983.020   101989948.85945

  21382673.660   112366712.532 9  21382672.640    87558442.21349

  21155689.060   111173899.137 9  21155689.860    86629025.49349  21155688.660
  83019454.073 9
  21023818.520   112384354.160 9  21023819.660    87410070.766 8

  19640898.680   104807620.165 8

  22856249.960   122351294.651 8  22856249.440    95162119.844 6

  20183461.100   107778590.018 9  20183461.220    83827770.975 8

  23288864.320   124142762.556 7

  20081209.160   107270208.559 8  20081209.760    83432379.636 7

 20  3  7  1 10  0.0000000  0 15G10G12G14G20G25G26G29G31G32R05R06R07
                                R09R10R16
  20528383.820   107877379.966 9  20528385.140    84060297.87549  20528383.000
  80557777.876 9
  23567949.860   123850383.670 8  23567948.860    96506792.90446

  22338650.660   117390404.865 8  22338649.640    91473012.34146

  22279196.860   117077956.778 8  22279195.740    91229558.12847

  21055114.820   110645369.141 9  21055116.760    86217165.28749  21055116.920
  82624791.358 9
  23305624.840   122471901.003 8  23305627.700    95432651.24848  23305625.920
  91456307.575 7
  24896637.540   130832690.430 7  24896639.620   101947593.94346

  21377806.480   112341135.221 9  21377805.420    87538511.84549

  21149894.360   111143448.521 9  21149895.320    86605297.72949  21149893.940
  82996714.949 9
  21035356.760   112446032.513 9  21035357.960    87458042.787 8

  19631120.100   104755438.934 8

  22835477.180   122240096.569 8  22835476.620    95075632.440 6

  20173481.780   107725301.436 9  20173482.020    83786324.311 9

  23268816.640   124035896.591 8

  20096056.660   107349521.949 8  20096057.500    83494067.818 7

 20  3  7  1 10 30.0000000  0 15G10G12G14G20G25G26G29G31G32R05R06R07
                                R09R10R16
  20537075.700   107923055.352 9  20537076.940    84095889.06849  20537074.780
  80591886.107 9
  23584742.540   123938630.340 7  23584741.440    96575556.53546

  22329426.900   117341933.970 8  22329425.940    91435242.79147

  22298129.120   117177445.961 8  22298127.920    91307082.11947

  21062862.320   110686081.858 9  21062864.140    86248889.46549  21062864.300
  82655193.698 9
  23285133.260   122364217.383 8  23285136.060    95348741.98148  23285134.420
  91375894.555 7
  24886289.880   130778313.517 7  24886292.020   101905222.38844

  21373001.420   112315884.431 9  21373000.260    87518835.90949

  21144121.600   111113113.545 9  21144122.960    86581660.08349  21144121.440
  82974062.199 9
  21046993.940   112508239.220 9  21046995.100    87506425.746 8

  19621429.040   104703726.056 8

  22814698.960   122128870.428 9  22814698.680    94989123.264 7

  20163615.100   107672614.395 9  20163615.400    83745345.508 9

  23248828.200   123929346.758 8

  20110981.100   107429245.407 8  20110982.000    83556074.938 7

 20  3  7  1 11  0.0000000  0 15G10G12G14G20G25G26G29G31G32R05R06R07
                                R09R10R16
  20545871.460   107969277.122 9  20545872.640    84131906.01449  20545870.520
  80626402.333 9
  23601603.520   124027235.175 8  23601602.700    96644599.21946

  22320198.360   117293438.509 8  22320197.700    91397454.12847

  22317105.020   117277164.565 8  22317103.820    91384784.87746

  21070720.780   110727377.580 9  21070722.400    86281067.94649  21070722.600
  82686031.402 9
  23264669.500   122256680.064 8  23264672.400    95264946.72148  23264670.880
  91295590.787 7
  24875939.020   130723919.972 8  24875941.220   101862837.86345

  21368258.700   112290961.151 9  21368257.400    87499415.18249

  21138371.680   111082897.840 9  21138373.220    86558115.37849  21138371.680
  82951498.525 9
  21058730.100   112570975.633 9  21058731.400    87555220.716 8

  19611826.880   104652486.872 8

  22793916.500   122017621.066 8  22793916.220    94902595.991 6

  20153861.520   107620531.575 9  20153862.000    83704836.654 8

  23228899.520   123823117.356 7

  20125981.940   107509376.988 8  20125982.720    83618399.486 7

 20  3  7  1 11 30.0000000  0 16G01G10G12G14G20G25G26G29G31G32R05R06
                                R07R09R10R16
  25714029.520   135128144.958 4  25714033.560   105294654.99244

  20554770.600   108016042.195 9  20554771.800    84168346.31449  20554769.600
  80661324.299 9
  23618531.680   124116193.790 8  23618531.280    96713917.56846

  22310965.000   117244917.474 8  22310964.480    91359645.54147

  22336123.740   117377108.343 8  22336122.480    91462663.09646

  21078689.660   110769253.081 9  21078691.020    86313698.21149  21078691.160
  82717302.081 9
  23244233.800   122149290.096 8  23244236.860    95181266.28748  23244235.240
  91215397.044 8
  24865585.040   130669511.155 7  24865587.420   101820441.41546

  21363577.680   112266362.496 9  21363576.360    87480247.40449

  21132644.500   111052801.269 9  21132646.000    86534663.50449  21132644.420
  82929023.804 9
  21070565.060   112634239.649 9  21070566.280    87604426.028 8

  19602313.800   104601723.452 8

  22773130.040   121906350.014 8  22773129.880    94816051.855 7

  20144220.920   107569051.891 9  20144221.580    83664796.896 9

  23209031.080   123717208.995 7

  20141058.260   107589911.177 8  20141058.740    83681037.178 7

 20  3  7  1 12  0.0000000  0 15G10G12G14G20G25G26G29G31G32R05R06R07
                                R09R10R16
  20563772.900   108063350.095 9  20563774.240    84205209.59649  20563772.000
  80696651.599 9
  23635526.940   124205504.213 8  23635526.660    96783510.05745

  22301727.120   117196372.389 8  22301726.460    91321818.19846

  22355184.820   117477275.042 8  22355183.560    91540715.00746

  21086768.660   110811707.680 9  21086769.920    86346779.71449  21086769.980
  82749005.184 9
  23223826.860   122042051.033 8  23223830.040    95097703.44548  23223828.180
  91135316.003 7
  24855228.880   130615090.478 7  24855231.300   101778035.73245

  21358958.340   112242088.157 9  21358956.960    87461332.33949

  21126940.500   111022826.213 9  21126941.880    86511306.30849  21126940.520
  82906639.829 9
  21082498.680   112698031.235 9  21082499.920    87654041.667 8

  19592890.580   104551440.150 8

  22752340.200   121795061.191 8  22752339.980    94729493.888 6

  20134693.600   107518176.822 9  20134694.240    83625227.400 9

  23189223.500   123611624.959 8

  20156209.200   107670844.747 8  20156209.720    83743985.512 7

 20  3  7  1 12 30.0000000  0 15G10G12G14G20G25G26G29G31G32R05R06R07
                                R09R10R16
  20572877.860   108111197.243 9  20572879.220    84242493.07249  20572877.000
  80732381.595 9
  23652588.420   124295161.611 7  23652587.420    96853372.94445

  22292484.540   117147802.151 8  22292483.600    91283971.25547

  22374287.600   117577660.218 8  22374286.140    91618937.18646

  21094957.000   110854737.603 9  21094958.220    86380309.52449  21094958.320
  82781137.919 9
  23203448.800   121934963.495 8  23203451.840    95014258.65548  23203450.120
  91055348.064 8
  24844870.880   130560658.592 6  24844873.080   101735621.32046

  21354400.340   112218135.280 9  21354398.860    87442667.77649

  21121259.560   110992972.031 9  21121260.680    86488043.29449  21121259.480
  82884346.118 9
  21094530.580   112762347.882 9  21094531.640    87704065.688 8

  19583557.680   104501638.143 8

  22731547.120   121683755.057 8  22731547.180    94642922.474 7

  20125279.120   107467904.777 9  20125279.880    83586126.929 8

  23169476.960   123506365.953 7

  20171433.740   107752171.411 8  20171434.460    83807239.568 7

 20  3  7  1 13  0.0000000  0 15G10G12G14G20G25G26G29G31G32R05R06R07
                                R09R10R16
  20582085.920   108159585.773 9  20582087.200    84280198.40149  20582085.000
  80768515.859 9
  23669715.900   124385166.650 7  23669714.700    96923506.68546

  22283238.120   117099211.016 8  22283236.880    91246108.04847

  22393431.880   117678264.491 8  22393430.600    91697330.07947

  21103255.060   110898344.799 9  21103256.500    86414289.14549  21103256.480
  82813701.720 9
  23183100.600   121828033.679 8  23183103.680    94930936.75948  23183102.140
  90975497.941 8
  24834511.840   130506221.974 8  24834513.900   101693203.19345

  21349904.080   112194506.205 9  21349902.460    87424255.50849

  21115602.520   110963243.867 9  21115603.540    86464878.48749  21115602.260
  82862146.497 9
  21106661.100   112827192.194 9  21106662.200    87754500.138 8

  19574316.360   104452324.678 8

  22710752.120   121572438.404 8  22710752.360    94556342.882 7

  20115978.500   107418239.750 9  20115979.120    83547498.581 9

  23149792.640   123401437.547 7

  20186731.860   107833890.840 8  20186732.600    83870799.119 7

 20  3  7  1 13 30.0000000  0 15G10G12G14G20G25G26G29G31G32R05R06R07
                                R09R10R16
  20591396.420   108208512.807 9  20591397.740    84318323.34649  20591395.480
  80805052.259 9
  23686908.800   124475515.356 8  23686907.440    96993908.23946

  22273987.720   117050598.533 8  22273986.220    91208228.17847

  22412616.900   117779083.671 8  22412616.000    91775890.41347

  21111662.580   110942526.168 9  21111663.900    86448716.18649  21111663.820
  82846694.291 9
  23162782.620   121721262.940 8  23162785.760    94847738.82848  23162784.360
  90895766.610 8
  24824152.280   130451782.016 7  24824154.480   101650782.45545

  21345468.900   112171198.493 9  21345467.160    87406093.66149

  21109969.600   110933641.797 9  21109970.680    86441811.93349  21109968.980
  82840041.044 9
  21118889.740   112892562.306 9  21118891.040    87805343.513 8

  19565167.120   104403501.785 8

  22689955.420   121461112.534 8  22689955.740    94469756.093 7

  20106791.500   107369181.080 9  20106792.060    83509341.839 9

  23130170.820   123296840.923 8

  20202102.380   107915997.549 8  20202103.100    83934659.889 7

 20  3  7  1 14  0.0000000  0 15G10G12G14G20G25G26G29G31G32R05R06R07
                                R09R10R16
  20600808.820   108257975.124 9  20600810.180    84356865.39349  20600807.840
  80841988.387 9
  23704166.220   124566203.426 7  23704164.940    97064574.22146

  22264732.860   117001963.844 8  22264731.340    91170331.03947

  22431842.060   117880113.304 8  22431841.320    91854614.75446

  21120178.500   110987278.384 9  21120180.000    86483588.02649  21120179.820
  82880113.144 9
  23142495.240   121614652.275 8  23142498.440    94764665.62848  23142497.000
  90816154.799 8
  24813792.280   130397339.683 7  24813794.420   101608359.89246

  21341094.220   112148209.403 9  21341092.460    87388180.09249

  21104360.420   110904165.646 9  21104361.700    86418843.50449  21104359.700
  82818029.635 9
  21131216.340   112958455.574 9  21131217.800    87856593.787 8

  19556109.960   104355170.873 8

  22669157.300   121349778.850 8  22669157.580    94383163.237 6

  20097717.680   107320727.115 9  20097718.140    83471655.424 8

  23110610.980   123192576.619 8

  20217544.280   107998485.709 8  20217545.080    83998817.330 6

 20  3  7  1 14 30.0000000  0 15G10G12G14G20G25G26G29G31G32R05R06R07
                                R09R10R16
  20610322.900   108307971.620 9  20610324.280    84395823.68649  20610321.840
  80879323.416 9
  23721488.000   124657228.302 8  23721486.500    97135502.68045

  22255474.080   116953308.332 8  22255472.400    91132417.65546

  22451107.000   117981351.163 8  22451106.260    91933501.34446

  21128802.860   111032600.101 9  21128804.400    86518903.64149  21128804.300
  82913957.275 9
  23122238.960   121508204.771 8  23122242.300    94681719.56848  23122240.600
  90736664.846 8
  24803432.520   130342898.396 8  24803434.820   101565938.12045

  21336779.840   112125537.961 9  21336778.340    87370514.02549

  21098775.620   110874817.380 9  21098776.940    86395974.71849  21098775.040
  82796113.713 9
  21143640.740   113024871.621 9  21143642.440    87908250.673 8

  19547145.680   104307335.539 8

  22648358.400   121238440.870 8  22648358.640    94296567.051 6

  20088757.280   107272878.651 9  20088757.680    83434439.952 9

  23091114.260   123088647.741 8

  20233056.880   108081351.842 8  20233057.740    84063268.746 7

 20  3  7  1 15  0.0000000  0 16G01G10G12G14G20G25G26G29G31G32R05R06
                                R07R09R10R16
  25702946.980   135069893.006 5  25702949.140   105249271.09545  25702947.820
 100863890.602 4
  20619938.600   108358502.754 9  20619940.040    84435198.57549  20619937.520
  80917057.678 9
  23738873.620   124748589.648 8  23738872.020    97206693.28545

  22246211.820   116904634.809 9  22246210.220    91094490.24547

  22470411.420   118082796.160 8  22470410.700    92012549.33246

  21137535.560   111078491.529 9  21137537.300    86554663.19049  21137537.220
  82948226.851 9
  23102014.640   121401925.110 8  23102017.920    94598904.31148  23102016.120
  90657300.215 8
  24793073.820   130288462.490 8  24793075.900   101523520.57245

  21332526.180   112103185.439 9  21332524.900    87353096.48149

  21093215.880   110845600.499 9  21093217.140    86373208.31249  21093215.340
  82774295.915 9
  21156163.300   113091811.862 9  21156165.020    87960315.269 8

  19538275.520   104260001.692 8

  22627559.600   121127103.530 8  22627559.820    94209971.330 6

  20079910.700   107225638.410 9  20079911.100    83397697.540 9

  23071680.980   122985057.831 7

  20248639.920   108164593.762 8  20248640.900    84128012.460 7

 20  3  7  1 15 30.0000000  0 16G01G10G12G14G20G25G26G29G31G32R05R06
                                R07R09R10R16
                                                                  25701693.720
 100858968.398 4
  20629655.660   108409566.753 9  20629657.120    84474988.69049  20629654.700
  80955189.870 9
  23756322.740   124840283.648 7  23756320.940    97278143.14546

  22236946.420   116855944.236 8  22236944.680    91056549.53847

  22489754.840   118184445.940 8  22489754.120    92091756.88747

  21146376.440   111124951.059 8  21146378.360    86590865.41948  21146378.100
  82982920.649 9
  23081822.760   121295816.025 8  23081825.900    94516221.94248  23081824.120
  90578062.961 8
  24782716.660   130234035.123 7  24782718.480   101481109.68046

  21328333.100   112081150.665 9  21328331.760    87335926.52649

  21087681.580   110816516.687 9  21087682.520    86350545.59149  21087680.820
  82752577.460 9
  21168783.800   113159275.507 9  21168785.460    88012786.958 8

  19529499.760   104213172.453 8

  22606761.380   121015770.109 8  22606761.920    94123378.692 7

  20071177.920   107179006.632 9  20071178.440    83361428.386 9

  23052311.880   122881809.773 7

  20264292.580   108248207.663 8  20264293.620    84193045.483 7

 20  3  7  1 16  0.0000000  0 16G01G10G12G14G20G25G26G29G31G32R05R06
                                R07R09R10R16
  25700520.060                    25700522.580                    25700520.780
 100854365.400 4
  20639473.300   108461159.047 9  20639474.760    84515190.46149  20639472.480
  80993716.561 9
  23773833.700   124932304.726 8  23773832.360    97349847.82646

  22227677.120   116807234.014 8  22227675.340    91018593.53247

  22509136.000   118286294.179 8  22509135.180    92171119.09646

  21155324.400   111171973.366 9  21155326.540    86627506.16349  21155326.120
  83018034.682 9
  23061663.260   121189876.786 8  23061666.240    94433671.93248  23061664.460
  90498952.554 8
  24772360.860   130179615.947 7  24772362.780   101438705.16145

  21324199.640   112059428.758 9  21324198.280    87319000.37749

  21082172.180   110787563.921 9  21082173.120    86327984.99449  21082171.260
  82730956.889 9
  21181501.240   113227257.934 9  21181502.960    88065662.146 8

  19520818.580   104166847.835 8

  22585963.840   120904439.889 8  22585964.520    94036788.527 7

  20062558.660   107132980.174 9  20062559.200    83325630.033 9

  23033006.660   122778902.239 8

  20280013.400   108332185.956 8  20280014.600    84258361.912 7

 20  3  7  1 16 30.0000000  0 16G01G10G12G14G20G25G26G29G31G32R05R06
                                R07R09R10R16
  25699428.680   135051408.271 4  25699431.300   105234868.71554  25699429.000
 100850081.633 4
  20649391.320   108513278.680 9  20649392.780    84555803.14049  20649390.640
  81032637.039 9
  23791406.620   125024651.031 7  23791405.240    97421805.93146

  22218404.540   116758505.925 9  22218402.500    90980623.58646

  22528554.700   118388339.109 8  22528553.700    92250634.57046

  21164379.360   111219557.567 9  21164381.480    86664584.74349  21164381.160
  83053568.327 9
  23041536.760   121084110.944 8  23041539.660    94351257.03548  23041537.820
  90419971.612 8
  24762007.440   130125208.126 7  24762009.160   101396309.54745

  21320125.680   112038019.840 9  21320124.360    87302318.09949

  21076688.000   110758744.708 9  21076688.920    86305528.45449  21076687.100
  82709436.033 9
  21194315.880   113295759.323 9  21194317.640    88118940.963 8

  19512232.580   104121031.936 8

  22565167.880   120793116.858 8  22565168.440    93950203.955 7

  20054052.900   107087559.925 9  20054053.540    83290303.177 9

  23013765.680   122676338.422 8

  20295801.760   108416525.281 8  20295803.040    84323959.147 7

 20  3  7  1 17  0.0000000  0 16G01G10G12G14G20G25G26G29G31G32R05R06
                                R07R09R10R16
                                                                  25698419.440
 100846123.619 4
  20659411.200   108565933.729 9  20659412.680    84596833.03349  20659410.660
  81071957.357 9
  23809042.520   125117329.044 7  23809041.020    97494022.53545

  22209130.600   116709770.887 8  22209128.540    90942648.23847

  22548012.100   118490587.616 8  22548011.020    92330308.67346

  21173543.060   111267711.544 9  21173544.860    86702107.32449  21173544.840
  83089527.468 9
  23021445.580   120978530.962 8  23021448.260    94268986.96148  23021446.660
  90341129.466 8
  24751658.760   130070824.671 7  24751660.500   101353932.88845

  21316112.860   112016932.345 9  21316111.520    87285886.28749

  21071231.340   110730070.339 9  21071232.400    86283184.78249  21071230.580
  82688023.349 9
  21207229.180   113364788.537 9  21207230.840    88172630.309 8

  19503744.340   104075737.864 8

  22544375.920   120681814.179 8  22544376.300    93863635.226 7

  20045662.640   107042756.239 9  20045663.100    83255455.862 9

  22994591.560   122574130.239 7

  20311659.020   108501231.958 8  20311660.300    84389842.115 7

 20  3  7  1 17 30.0000000  0 16G01G10G12G14G20G25G26G29G31G32R05R06
                                R07R09R10R16
  25697491.480   135041224.283 4  25697495.380   105226937.44144  25697491.080
 100842478.734 5
  20669529.620   108619106.248 9  20669531.060    84638266.14249  20669529.140
  81111664.081 9
  23826737.840   125210319.934 7  23826736.620    97566482.92445

  22199852.260   116661013.312 8  22199850.320    90904655.31447

  22567504.580   118593020.509 8  22567503.500    92410126.44446

  21182811.300   111316417.178 8  21182813.240    86740059.75048  21182813.220
  83125898.534 9
  23001387.160   120873123.196 8  23001389.620    94186851.08648  23001388.240
  90262415.932 8
  24741311.840   130016451.696 7  24741313.560   101311564.42045

  21312157.840   111996148.729 9  21312156.440    87269691.26049

  21065799.620   110701526.108 9  21065800.620    86260942.51849  21065798.960
  82666707.845 9
  21220238.180   113434328.234 9  21220239.720    88226716.701 8

  19495351.440   104030952.516 8

  22523584.880   120570518.023 8  22523585.360    93777071.553 7

  20037384.680   106998552.867 9  20037385.120    83221075.463 9

  22975481.560   122472263.540 7

  20327581.100   108586285.070 8  20327582.300    84455994.503 7

 20  3  7  1 18  0.0000000  0 16G01G10G12G14G20G25G26G29G31G32R05R06
                                R07R09R10R16
                                                                  25696646.120
 100839159.902 5
  20679749.820   108672812.816 9  20679751.120    84680115.39549  20679749.200
  81151769.613 9
  23844496.040   125303639.198 8  23844494.660    97639199.20745

  22190573.240   116612252.355 8  22190571.480    90866659.78447

  22587035.140   118695653.412 8  22587033.900    92490100.08346

  21192187.580   111365690.860 8  21192189.720    86778454.80549  21192189.720
  83162693.801 9
  22981365.260   120767908.591 8  22981367.840    94104865.73548  22981366.440
  90183846.645 8
  24730971.000   129962110.310 7  24730972.640   101269220.56545

  21308263.960   111975686.113 9  21308262.420    87253746.36549

  21060396.260   110673131.811 9  21060397.340    86238817.08049  21060395.840
  82645504.302 9
  21233345.900   113504395.874 9  21233347.400    88281213.723 8

  19487058.360   103986697.763 8

  22502799.080   120459250.610 8  22502799.640    93690530.268 7

  20029222.600   106954968.458 9  20029223.260    83187176.483 9

  22956439.560   122370759.242 8

  20343571.080   108671699.153 8  20343572.040    84522427.683 7

 20  3  7  1 18 30.0000000  0 16G01G10G12G14G20G25G26G29G31G32R05R06
                                R07R09R10R16
                                                                  25695880.080
 100836153.055 4
  20690067.840   108727033.954 9  20690069.100    84722365.60849  20690067.100
  81192259.395 9
  23862312.540   125397266.302 8  23862311.540    97712155.34945

  22181290.180   116563471.393 8  22181288.740    90828648.62447

  22606599.740   118798465.527 8  22606598.500    92570213.36946

  21201668.440   111415512.892 9  21201670.740    86817277.16349  21201670.560
  83199898.561 9
  22961377.180   120662872.043 8  22961380.060    94023019.14048  22961378.760
  90105410.326 8
  24720633.320   129907785.874 7  24720635.120   101226889.91745

  21304427.460   111955525.595 9  21304425.980    87238036.86349

  21055018.380   110644871.276 9  21055019.540    86216795.88149  21055017.940
  82624400.644 9
  21246548.780   113574972.577 9  21246550.340    88336106.677 8

  19478861.700   103942958.993 8

  22482015.860   120347996.685 8  22482016.520    93603999.472 7

  20021173.080   106911985.160 9  20021173.920    83153745.035 9

  22937462.640   122269601.311 8

  20359624.440   108757452.151 8  20359625.240    84589124.449 7

 20  3  7  1 19  0.0000000  0 16G01G10G12G14G20G25G26G29G31G32R05R06
                                R07R09R10R16
  25695192.520   135029149.218 5  25695194.820   105217520.73645  25695194.760
 100833463.033 5
  20700484.920   108781775.248 9  20700485.980    84765021.14649  20700483.900
  81233137.619 9
  23880188.720   125491205.713 7  23880187.920    97785354.82746

  22172005.020   116514678.425 8  22172003.960    90790628.15047

  22626199.220   118901461.474 8  22626197.980    92650469.87947

  21211254.740   111465888.719 8  21211257.020    86856531.03848  21211256.640
  83237516.861 9
  22941425.160   120558023.594 8  22941428.020    93941319.09748  22941426.760
  90027114.475 8
  24710300.920   129853488.624 7  24710302.840   101184580.46745

  21300649.640   111935673.298 9  21300648.200    87222567.55149

  21049667.680   110616753.408 9  21049668.920    86194885.84849  21049667.280
  82603403.534 9
  21259848.120   113646064.565 9  21259849.340    88391400.393 8

  19470763.760   103899746.460 8

  22461237.220   120236767.025 9  22461237.780    93517487.525 7

  20013237.640   106869610.270 9  20013238.540    83120786.783 9

  22918552.480   122168799.493 8

  20375741.780   108843547.463 8  20375742.520    84656087.446 7

 20  3  7  1 19 30.0000000  0 16G01G10G12G14G20G25G26G29G31G32R05R06
                                R07R09R10R16
  25694588.060   135025972.239 5  25694591.860   105215045.12745  25694590.220
 100831090.541 4
  20711001.040   108837036.844 9  20711001.880    84808082.11349  20710999.760
  81274404.385 9
  23898124.080   125585456.343 8  23898123.080    97858796.85145

  22162718.560   116465876.787 8  22162717.380    90752600.89747

  22645833.580   119004640.614 8  22645832.360    92730869.15146

  21220946.320   111516818.226 9  21220948.540    86896216.36249  21220948.160
  83275548.613 9
  22921509.800   120453367.807 8  22921512.740    93859769.18448  22921511.300
  89948962.472 8
  24699974.320   129799223.000 7  24699976.500   101142295.66945

  21296930.820   111916129.939 9  21296929.260    87207338.95549

  21044344.900   110588781.684 9  21044345.900    86173089.69649  21044344.500
  82582515.556 9
  21273243.860   113717672.512 9  21273245.000    88447095.432 8

  19462765.540   103857065.655 8

  22440464.160   120125566.429 9  22440464.460    93430998.191 7

  20005416.520   106827846.054 9  20005417.580    83088303.518 9

  22899709.560   122068358.173 8

  20391922.900   108929983.018 8  20391923.440    84723315.083 7

 20  3  7  1 20  0.0000000  0 16G01G10G12G14G20G25G26G29G31G32R05R06
                                R07R09R10R16
  25694063.860   135023215.723 4  25694067.880   105212912.98544  25694066.220
 100829033.964 4
  20721615.160   108892814.342 9  20721616.040    84851545.07249  20721613.820
  81316056.371 9
  23916117.800   125680012.574 8  23916116.680    97932477.00145

  22153430.000   116417064.639 8  22153428.700    90714565.46547

  22665501.620   119107997.345 8  22665500.500    92811406.79046

  21230742.440   111568296.842 9  21230744.580    86936329.55149  21230744.100
  83313990.427 9
  22901631.080   120348904.686 8  22901634.080    93778369.38948  22901632.640
  89870954.346 8
  24689653.780   129744989.239 8  24689655.780   101100035.69045

  21293269.960   111896891.693 9  21293268.400    87192348.11249

  21039049.700   110560955.073 9  21039050.640    86151406.61849  21039049.280
  82561735.927 9
  21286735.480   113789793.234 9  21286736.760    88503189.287 8

  19454866.900   103814916.932 7

  22419696.460   120014395.514 8  22419696.960    93344531.932 7

  19997709.320   106786689.787 9  19997710.440    83056293.091 9

  22880934.420   121968276.335 8

  20408166.300   109016752.051 8  20408166.680    84790802.099 7

 20  3  7  1 20 30.0000000  0 16G10G12G14G16G20G25G26G29G31G32R05R06
                                R07R09R10R16
  20732327.460   108949108.494 9  20732328.520    84895410.62549  20732326.220
  81358094.185 9
  23934169.300   125774874.501 8  23934168.440    98006395.32045

  22144140.200   116368245.572 9  22144138.580    90676524.63046

  25791372.880   135534578.098 4

  22685203.380   119211531.515 8  22685202.600    92892082.71446

  21240643.220   111620325.178 9  21240645.320    86976871.10349  21240644.740
  83352842.747 9
  22881789.940   120244639.470 8  22881793.140    93697123.81748  22881791.660
  89793094.020 8
  24679340.440   129690792.671 8  24679342.220   101057804.69244

  21289667.280   111877959.839 9  21289665.700    87177596.02949

  21033782.800   110533277.721 9  21033783.760    86129839.84249  21033782.380
  82541067.776 9
  21300323.200   113862427.807 9  21300324.600    88559682.800 8

  19447069.060   103773306.126 8

  22398935.500   119903260.239 8  22398935.680    93258093.394 7

  19990116.480   106746144.125 9  19990117.520    83024757.570 9

  22862227.760   121868559.084 8

  20424471.880   109103853.380 8  20424472.240    84858547.569 7

 20  3  7  1 21  0.0000000  0 16G10G12G14G16G20G25G26G29G31G32R05R06
                                R07R09R10R16
  20743137.000   109005914.337 9  20743138.380    84939674.89249  20743136.080
  81400514.109 9
  23952277.680   125870035.865 7  23952276.920    98080546.97545

  22134848.640   116319417.343 8  22134846.820    90638476.64347

  25769161.400   135417855.384 6  25769161.780   105520413.01344

  22704937.760   119315236.868 8  22704937.240    92972892.00046

  21250647.600   111672898.021 9  21250649.600    87017836.96549  21250649.020
  83392101.697 9
  22861986.360   120140571.701 8  22861989.580    93616032.09148  22861988.100
  89715381.128 8
  24669034.160   129636632.928 7  24669036.020   101015602.38045

  21286122.360   111859330.058 9  21286120.540    87163079.31449

  21028544.140   110505748.088 9  21028545.040    86108388.16349  21028543.580
  82520509.914 9
  21314006.340   113935572.029 9  21314007.780    88616572.710 8

  19439372.140   103732233.512 8

  22378181.240   119792160.346 8  22378181.040    93171682.384 6

  19982637.360   106706205.927 9  19982638.200    82993694.533 9

  22843589.120   121769205.151 8

  20440838.360   109191279.581 8  20440838.580    84926545.712 6

 20  3  7  1 21 30.0000000  0 16G10G12G14G16G20G25G26G29G31G32R05R06
                                R07R09R10R16
  20754044.780   109063235.846 9  20754046.340    84984340.98249  20754044.100
  81443319.107 9
  23970443.900   125965499.614 7  23970443.040    98154934.28145

  22125556.420   116270586.713 8  22125554.700    90600426.81447

  25746933.640   135301049.356 5  25746934.760   105429395.25943

  22724705.500   119419116.725 8  22724704.960    93053837.26946

  21260756.300   111726019.194 9  21260758.200    87059230.07449  21260757.580
  83431770.101 9
  22842222.100   120036709.855 8  22842225.300    93535100.84348  22842223.880
  89637822.021 8
  24658736.700   129582518.921 7  24658738.460   100973435.67945

  21282635.780   111841006.992 9  21282633.760    87148801.61349

  21023335.060   110478373.602 9  21023336.040    86087057.38949  21023334.540
  82500067.910 9
  21327785.840   114009230.656 9  21327787.260    88673862.709 8

  19431777.640   103691707.941 8

  22357435.380   119681105.226 8  22357434.960    93085306.184 6

  19975273.140   106666880.794 9  19975273.900    82963108.320 9

  22825020.140   121670222.356 8

  20457265.800   109279032.511 8  20457266.180    84994797.974 7

 20  3  7  1 22  0.0000000  0 16G10G12G14G16G20G25G26G29G31G32R05R06
                                R07R09R10R16
  20765048.600   109121060.565 9  20765050.040    85029399.18449  20765047.860
  81486499.877 9
  23988665.200   126061252.472 7  23988664.160    98229546.86145

  22116262.080   116221744.298 8  22116260.300    90562367.77947

  25724691.220                    25724694.920

  22744504.020   119523157.954 8  22744503.400    93134908.28746

  21270966.820   111779676.017 9  21270968.600    87101040.58249  21270968.320
  83471838.496 9
  22822495.480   119933046.022 8  22822498.760    93454323.87348  22822497.320
  89560410.766 8
  24648446.360   129528442.898 8  24648447.700   100931298.61945

  21279205.020   111822978.771 9  21279203.160    87134753.65049

  21018153.800   110451145.269 9  21018154.700    86065840.50049  21018153.240
  82479735.061 9
  21341659.440   114083391.671 9  21341660.800    88731543.461 8

  19424284.200   103651721.894 8

  22336696.280   119570087.101 8  22336695.880    92998958.772 6

  19968021.560   106628157.930 9  19968022.360    82932990.545 9

  22806519.400   121571602.305 8

  20473751.560   109367097.641 8  20473752.300    85063293.046 7

 20  3  7  1 22 30.0000000  0 16G10G12G14G16G20G25G26G29G31G32R05R06
                                R07R09R10R16
  20776150.380   109179399.317 9  20776151.600    85074857.93149  20776149.320
  81530064.501 9
  24006943.300   126157304.462 8  24006942.080    98304392.49645

  22106968.180   116172903.767 9  22106966.280    90524310.20847

  25702433.240

  22764335.060   119627370.079 8  22764334.460    93216112.46246

  21281281.280   111833879.186 9  21281283.160    87143276.80749  21281282.920
  83512314.880 9
  22802809.540   119829595.557 8  22802812.800    93373713.14848  22802811.280
  89483158.823 8
  24638166.260   129474420.332 7  24638167.520   100889203.20146

  21275832.440   111805256.744 9  21275830.760    87120944.27849

  21013002.940   110424077.438 9  21013003.800    86044748.67549  21013002.400
  82459522.053 9
  21355629.180   114158066.727 9  21355630.400    88789624.022 8

  19416894.880   103612291.429 8

  22315967.180   119459122.630 8  22315966.660    92912653.062 7

  19960885.400   106590050.448 9  19960885.920    82903351.395 9

  22788089.340   121473360.034 8

  20490297.400   109455483.568 8  20490298.320    85132037.642 7

 20  3  7  1 23  0.0000000  0 17G10G12G14G16G20G22G25G26G29G31G32R05
                                R06R07R09R10R16
  20787347.920   109238241.670 9  20787348.900    85120709.08949  20787346.640
  81574005.191 9
  24025276.200   126253643.543 8  24025274.780    98379461.88945

  22097672.880   116124057.592 8  22097671.120    90486248.26247

  25680156.400   134950127.32417  25680158.920   105155949.32754

  22784196.500   119731741.891 8  22784195.900    93297441.08845

  25524054.200

  21291697.620   111888618.050 9  21291699.600    87185930.45949  21291699.460
  83553191.285 9
  22783163.040   119726352.542 8  22783166.300    93293264.08248  22783164.720
  89406061.823 8
  24627894.940   129420445.453 7  24627896.200   100847144.94845

  21272516.260   111787831.078 9  21272514.720    87107365.83749

  21007881.340   110397163.185 9  21007882.140    86023776.52649  21007880.840
  82439423.742 9
  21369693.120   114233246.252 9  21369694.280    88848096.949 8

  19409608.640   103573411.011 8

  22295247.080   119348205.868 8  22295246.500    92826384.484 6

  19953862.660   106552549.211 9  19953863.140    82874183.772 8

  22769728.840   121375488.928 8

  20506901.060   109544177.885 8  20506902.060    85201022.104 6

 20  3  7  1 23 30.0000000  0 17G10G12G14G16G20G22G25G26G29G31G32R05
                                R06R07R09R10R16
  20798641.260   109297588.115 9  20798642.160    85166953.05249  20798639.920
  81618322.328 9
  24043663.460   126350269.549 7  24043662.160    98454754.84445

  22088377.200   116075209.515 8  22088375.660    90448184.83547

  25657870.000                    25657866.260

  22804088.280   119836273.110 8  22804087.660    93378893.91646

  25506309.740   134036555.45614  25506313.240   104444074.56943

  21302215.960   111943892.920 9  21302218.020    87229001.77449  21302217.880
  83594467.958 9
  22763556.940   119623322.099 8  22763560.200    93212980.66048  22763558.620
  89329123.566 8
  24617633.780   129366523.776 7  24617635.280   100805128.16545

  21269256.820   111770703.144 9  21269255.320    87094019.39949

  21002789.700   110370406.573 9  21002790.380    86002927.20349  21002789.380
  82419443.145 9
  21383851.480   114308931.137 9  21383852.760    88906962.938 8

  19402426.520   103535086.064 8

  22274536.580   119237342.703 8  22274536.400    92740157.616 7

  19946953.860   106515656.818 9  19946954.300    82845489.687 8

  22751438.840   121277993.120 7

  20523562.320   109633179.244 8  20523563.300    85270245.371 6

 20  3  7  1 24  0.0000000  0 17G10G12G14G16G20G22G25G26G29G31G32R05
                                R06R07R09R10R16
  20810029.380   109357433.214 9  20810030.400    85213585.56949  20810028.080
  81663011.814 9
  24062104.300   126447176.386 7  24062103.280    98530266.61046

  22079080.680   116026356.837 8  22079079.260    90410117.81447

  25635566.160   134715793.39516  25635566.560   104973364.24454

  22824009.120   119940957.376 8  22824008.520    93460465.99346

  25488594.400   133943466.670 5  25488590.860   104371554.67943

  21312835.260   111999698.128 9  21312837.240    87272486.33749  21312837.120
  83636140.671 9
  22743991.060   119520503.373 8  22743994.480    93132862.21848  22743992.780
  89252343.390 8
  24607382.640   129312654.434 7  24607384.020   100763152.13646

  21266053.200   111753867.970 9  21266051.760    87080901.09249

  20997727.500   110343805.667 9  20997728.460    85982199.22149  20997727.280
  82399578.838 9
  21398103.480   114385116.502 9  21398104.740    88966218.171 8

  19395348.500   103497316.409 8

  22253836.140   119126533.041 8  22253836.440    92653972.324 7

  19940158.480   106479369.214 9  19940158.660    82817266.009 9

  22733218.900   121180871.314 8

  20540279.580   109722479.523 8  20540280.340    85339701.125 6

 20  3  7  1 24 30.0000000  0 18G01G10G12G14G16G20G22G25G26G29G31G32
                                R05R06R07R09R10R16
  25692935.160   135017280.733 4  25692937.740   105208278.36544  25692936.240
 100824599.882 4
  20821513.460   109417782.677 9  20821514.580    85260611.09649  20821512.260
  81708077.944 9
  24080599.520   126544368.748 7  24080598.580    98606000.86446

  22069785.040   115977508.340 8  22069783.700    90372054.05547

  25613251.500                    25613253.500

  22843959.920   120045799.719 8  22843959.440    93542161.24446

  25470911.000

  21323556.660   112056039.220 8  21323558.500    87316388.47949  21323558.540
  83678213.545 9
  22724467.500   119417906.693 8  22724470.960    93052916.79448  22724469.160
  89175729.019 8
  24597143.580   129258848.039 7  24597144.980   100721225.19045

  21262906.680   111737332.168 9  21262905.200    87068016.05649

  20992696.900   110317369.873 9  20992698.100    85961599.90049  20992696.620
  82379837.809 9
  21412450.420   114461809.073 9  21412451.740    89025867.909 8

  19388376.640   103460112.617 8

  22233147.920   119015787.882 8  22233148.360    92567837.222 7

  19933477.520   106443693.890 9  19933477.840    82789518.523 9

  22715071.100   121084133.680 8

  20557053.660   109812082.950 8  20557054.260    85409392.657 7

 20  3  7  1 25  0.0000000  0 17G01G10G12G14G16G20G25G26G29G31G32R05
                                R06R07R09R10R16
  25693204.420   135018697.864 5  25693207.260   105209380.79846  25693206.420
 100825657.481 5
  20833092.320   109478630.152 9  20833093.500    85308024.69549  20833091.280
  81753515.964 9
  24099147.460   126641839.091 7  24099146.720    98681951.74245

  22060489.620   115928660.920 8  22060488.380    90333991.13747

  25590918.540   134481193.380 7  25590920.420   104790547.87353

  22863939.400   120150792.808 8  22863939.080    93623973.96846

  21334378.760   112112909.685 9  21334380.620    87360703.11949  21334380.620
  83720681.747 9
  22704985.900   119315530.315 8  22704989.200    92973143.02848  22704987.600
  89099279.183 8
  24586916.060   129205103.220 7  24586917.480   100679346.22145

  21259816.040   111721089.994 9  21259814.480    87055359.83349

  20987697.220   110291096.403 9  20987698.480    85941127.06949  20987696.940
  82360218.016 9
  21426891.020   114539002.775 9  21426892.460    89085907.410 8

  19381510.540   103423473.768 8

  22212471.500   118905106.150 8  22212472.060    92481751.449 7

  19926910.620   106408626.428 9  19926910.840    82762243.843 9

  22696995.020   120987777.333 8

  20573882.980   109901981.040 8  20573883.340    85479313.381 6

 20  3  7  1 25 30.0000000  0 17G01G10G12G14G16G20G25G26G29G31G32R05
                                R06R07R09R10R16
  25693551.900   135020523.737 5  25693555.120   105210809.73945  25693552.940
 100827019.986 5
  20844765.160   109539971.327 9  20844766.380    85355822.99049  20844764.200
  81799322.661 9
  24117747.380   126739583.100 7  24117746.820    98758115.82145

  22051194.160   115879813.252 8  22051192.980    90295928.01547

  25568576.700   134363772.166 6  25568577.000   104699056.70044

  22883946.600   120255931.477 8  22883946.380    93705900.12446

  21345300.900   112170305.009 9  21345302.600    87405426.74449  21345302.620
  83763541.878 9
  22685546.240   119213374.627 8  22685549.420    92893541.22848  22685547.900
  89022994.131 8
  24576700.400   129151420.211 7  24576702.020   100637515.41345

  21256780.480   111705137.966 9  21256778.960    87042929.68349

  20982728.460   110264984.647 9  20982729.480    85920780.22449  20982728.020
  82340718.952 9
  21441424.760   114616694.121 9  21441426.180    89146333.977 8

  19374750.540   103387400.179 8

  22191807.280   118794488.732 8  22191807.860    92395715.673 7

  19920456.940   106374163.988 9  19920457.080    82735439.716 9

  22678990.240   120891801.919 8

  20590766.240   109992167.568 8  20590766.440    85549458.437 7

 20  3  7  1 26  0.0000000  0 17G01G10G12G14G16G20G25G26G29G31G32R05
                                R06R07R09R10R16
  25693977.660                    25693980.200                    25693978.940
 100828690.550 5
  20856532.580   109601809.584 9  20856533.840    85404008.62249  20856531.700
  81845500.548 9
  24136399.760   126837602.242 7  24136399.100    98834494.33245

  22041899.920   115830972.123 8  22041898.960    90257870.00247

  25546222.020   134246291.954 6  25546223.700   104607501.71945

  22903982.060   120361218.448 8  22903981.800    93787941.84546

  21356323.400   112228228.395 9  21356325.140    87450561.83049  21356324.900
  83806796.349 9
  22666150.100   119111447.594 8  22666153.360    92814117.60948  22666151.820
  88946879.830 8
  24566498.240   129097807.779 7  24566499.740   100595739.59145

  21253800.660   111689479.923 9  21253799.280    87030728.61149

  20977791.560   110239041.593 9  20977792.640    85900564.85149  20977791.180
  82321345.880 9
  21456052.360   114694887.328 9  21456053.960    89207150.883 8

  19368097.920   103351900.196 8

  22171156.840   118683944.839 9  22171157.500    92309737.121 7

  19914117.480   106340311.753 9  19914117.760    82709110.188 9

  22661058.200   120796214.953 8

  20607703.600   110082644.108 8  20607703.980    85619829.069 7

 20  3  7  1 26 30.0000000  0 17G01G10G12G14G16G20G25G26G29G31G32R05
                                R06R07R09R10R16
  25694480.840                    25694483.380                    25694482.280
 100830664.475 4
  20868393.200   109664137.757 9  20868394.460    85452576.00149  20868392.340
  81892044.290 9
  24155103.040   126935888.925 7  24155102.080    98911081.29045

  22032606.180   115782133.047 8  22032605.240    90219813.58047

  25523854.760   134128756.667 5  25523855.640   104515911.70844

  22924044.100   120466645.974 8  22924043.980    93870093.07746

  21367444.860   112286672.532 9  21367446.720    87496102.70749  21367446.500
  83850439.669 9
  22646797.060   119009746.788 8  22646800.340    92734870.26648  22646798.800
  88870934.481 8
  24556309.160   129044263.219 7  24556310.280   100554016.65946

  21250875.580   111674109.570 9  21250874.440    87018751.71049

  20972886.240   110213263.828 9  20972887.320    85880478.27349  20972885.820
  82302096.245 9
  21470772.580   114773575.594 9  21470774.400    89268352.830 8

  19361552.260   103316971.684 8

  22150519.840   118573472.498 9  22150520.340    92223814.218 7

  19907891.280   106307064.294 9  19907891.560    82683251.055 9

  22643198.400   120701013.123 8

  20624693.500   110173401.040 8  20624693.780    85690417.777 7

 20  3  7  1 27  0.0000000  0 18G01G10G12G14G16G20G22G25G26G29G31G32
                                R05R06R07R09R10R16
  25695061.080   135028456.257 4  25695064.140   105216991.99554  25695062.980
 100832945.870 4
  20880347.100   109726956.732 9  20880348.520    85501525.83249  20880346.400
  81938954.535 9
  24173857.360   127034443.106 7  24173856.340    98987876.72744

  22023313.420   115733300.289 8  22023312.700    90181762.09447

  25501476.420   134011156.792 5  25501478.060   104424275.51844

  22944133.020   120572214.068 8  22944132.740    93952353.84445

  25382976.800

  21378665.720   112345638.087 9  21378667.560    87542049.87949  21378667.380
  83894472.380 9
  22627488.160   118908277.783 8  22627491.400    92655803.54648  22627489.760
  88795162.208 8
  24546133.940   128990792.292 7  24546135.080   100512351.06845

  21248005.640   111659028.532 9  21248004.640    87007000.25049

  20968013.260   110187655.946 9  20968014.460    85860524.07349  20968012.680
  82282973.458 9
  21485585.680   114852760.590 9  21485587.620    89329941.120 8

  19355114.980   103282620.967 8

  22129897.380   118463077.880 9  22129897.580    92137951.748 7

  19901778.840   106274423.965 9  19901779.060    82657864.118 9

  22625411.920   120606201.162 8

  20641735.820   110264437.784 8  20641736.020    85761224.122 6

 20  3  7  1 27 30.0000000  0 18G01G10G12G14G16G20G22G25G26G29G31G32
                                R05R06R07R09R10R16
  25695718.400                                                    25695721.240
 100835529.354 4
  20892394.660   109790267.555 9  20892396.220    85550858.91649  20892394.040
  81986232.068 9
  24192662.640   127133265.178 7  24192661.580    99064880.87445

  22014022.880   115684478.400 8  22014022.180    90143719.07447

  25479087.120                    25479087.720

  22964248.840   120677923.222 8  22964248.280    94034724.54146

  25365491.280   133296552.463 5

  21389986.040   112405125.922 9  21389987.820    87588404.02749  21389987.720
  83938895.108 9
  22608224.320   118807046.322 8  22608227.740    92576921.92948  22608225.980
  88719567.333 8
  24535973.740   128937401.781 7  24535975.260   100470748.17245

  21245191.300   111644238.689 9  21245190.240    86995475.70149

  20963173.400   110162222.723 9  20963174.620    85840705.97449  20963172.900
  82263981.108 9
  21500492.060   114932443.873 9  21500493.940    89391916.953 8

  19348787.000   103248853.859 8

  22109290.700   118352767.858 9  22109290.560    92052155.075 7

  19895780.720   106242393.909 9  19895780.940    82632951.857 9

  22607699.440   120511784.420 8

  20658830.100   110355753.508 8  20658830.480    85832247.450 6

 20  3  7  1 28  0.0000000  0 18G01G10G12G14G16G20G22G25G26G29G31G32
                                R05R06R07R09R10R16
  25696454.160                    25696457.660                    25696456.320
 100838412.153 4
  20904533.840   109854059.169 9  20904535.460    85600566.64949  20904533.080
  82033868.643 9
  24211516.560   127232343.296 7  24211515.540    99142084.57345

  22004733.100   115635659.478 8  22004732.300    90105678.35047

  25456686.360   133775790.919 7  25456688.080   104240871.98754

  22984389.340   120783761.859 8  22984388.800    94117196.10046

  25348038.160   133204834.169 5  25348034.740   103795974.03444

  21401403.460   112465124.819 9  21401405.380    87635156.40849  21401405.040
  83983699.475 9
  22589004.620   118706046.080 8  22589007.980    92498220.47548  22589006.200
  88644145.131 8
  24525827.780   128884084.822 7  24525829.320   100429202.53945

  21242430.440   111629729.757 9  21242429.320    86984170.04249

  20958365.480   110136956.872 9  20958366.640    85821018.28249  20958365.160
  82245113.746 9
  21515489.860   115012614.942 9  21515491.620    89454272.189 7

  19342567.160   103215664.217 8

  22088698.480   118242536.614 9  22088698.300    91966419.675 7

  19889895.060   106210964.260 9  19889895.180    82608506.576 9

  22590060.020   120417755.720 8

  20675974.220   110447335.089 8  20675974.780    85903477.552 6

 20  3  7  1 28 30.0000000  0 18G01G10G12G14G16G20G22G25G26G29G31G32
                                R05R06R07R09R10R16
                                                                  25697268.420
 100841600.346 4
  20916765.600   109918337.441 9  20916767.180    85650653.62449  20916764.720
  82081868.630 9
  24230420.220   127331682.805 7  24230419.600    99219491.92545

  21995445.560   115586852.414 8  21995444.520    90067646.88547

  25434276.540   133658026.891 6  25434277.880   104149107.69045

  23004555.460   120889734.670 8  23004554.880    94199772.26345

  25330619.860   133113300.582 5  25330616.860   103724649.21244

  21412919.200   112525640.457 9  21412921.220    87682311.45949  21412920.600
  84028889.720 9
  22569831.000   118605287.636 8  22569834.260    92419707.47548  22569832.280
  88568903.488 8
  24515698.020   128830852.371 7  24515699.520   100387722.82045

  21239724.260   111615508.402 9  21239723.040    86973088.49149

  20953591.120   110111868.061 9  20953592.220    85801468.57449  20953590.960
  82226378.589 9
  21530580.080   115093280.562 9  21530581.780    89517012.083 8

  19336457.660   103183063.429 8

  22068123.240   118132395.716 9  22068123.200    91880754.572 7

  19884123.140   106180142.639 9  19884123.300    82584534.229 9

  22572495.240   120324125.153 8

  20693169.100   110539186.870 8  20693169.800    85974917.826 7

 20  3  7  1 29  0.0000000  0 18G01G10G12G14G16G20G22G25G26G29G31G32
                                R05R06R07R09R10R16
                                                                  25698156.880
 100845087.650 4
  20929089.280   109983098.548 9  20929090.740    85701116.78049  20929088.340
  82130229.181 9
  24249372.820   127431278.759 7  24249372.220    99297099.11845

  21986160.260   115538057.076 8  21986159.020    90029624.52247

  25411856.880                    25411858.660

  23024746.200   120995837.239 8  23024745.580    94282449.48146

  25313236.380                    25313233.700

  21424532.560   112586668.910 9  21424534.360    87729866.05749  21424533.940
  84074462.883 9
  22550703.660   118504771.997 8  22550706.840    92341383.61948  22550704.780
  88493843.144 8
  24505584.700   128777706.033 7  24505585.940   100346310.13146

  21237072.280   111601571.590 9  21237070.900    86962228.61749

  20948850.500   110086956.324 9  20948851.800    85782056.80849  20948850.440
  82207775.655 9
  21545762.180   115174437.203 9  21545764.100    89580133.838 8

  19330458.620   103151052.288 8

  22047565.300   118022347.077 9  22047565.300    91795161.179 7

  19878464.720   106149927.120 9  19878464.920    82561033.258 9

  22555005.080   120230892.739 8

  20710413.460   110631303.063 8  20710414.200    86046563.719 6

 20  3  7  1 29 30.0000000  0 18G01G10G12G14G16G20G22G25G26G29G31G32
                                R05R06R07R09R10R16
                                                                  25699121.580
 100848872.626 5
  20941503.860   110048337.099 9  20941505.260    85751951.99049  20941502.900
  82178946.244 9
  24268372.960   127531124.956 7  24268372.540    99374901.30845

  21976876.700   115489271.224 8  21976875.380    89991609.57247

  25389427.780   133422343.918 6  25389430.060   103965462.55454

  23044960.500   121102063.866 8  23044959.920    94365223.38046

  25295888.180   132930789.934 6  25295885.380   103582431.62454

  21436242.640   112648204.450 9  21436244.140    87777815.81749  21436243.980
  84120414.739 9
  22531622.280   118404498.448 8  22531625.420    92263248.41848  22531623.440
  88418963.587 8
  24495487.580   128724645.099 7  24495488.800   100304964.00245

  21234473.540   111587914.757 9  21234472.100    86951586.94149

  20944143.540   110062220.015 9  20944144.720    85762781.74449  20944143.300
  82189303.716 9
  21561035.240   115256080.181 9  21561037.180    89643633.878 8

  19324570.120   103119629.889 8

  22027024.700   117912390.475 9  22027024.540    91709639.380 7

  19872918.980   106120313.501 9  19872919.240    82538000.443 9

  22537589.300   120138056.685 8

  20727706.160   110723676.569 8  20727706.880    86118409.762 7

 20  3  7  1 30  0.0000000  0 18G01G10G12G14G16G20G22G25G26G29G31G32
                                R05R06R07R09R10R16
                                                                  25700162.300
 100852956.405 5
  20954009.340   110114053.817 9  20954010.760    85803159.82449  20954008.440
  82228020.402 9
  24287420.740   127631221.553 7  24287420.560    99452898.59546

  21967595.680   115440499.037 8  21967594.340    89953605.27547

  25366990.180   133304434.982 5  25366993.220   103873585.45945

  23065198.500   121208414.562 8  23065198.020    94448093.96846

  25278576.380   132839815.230 6  25278574.140   103511542.18745

  21448049.220   112710247.766 9  21448050.480    87826161.27449  21448050.520
  84166745.779 9
  22512587.920   118304472.468 8  22512591.080    92185306.13448  22512589.160
  88344268.886 8
  24485407.640   128671675.508 7  24485409.060   100263689.06846

  21231928.260   111574539.488 9  21231926.900    86941164.66649

  20939470.820   110037663.789 9  20939471.900    85743647.03249  20939470.540
  82170966.271 9
  21576399.620   115338210.983 9  21576401.340    89707513.361 8

  19318793.400   103088803.076 8

  22006502.340   117802532.771 9  22006502.420    91624194.547 8

  19867486.540   106091304.545 9  19867486.860    82515437.946 9

  22520248.640   120045622.145 8

  20745046.820   110816306.635 8  20745047.560    86190455.369 7

 20  3  7  1 30 30.0000000  0 18G01G10G12G14G16G20G22G25G26G29G31G32
                                R05R06R07R09R10R16
                                                                  25701278.960
 100857338.272 5
  20966605.380   110180246.672 9  20966606.760    85854738.63149  20966604.580
  82277450.100 9
  24306515.660   127731566.402 7  24306515.440    99531089.33545

  21958317.600   115391742.125 8  21958316.440    89915612.85747

  25344544.680   133186479.935 5  25344548.040   103781675.55644

  23085459.660   121314886.980 8  23085459.280    94531059.36245

  25261300.980   132749032.233 6  25261299.140   103440802.19645

  21459951.860   112772796.788 9  21459953.220    87874900.74049  21459953.180
  84213454.435 9
  22493601.120   118204697.112 8  22493604.260    92107559.11748  22493602.740
  88269761.356 8
  24475345.620   128618800.513 7  24475347.320   100222487.80445

  21229436.320   111561444.665 9  21229435.020    86930960.90249

  20934832.540   110013289.618 9  20934833.600    85724654.14749  20934832.340
  82152764.781 9
  21591854.900   115420828.159 9  21591856.700    89771771.103 8

  19313128.640   103058574.113 8

  21985999.240   117692777.577 8  21985999.300    91538829.386 8

  19862167.360   106062899.671 9  19862167.580    82493345.249 9

  22502983.660   119953590.886 8

  20762434.580   110909189.286 8  20762435.480    86262697.383 7

 20  3  7  1 31  0.0000000  0 18G01G10G12G14G16G20G22G25G26G29G31G32
                                R05R06R07R09R10R16
                                                                  25702471.260
 100862016.169 5
  20979291.380   110246912.438 9  20979292.820    85906685.95849  20979290.700
  82327232.950 9
  24325656.880   127832154.728 7  24325656.580    99609469.79645

  21949042.280   115343000.430 8  21949041.340    89877632.31447

  25322091.960   133068488.309 7  25322095.360   103689734.01444

  23105743.340   121421476.893 8  23105742.800    94614116.32846

  25244062.100   132658442.531 6  25244060.360   103370212.82244

  21471950.080   112835847.804 9  21471951.520    87924031.38649  21471951.340
  84260537.980 9
  22474662.380   118105173.630 8  22474665.500    92030008.38248  22474664.120
  88195441.900 8
  24465302.020   128566021.711 7  24465303.800   100181361.52646

  21226997.220   111548627.515 9  21226995.960    86920973.52249

  20930229.160   109989097.904 9  20930230.200    85705803.45749  20930228.700
  82134699.531 9
  21607400.500   115503928.643 9  21607402.480    89836404.770 7

  19307576.260   103028944.824 8

  21965515.640   117583127.158 8  21965515.560    91453545.743 7

  19856960.740   106035096.826 9  19856961.060    82471720.809 8

  22485794.560   119861963.905 8

  20779868.800   111002319.674 8  20779869.760    86335132.117 6

 20  3  7  1 31 30.0000000  0 18G01G10G12G14G16G20G22G25G26G29G31G32
                                R05R06R07R09R10R16
                                                                  25703738.840
 100866989.399 4
  20992067.100   110314049.218 9  20992068.580    85959000.30849  20992066.480
  82377367.531 9
  24344844.220   127932984.613 7  24344843.900    99688038.48845

  21939770.360   115294275.369 8  21939769.260    89839664.72947

  25299631.960   132950458.670 7  25299634.980   103597762.85944

  23126048.920   121528182.033 8  23126048.180    94697263.09646

  25226861.020   132568048.803 7  25226858.660   103299776.14145

  21484043.340   112899398.879 8  21484044.760    87973551.69649  21484044.660
  84307994.946 9
  22455772.060   118005905.032 8  22455775.320    91952656.26748  22455773.980
  88121312.791 8
  24455277.500   128513342.661 7  24455279.160   100140312.95945

  21224610.660   111536087.340 9  21224609.680    86911201.96649

  20925660.760   109965090.756 9  20925661.820    85687096.58849  20925660.220
  82116772.109 9
  21623036.380   115587511.660 9  21623038.620    89901413.734 8

  19302136.740   102999918.602 8

  21945052.220   117473585.497 9  21945052.220    91368346.672 7

  19851866.700   106007896.010 9  19851867.160    82450564.617 9

  22468681.620   119770742.971 8

  20797348.680   111095694.125 8  20797349.700    86407756.673 6

 20  3  7  1 32  0.0000000  0 18G01G10G12G14G16G20G22G25G26G29G31G32
                                R05R06R07R09R10R16
                                                                  25705080.440
 100872257.585 3
  21004931.700   110381652.982 9  21004933.180    86011678.52749  21004931.160
  82427850.816 9
  24364076.520   128034050.889 7  24364076.160    99766791.36944

  21930501.360   115245566.124 8  21930500.240    89801709.47847

  25277164.600   132832391.586 6  25277167.240   103505762.49144

  23146375.420   121634997.762 8  23146374.640    94780496.02246

  25209697.060   132477851.036 7  25209694.700   103229492.13945

  21496230.860   112963445.807 8  21496232.500    88023458.37948  21496232.260
  84355822.183 9
  22436930.460   117906892.116 8  22436933.660    91875503.37648  22436932.500
  88047374.626 8
  24445272.320   128460764.052 7  24445273.500   100099342.67046

  21222276.100   111523820.900 9  21222275.500    86901643.70949

  20921127.580   109941268.090 9  20921128.480    85668533.46449  20921126.740
  82098982.444 9
  21638761.920   115671573.229 9  21638764.100    89966794.905 8

  19296810.460   102971496.532 8

  21924609.500   117364154.081 8  21924609.300    91283233.335 7

  19846884.880   105981294.595 9  19846885.600    82429874.635 9

  22451644.780   119679927.813 8

  20814873.100   111189307.037 8  20814874.020    86480566.708 7

 20  3  7  1 32 30.0000000  0 18G01G10G12G14G16G20G22G25G26G29G31G32
                                R05R06R07R09R10R16
  25706497.560

  21017885.280   110449724.286 9  21017886.740    86064721.07949  21017884.760
  82478683.260 9
  24383353.980   128135353.553 7  24383353.420    99845728.44745

  21921236.240   115196877.256 8  21921235.020    89763770.10047

  25254691.220   132714292.956 7  25254693.840   103413737.60944

  23166722.960   121741924.297 8  23166722.200    94863815.29945

  25192571.200   132387854.536 7  25192569.020   103159365.02344

  21508512.900   113027989.056 9  21508514.720    88073751.80949  21508514.440
  84404020.044 9
  22418138.500   117808140.378 8  22418141.780    91798553.99648  22418140.420
  87973631.462 8
  24435287.140   128408291.688 7  24435288.380   100058455.14346

  21219993.940   111511829.784 9  21219993.720    86892299.97849

  20916630.340   109917634.511 9  20916631.200    85650117.67249  20916629.280
  82081333.971 9
  21654577.360   115756115.016 9  21654579.340    90032549.578 8

  19291598.400   102943684.059 8

  21904188.540   117254839.664 8  21904188.460    91198211.040 8

  19842015.960   105955294.978 9  19842016.700    82409652.703 9

  22434684.980   119589523.484 8

  20832441.800   111283157.506 8  20832442.920    86553561.488 7

 20  3  7  1 33  0.0000000  0 17G10G12G14G16G20G22G25G26G29G31G32R05
                                R06R07R09R10R16
  21030927.180   110518259.568 9  21030928.580    86118125.17049  21030926.640
  82529862.177 9
  24402675.760   128236888.734 7  24402674.980    99924846.72044

  21911974.940   115148208.933 8  21911973.700    89725846.72947

  25232211.780   132596163.511 6  25232214.980   103321688.66644

  23187090.820   121848957.490 8  23187090.080    94947217.68145

  25175484.120   132298060.405 7  25175481.560   103089395.57644

  21520888.740   113093024.810 9  21520890.720    88124429.00649  21520890.460
  84452585.697 9
  22399396.520   117709651.028 8  22399399.820    91721809.08248  22399398.380
  87900084.268 8
  24425322.360   128355927.006 7  24425324.060   100017651.56945

  21217763.900   111500111.173 9  21217763.720    86883168.60549

  20912169.020   109894190.400 9  20912169.840    85631849.52349  20912168.200
  82063826.995 9
  21670481.900   115841133.590 9  21670484.020    90098675.083 7

  19286500.700   102916482.390 8

  21883789.880   117145644.602 8  21883790.040    91113281.572 7

  19837259.460   105929894.751 9  19837260.000    82389896.983 9

  22417802.600   119499530.211 8

  20850054.140   111377240.413 8  20850055.160    86626737.070 6

 20  3  7  1 33 30.0000000  0 17G10G12G14G16G20G22G25G26G29G31G32R05
                                R06R07R09R10R16
  21044056.780   110587255.911 9  21044058.160    86171888.52849  21044056.260
  82581385.389 9
  24422040.980   128338652.551 7  24422039.920   100004143.16044

  21902717.640   115099561.575 9  21902716.400    89687939.69547

  25209727.000   132478005.079 7  25209729.960   103229617.18343

  23207478.260   121956093.822 8  23207477.620    95030700.43045

  25158435.680   132208470.340 7  25158432.940   103019585.12844

  21533357.800   113158550.063 9  21533359.880    88175487.63449  21533359.700
  84501516.869 9
  22380704.740   117611426.047 8  22380708.160    91645270.15548  22380706.680
  87826734.469 8
  24415378.320   128303672.692 7  24415380.380    99976933.95646

  21215585.660   111488663.346 9  21215585.260    86874248.22249

  20907743.960   109870936.824 9  20907744.880    85613729.84349  20907743.320
  82046462.307 9
  21686475.220   115926626.687 9  21686477.300    90165169.675 7

  19281518.060   102889893.441 8

  21863413.920   117036571.368 9  21863414.160    91028446.827 7

  19832614.820   105905092.657 9  19832615.320    82370606.473 9

  22400997.420   119409948.956 8

  20867709.400   111471551.301 8  20867710.360    86700089.972 6

 20  3  7  1 34  0.0000000  0 17G10G12G14G16G20G22G25G26G29G31G32R05
                                R06R07R09R10R16
  21057274.280   110656714.408 9  21057275.640    86226012.00149  21057273.820
  82633253.711 9
  24441449.620   128440645.911 7  24441449.020   100083618.44845

  21893465.220   115050939.887 8  21893464.020    89650052.66247

  25187238.140   132359823.885 6  25187240.780   103137527.97144

  23227885.340   122063334.053 8  23227885.100    95114264.12846

  25141427.060   132119089.491 7  25141424.140   102949937.72845

  21545920.120   113224565.702 8  21545922.400    88226928.37249  21545922.060
  84550814.238 9
  22362064.520   117513471.416 8  22362068.080    91568941.90448  22362066.520
  87753586.562 8
  24405456.900   128251534.952 7  24405458.900    99936307.18545

  21213459.320   111477488.038 9  21213458.740    86865540.19249

  20903356.140   109847878.911 9  20903357.220    85595762.64449  20903355.580
  82029243.744 9
  21702557.660   116012596.231 9  21702559.480    90232034.805 7

  19276651.300   102863923.728 8

  21843062.220   116927627.322 8  21843062.380    90943712.577 7

  19828082.620   105880891.333 9  19828083.220    82351783.221 9

  22384270.440   119320784.839 8

  20885407.380   111566089.810 8  20885408.320    86773619.896 7

 20  3  7  1 34 30.0000000  0 18G01G10G12G14G16G20G22G25G26G29G31G32
                                R05R06R07R09R10R16
  25712903.920                    25712911.580

  21070578.700   110726629.665 9  21070580.040    86280491.38549  21070578.300
  82685463.131 9
  24460900.780   128542862.552 7  24460900.620   100163267.72344

  21884217.320   115002342.021 9  21884216.020    89612184.18647

  25164744.380   132241619.180 6  25164747.120   103045420.41544

  23248311.200   122170672.396 8  23248311.000    95197904.28345

  25124458.140   132029917.496 8  25124455.100   102880453.07645

  21558574.960   113291066.156 9  21558576.920    88278746.90149  21558576.660
  84600473.662 9
  22343475.720   117415786.620 8  22343479.260    91492823.91148  22343477.660
  87680640.153 8
  24395557.580   128199513.650 7  24395559.720    99895771.13346

  21211383.860   111466580.759 9  21211383.160    86857041.02049

  20899005.300   109825015.300 9  20899006.460    85577946.83749  20899004.720
  82012170.254 9
  21718728.280   116099037.056 9  21718729.820    90299266.499 7

  19271900.560   102838572.549 8

  21822734.660   116818812.979 9  21822734.780    90859079.204 7

  19823662.280   105857286.790 9  19823662.860    82333424.131 9

  22367621.360   119232036.519 8

  20903146.640   111660848.778 8  20903147.500    86847321.287 6

 20  3  7  1 35  0.0000000  0 18G01G10G12G14G16G20G22G25G26G29G31G32
                                R05R06R07R09R10R16
                                                                  25714693.480
 100909980.473 4
  21083969.680   110796999.440 9  21083970.960    86335324.94549  21083969.300
  82738011.942 9
  24480394.060   128645299.786 7  24480393.900   100243088.87744

  21874974.400   114953769.528 8  21874972.880    89574335.48247

  25142247.000   132123394.059 7  25142249.300   102953296.92644

  23268755.240   122278106.415 8  23268755.280    95281618.97846

  25107529.500   131940956.789 7  25107526.780   102811133.01145

  21571321.440   113358049.047 9  21571323.300    88330941.34149  21571323.160
  84650493.332 9
  22324938.960   117318374.304 8  22324942.300    91416918.22648  22324940.680
  87607897.213 8
  24385681.060   128147611.820 7  24385683.200    99855328.18246

  21209359.200   111455940.387 9  21209358.240    86848749.82749

  20894691.640   109802347.757 9  20894692.800    85560283.81249  20894691.260
  81995243.185 9
  21734986.800   116185947.567 9  21734988.180    90366863.501 7

  19267266.380   102813842.777 8

  21802432.220   116710132.169 8  21802432.160    90774549.657 7

  19819353.540   105834278.073 9  19819354.140    82315528.466 9

  22351050.520   119143705.459 8

  20920926.420   111755824.658 8  20920927.340    86921191.399 7

 20  3  7  1 35 30.0000000  0 17G10G12G14G16G20G22G25G26G29G31G32R05
                                R06R07R09R10R16
  21097446.840   110867822.210 9  21097448.120    86390511.49549  21097446.420
  82790899.042 9
  24499928.960   128747955.795 7  24499928.820   100323080.52744

  21865736.420   114905224.314 8  21865735.040    89536508.04947

  25119746.060   132005151.433 6  25119748.580   102861159.82344

  23289217.080   122385633.976 8  23289217.300    95365406.56346

  25090641.400   131852210.457 7  25090638.980   102741980.05145

  21584159.160   113425512.725 8  21584161.100    88383510.42348  21584161.240
  84700872.031 9
  22306454.680   117221237.895 8  22306457.780    91341227.54248  22306456.200
  87535360.326 8
  24375827.840   128095833.067 7  24375829.860    99814981.11745

  21207385.140   111445566.275 9  21207383.960    86840666.10749

  20890416.040   109779878.946 9  20890417.080    85542775.64049  20890415.780
  81978464.526 9
  21751333.000   116273326.770 9  21751334.340    90434825.050 7

  19262748.900   102789737.231 8

  21782155.600   116601589.304 8  21782155.500    90690127.452 7

  19815156.600   105811865.647 9  19815157.020    82298096.577 9

  22334558.540   119055794.328 8

  20938746.280   111851014.537 8  20938747.420    86995227.951 7

 20  3  7  1 36  0.0000000  0 18G01G10G12G14G16G20G22G25G26G29G31G32
                                R05R06R07R09R10R16
  25718482.740                    25718484.080                    25718483.880
 100924856.746 4
  21111009.540   110939094.038 9  21111010.800    86446047.95849  21111008.960
  82844121.476 9
  24519504.620   128850825.813 7  24519503.740   100403238.93844

  21856503.840   114856706.632 8  21856502.660    89498702.05747

  25097242.060   131886892.320 7  25097244.440   102769009.93644

  23309696.020   122493250.893 8  23309696.100    95449263.78446

  25073794.560   131763679.056 7  25073791.920   102672994.57045

  21597087.720   113493453.077 8  21597089.760    88436450.94449  21597089.900
  84751606.691 9
  22288023.020   117124378.353 8  22288026.000    91265752.60748  22288024.280
  87463030.180 8
  24365998.520   128044178.901 7  24366000.120    99774731.15246

  21205461.140   111435455.447 8  21205459.880    86832787.54948

  20886178.340   109757608.989 9  20886179.260    85525422.42049  20886178.100
  81961834.353 9
  21767766.360   116361171.300 9  21767767.700    90503148.510 7

  19258348.780   102766257.483 8

  21761904.860   116493186.404 8  21761905.120    90605814.123 7

  19811070.580   105790046.434 9  19811070.840    82281126.091 9

  22318145.440   118968303.274 8

  20956605.300   111946413.025 8  20956606.080    87069426.767 6

 20  3  7  1 36 30.0000000  0 18G01G10G12G14G16G20G22G25G26G29G31G32
                                R05R06R07R09R10R16
  25720486.540                                                    25720489.320
 100932722.485 4
  21124657.720   111010815.327 9  21124659.000    86501934.64249  21124657.040
  82897679.544 9
  24539120.820   128953909.800 6  24539119.900   100483564.08445

  21847277.280   114808220.196 8  21847276.020    89460920.41247

  25074736.220   131768622.329 6  25074738.140   102676851.47545

  23330192.020   122600956.944 8  23330192.020    95533190.45046

  25056989.440   131675367.631 7  25056986.640   102604180.46045

  21610107.160   113561870.362 9  21610109.260    88489763.09849  21610109.240
  84802697.505 9
  22269645.200   117027801.035 8  22269648.020    91190497.58348  22269646.260
  87390910.781 8
  24356193.680   127992654.721 8  24356195.420    99734582.46346

  21203587.580   111425609.208 9  21203586.240    86825115.16549

  20881979.180   109735542.375 9  20881980.060    85508227.64449  20881978.900
  81945356.024 9
  21784286.860   116449482.105 9  21784288.100    90571834.624 7

  19254066.960   102743408.797 8

  21741681.660   116384929.881 9  21741681.980    90521614.599 7

  19807095.980   105768822.658 9  19807096.220    82264618.709 9

  22301812.060   118881236.176 8

  20974503.080   112042019.083 8  20974503.840    87143787.009 6

 20  3  7  1 37  0.0000000  0 18G01G10G12G14G16G20G22G25G26G29G31G32
                                R05R06R07R09R10R16
                                                                  25722566.960
 100940872.371 4
  21138390.620   111082982.228 9  21138391.960    86558168.55149  21138389.960
  82951570.378 9
  24558776.880   129057203.460 7  24558776.240   100564052.56044

  21838056.600   114759764.927 9  21838055.240    89423163.05647

  25052228.320   131650342.442 7  25052230.120   102584685.40244

  23350704.100   122708748.276 8  23350703.960    95617183.57745

  25040226.400   131587276.512 7  25040223.540   102535538.04345

  21623216.800   113630760.566 9  21623218.680    88543443.77649  21623218.400
  84854141.479 9
  22251321.300   116931507.011 8  22251323.960    91115463.29148  22251322.080
  87319002.934 8
  24346413.920   127941262.184 7  24346415.640    99694536.40645

  21201763.860   111416025.022 9  21201762.480    86817646.97249

  20877818.640   109713679.401 9  20877819.800    85491191.55549  20877818.480
  81929029.764 9
  21800893.820   116538255.776 9  21800895.260    90640880.735 7

  19249903.620   102721192.304 8

  21721486.380   116276822.056 9  21721486.440    90437530.731 7

  19803232.400   105748191.551 9  19803232.660    82248572.301 9

  22285558.380   118794593.553 8

  20992438.680   112137827.810 8  20992439.420    87218304.883 6

 20  3  7  1 37 30.0000000  0 18G01G10G12G14G16G20G22G25G26G29G31G32
                                R05R06R07R09R10R16
  25724712.240                    25724715.340                    25724715.520
 100949309.074 4
  21152207.600   111155590.843 9  21152208.920    86614746.66849  21152206.900
  83005791.057 9
  24578472.260   129160702.540 6  24578471.520   100644701.18144

  21828841.860   114711340.832 8  21828840.500    89385429.98847

  25029718.680   131532053.843 6  25029720.800   102492512.52845

  23371231.520   122816620.565 8  23371231.320    95701239.78146

  25023505.360   131499407.229 8  25023502.820   102467068.49245

  21636415.200   113700119.651 8  21636417.140    88597489.79848  21636416.900
  84905935.587 9
  22233051.440   116835497.390 8  22233054.040    91040650.60748  22233051.880
  87247307.449 8
  24336659.520   127890002.826 7  24336660.940    99654594.06846

  21199989.380   111406699.862 9  21199988.000    86810380.61349

  20873696.900   109692020.323 9  20873698.240    85474314.35549  20873696.960
  81912855.779 9
  21817586.640   116627488.949 9  21817588.280    90710284.256 8

  19245858.960   102699609.194 8

  21701319.060   116168865.167 9  21701319.080    90353564.263 8

  19799479.300   105728150.989 9  19799479.740    82232985.191 9

  22269383.980   118708375.201 8

  21010411.180   112233833.684 8  21010411.980    87292976.104 6

 20  3  7  1 38  0.0000000  0 17G10G12G14G16G20G22G25G26G29G31G32R05
                                R06R07R09R10R16
  21166108.600   111228640.733 9  21166109.880    86671668.62849  21166107.920
  83060341.263 9
  24598206.560   129264406.645 6  24598205.920   100725509.51944

  21819633.500   114662951.327 8  21819632.220    89347723.88547

  25007208.260   131413760.922 7  25007210.100   102400336.25945

  23391774.260   122924572.835 8  23391774.080    95785358.30946

  25006827.460   131411763.824 7  25006824.760   102398774.92445

  21649702.700   113769947.065 8  21649704.800    88651900.74548  21649704.480
  84958079.410 9
  22214836.340   116739776.651 8  22214838.960    90966063.04548  22214836.820
  87175827.704 8
  24326931.360   127838881.447 7  24326932.920    99614759.30546

  21198264.240   111397634.211 9  21198262.780    86803316.46549

  20869614.820   109670568.901 9  20869616.200    85457598.95149  20869614.960
  81896836.855 9
  21834365.320   116717181.703 9  21834367.320    90780045.222 8

  19241933.680   102678663.116 8

  21681181.100   116061065.106 9  21681181.080    90269719.780 8

  19795837.020   105708701.732 9  19795837.600    82217858.003 9

  22253289.940   118622584.831 8

  21028419.960   112330034.933 8  21028421.080    87367799.273 7

 20  3  7  1 38 30.0000000  0 18G01G10G12G14G16G20G22G25G26G29G31G32
                                R05R06R07R09R10R16
  25729223.680   135207980.723 5  25729227.540   105356883.81655  25729227.260
 100967013.753 4
  21180093.240   111302130.959 9  21180094.700    86728933.70249  21180092.720
  83115220.293 9
  24617979.480   129368313.633 6  24617978.400   100806475.97743

  21810432.260   114614599.260 8  21810430.960    89310046.93747

  24984697.840   131295467.769 7  24984699.480   102308159.84643

  23412332.000   123032604.047 8  23412331.840    95869538.33045

  24990193.020   131324349.943 8  24990190.480   102330660.21345

  21663079.300   113840241.677 9  21663081.340    88706675.75049  21663081.200
  85010572.118 9
  22196677.100   116644348.822 9  22196679.700    90891703.70849  22196677.700
  87104566.677 8
  24317230.560   127787902.377 8  24317231.720    99575035.39145

  21196588.620   111388828.374 9  21196587.020    86796454.77549

  20865573.060   109649328.357 9  20865574.260    85441047.86049  20865572.840
  81880975.395 9
  21851230.080   116807333.708 9  21851232.180    90850163.378 7

  19238128.700   102658358.747 8

  21661073.380   115953426.907 9  21661073.360    90186001.197 7

  19792305.560   105689844.135 9  19792306.180    82203190.980 9

  22237276.760   118537225.334 8

  21046465.080   112426429.478 8  21046466.240    87442772.789 6

 20  3  7  1 39  0.0000000  0 18G01G10G12G14G16G20G22G25G26G29G31G32
                                R05R06R07R09R10R16
  25731586.000   135220394.281 4  25731589.520   105366556.65944

  21194160.500   111376055.193 9  21194162.040    86786536.97549  21194160.100
  83170423.409 9
  24637789.540   129472416.790 5  24637788.480   100887595.26744

  21801237.640   114566282.165 8  21801236.560    89272397.26747

  24962186.920   131177173.037 6  24962188.840   102215982.20044

  23432903.640   123140707.673 8  23432903.300    95953774.80946

  24973602.220   131237164.036 8  24973599.460   102262723.16145

  21676543.740   113910997.017 8  21676545.740    88761809.78349  21676545.720
  85063408.888 9
  22178573.400   116549212.530 9  22178575.840    90817571.55449  22178574.020
  87033523.355 8
  24307556.680   127737064.770 8  24307557.560    99535421.72846

  21194961.340   111380276.771 9  21194959.700    86789791.20649

  20861570.900   109628296.544 9  20861572.000    85424659.43449  20861570.420
  81865269.801 9
  21868179.740   116897938.740 9  21868181.860    90920633.906 7

  19234443.500   102638694.326 8

  21640995.780   115845950.319 9  21640995.880    90102408.333 7

  19788883.920   105671573.439 9  19788884.680    82188980.452 9

  22221343.700   118452293.891 8

  21064545.080   112523009.796 8  21064546.160    87517890.797 6

 20  3  7  1 39 30.0000000  0 18G01G10G12G14G16G20G22G25G26G29G31G32
                                R05R06R07R09R10R16
  25734019.080                    25734022.880                    25734022.400
 100985828.643 4
  21208310.460   111450413.293 9  21208311.920    86844478.31349  21208310.060
  83225950.523 9
  24657636.740   129576715.941 6  24657635.700   100968867.27743

  21792050.520   114518003.755 8  21792049.480    89234777.71247

  24939676.720   131058881.750 7  24939678.820   102123807.23544

  23453488.860   123248883.227 8  23453488.700    96038067.29345

  24957055.320   131150210.462 8  24957052.600   102194967.12145

  21690095.640   113982212.843 9  21690097.720    88817302.60149  21690097.680
  85116589.506 9
  22160525.920   116454372.640 8  22160528.300    90743670.34848  22160526.600
  86962701.377 8
  24297910.820   127686373.925 8  24297911.400    99495922.42446

  21193382.520   111371980.586 9  21193380.980    86783326.63849

  20857609.140   109607477.573 9  20857610.160    85408436.84249  20857608.720
  81849723.143 9
  21885214.220   116988997.400 9  21885216.240    90991457.232 7

  19230879.240   102619674.618 8

  21620949.780   115738641.711 9  21620949.780    90018946.072 7

  19785572.520   105653890.737 9  19785573.180    82175227.227 9

  22205491.520   118367795.173 8

  21082659.500   112619774.391 8  21082660.760    87593152.101 6

 20  3  7  1 40  0.0000000  0 18G01G10G12G14G16G20G22G25G26G29G31G32
                                R05R06R07R09R10R16
  25736522.220   135246336.591 4  25736526.700   105386769.08654  25736525.680
 100995650.746 4
  21222542.520   111525202.572 9  21222543.840    86902755.64449  21222542.080
  83281799.622 9
  24677520.700   129681208.240 5  24677520.060   101050289.77744

  21782871.040   114469765.388 9  21782869.980    89197189.36647

  24917167.500   130940596.401 6  24917170.180   102031636.86644

  23474087.220   123357127.814 8  23474087.100    96122413.57345

  24940553.280   131063491.540 8  24940550.280   102127393.95646

  21703734.660   114053886.300 9  21703736.800    88873152.03449  21703736.820
  85170111.887 9
  22142535.020   116359831.493 8  22142537.700    90670001.94048  22142535.980
  86892102.485 8
  24288293.140   127635832.376 8  24288293.840    99456539.46246

  21191851.920   111363937.954 9  21191850.560    86777059.64249

  20853688.080   109586872.970 9  20853689.200    85392381.28949  20853687.860
  81834336.583 9
  21902333.200   117080507.341 9  21902335.080    91062631.570 8

  19227436.100   102601301.788 8

  21600935.660   115631504.568 9  21600935.640    89935617.200 8

  19782371.080   105636794.414 9  19782371.520    82161930.092 9

  22189720.740   118283729.725 8

  21100807.940   112716719.426 8  21100809.160    87668553.781 6

 20  3  7  1 40 30.0000000  0 18G01G10G12G14G16G20G22G25G26G29G31G32
                                R05R06R07R09R10R16
  25739095.860   135259859.372 4  25739099.520   105397306.31744  25739098.400
 101005750.878 4
  21236856.160   111600420.935 9  21236857.480    86961367.32249  21236855.800
  83337969.153 9
  24697441.060   129785890.720 5  24697440.240   101131860.44843

  21773699.740   114421568.691 8  21773698.500    89159633.48247

  24894660.200   130822319.814 7  24894662.760   101939473.38845

  23494698.340   123465439.347 8  23494698.400    96206812.01746

  24924096.440   130977009.916 8  24924093.080   102060005.66945

  21717460.320   114126015.212 8  21717462.460    88929356.36548  21717462.400
  85223974.359 8
  22124601.540   116265591.938 8  22124604.440    90596568.52948  22124602.760
  86821728.805 8
  24278704.340   127585443.596 8  24278705.300    99417275.53546

  21190369.480   111356147.892 9  21190368.160    86770989.46649

  20849808.300   109566484.928 9  20849809.580    85376494.50949  20849808.160
  81819111.744 9
  21919536.420   117172467.310 9  21919538.120    91134155.907 7

  19224114.740   102583578.697 8

  21580954.340   115524542.947 9  21580954.140    89852424.825 7

  19779279.200   105620284.036 9  19779279.640    82149088.686 9

  22174031.820   118200099.239 8

  21118989.420   112813841.760 8  21118990.660    87744093.357 6

 20  3  7  1 41  0.0000000  0 18G01G10G12G14G16G20G22G25G26G29G31G32
                                R05R06R07R09R10R16
  25741738.380   135273747.550 4  25741742.020   105408128.62245  25741740.300
 101016120.357 4
  21251250.280   111676062.659 9  21251251.660    87020308.89349  21251250.040
  83394454.815 9
  24717396.840   129890757.333 5  24717395.940   101213574.69844

  21764535.780   114373412.008 8  21764534.600    89122108.79047

  24872154.480   130704051.542 6  24872156.840   101847316.36244

  23515321.200   123573811.707 8  23515321.080    96291257.87145

  24907684.280   130890764.313 8  24907681.180   101992801.31345

  21731271.600   114198593.644 8  21731273.640    88985910.98148  21731273.400
  85278172.543 8
  22106725.540   116171653.297 8  22106728.320    90523369.59848  22106726.860
  86751579.820 8
  24269144.540   127535207.262 7  24269145.580    99378130.39546

  21188934.520   111348606.017 9  21188933.040    86765112.68049

  20845969.540   109546311.926 9  20845970.760    85360775.27749  20845969.440
  81804047.476 9
  21936822.620   117264871.758 9  21936824.360    91206025.961 7

  19220914.840   102566504.071 8

  21561005.700   115417757.482 9  21561005.580    89769369.464 7

  19776296.240   105604355.076 9  19776296.660    82136699.499 8

  22158424.400   118116902.481 8

  21137202.880   112911134.348 8  21137204.080    87819765.355 6

 20  3  7  1 41 30.0000000  0 18G01G10G12G14G16G20G22G25G26G29G31G32
                                R05R06R07R09R10R16
  25744450.460   135287997.995 5  25744453.780   105419232.86945  25744452.080
 101026761.921 4
  21265724.980   111752127.918 9  21265726.440    87079580.48649  21265724.760
  83451256.743 9
  24737387.580   129995847.044 5  24737386.560   101295432.40944

  21755380.240   114325299.415 8  21755378.980    89084618.45647

  24849651.280   130585796.643 7  24849653.540   101755169.77045

  23535955.700   123682244.961 8  23535955.480    96375751.16945

  24891318.160   130804760.250 7  24891315.140   101925785.16245

  21745168.400   114271621.661 8  21745170.540    89042815.91948  21745170.300
  85332706.443 8
  22088907.740   116078020.696 8  22088910.520    90450409.14948  22088909.160
  86681659.399 8
  24259614.840   127485128.721 7  24259616.020    99339108.19046

  21187546.860   111341313.239 9  21187545.340    86759429.99249

  20842172.500   109526358.347 9  20842173.640    85345227.01749  20842172.440
  81789147.060 9
  21954192.120   117357721.329 9  21954193.960    91278242.208 7

  19217837.280   102550082.811 8

  21541091.280   115311154.731 9  21541091.220    89686456.230 7

  19773422.400   105589009.002 9  19773422.820    82124763.670 9

  22142899.100   118034143.235 8

  21155448.000   113008596.240 8  21155448.980    87895569.035 6

 20  3  7  1 42  0.0000000  0 18G01G10G12G14G16G20G22G25G26G29G31G32
                                R05R06R07R09R10R16
  25747231.700   135302612.354 5  25747234.940   105430620.62445  25747232.040
 101037669.072 4
  21280279.980   111828615.274 9  21280281.540    87139180.98949  21280279.800
  83508373.890 9
  24757412.840   130101080.522 5  24757412.020   101377462.40443

  21746233.580   114277233.595 8  21746232.420    89047164.57447

  24827151.500   130467559.249 7  24827153.280   101663036.80344

  23556601.340   123790737.475 8  23556601.140    96460290.62945

  24874998.540   130719000.825 8  24874995.700   101858959.67344

  21759150.480   114345097.764 8  21759152.580    89100070.01348  21759152.400
  85387574.928 9
  22071148.860   115984697.801 8  22071151.760    90377690.01548  22071150.380
  86611970.233 8
  24250115.860   127435212.332 7  24250117.100    99300212.33746

  21186206.580   111334269.537 9  21186205.020    86753941.39949

  20838417.980   109506627.289 9  20838418.920    85329852.15249  20838417.800
  81774412.816 9
  21971644.640   117451015.109 9  21971646.420    91350803.965 7

  19214883.220   102534318.538 8

  21521212.060   115204739.501 9  21521212.100    89603688.858 7

  19770657.960   105574245.918 9  19770658.280    82113281.275 9

  22127456.280   117951823.959 8

  21173724.260   113106225.085 8  21173725.520    87971502.554 6

 20  3  7  1 42 30.0000000  0 18G01G10G12G14G16G20G22G25G26G29G31G32
                                R05R06R07R09R10R16
  25750081.680   135317587.841 3  25750084.640   105442289.79443  25750082.060
 101048852.060 4
  21294914.660   111905521.457 9  21294916.320    87199107.85249  21294914.580
  83565803.794 9
  24777472.220   130206492.997 4  24777471.620   101459602.01344

  21737095.880   114229215.188 8  21737094.760    89009747.63447

  24804655.560   130349341.227 7  24804657.300   101570918.95844

  23577257.480   123899285.682 8  23577257.460    96544873.48645

  24858725.960   130633487.296 7  24858722.840   101792325.72444

  21773217.300   114419018.485 8  21773219.220    89157670.56548  21773218.840
  85442775.459 9
  22053449.260   115891686.267 8  22053452.340    90305213.52248  22053450.820
  86542513.590 9
  24240648.280   127385460.257 8  24240649.380    99261444.53845

  21184913.220   111327472.840 9  21184911.720    86748645.27349

  20834705.820   109487119.625 9  20834706.840    85314651.36949  20834705.760
  81759845.403 9
  21989179.660   117544750.143 9  21989181.560    91423708.912 7

  19212052.400   102519212.791 8

  21501368.620   115098515.170 9  21501368.660    89521069.940 7

  19768002.140   105560063.319 9  19768002.360    82102250.368 9

  22112095.900   117869944.624 8

  21192030.960   113204016.375 8  21192032.300    88047562.419 6

 20  3  7  1 43  0.0000000  0 18G01G10G12G14G16G20G22G25G26G29G31G32
                                R05R06R07R09R10R16
                                                                  25753000.980
 101060303.523 4
  21309628.680   111982843.978 9  21309630.380    87259359.13649  21309628.560
  83623544.608 9
  24797564.760   130312082.348 4

  21727967.620   114181245.779 8  21727966.360    88972368.86147

  24782163.600   130231144.967 7  24782165.200   101478818.04444

  23597923.740   124007887.390 8  23597923.760    96629498.03645

  24842500.580   130548222.159 7  24842497.380   101725885.35244

  21787368.220   114493381.239 8  21787370.000    89215615.56348  21787369.560
  85498306.079 8
  22035809.540   115798988.729 8  22035812.580    90232981.69849  22035810.940
  86473291.420 8
  24231212.660   127335875.453 8  24231213.560    99222807.06946

  21183666.360   111320921.636 9  21183664.960    86743540.44049

  20831036.620   109467837.271 9  20831037.640    85299626.14749  20831036.440
  81745446.229 9
  22006796.920   117638924.622 9  22006798.840    91496955.638 7

  19209345.480   102504767.677 8

  21481561.580   114992485.370 9  21481561.380    89438602.324 7

  19765454.920   105546460.404 9  19765455.060    82091670.323 8

  22096818.440   117788507.541 8

  21210367.460   113301966.722 8  21210368.840    88123746.006 6

 20  3  7  1 43 30.0000000  0 18G01G10G12G14G16G20G22G25G26G29G31G32
                                R05R06R07R09R10R16
                                                                  25755987.300
 101072020.816 4
  21324421.120   112060578.370 9  21324422.780    87319931.36449  21324420.900
  83681592.975 9
  24817690.320   130417842.120 4

  21718848.560   114133325.090 8  21718847.500    88935028.06647

  24759676.040   130112971.393 7  24759677.100   101386734.78644

  23618599.300   124116537.847 8  23618599.280    96714160.55845

  24826322.460   130463205.751 7  24826319.740   101659638.82044

  21801601.940   114568181.429 8  21801603.940    89273901.41648  21801603.460
  85554163.346 9
  22018229.580   115706605.667 8  22018232.580    90160994.93049  22018231.000
  86404304.114 9
  24221809.080   127286458.931 8  24221810.000    99184300.74246

  21182465.600   111314612.549 9  21182464.300    86738624.28249

  20827410.180   109448780.029 9  20827411.160    85284776.34549  20827409.940
  81731215.152 9
  22024495.580   117733534.306 9  22024497.660    91570540.881 7

  19206762.400   102490983.342 8

  21461790.900   114886652.325 9  21461790.840    89356287.771 7

  19763015.280   105533433.584 9  19763015.500    82081538.351 9

  22081623.560   117707511.565 8

  21228732.860   113400070.746 8  21228734.240    88200049.121 6

 20  3  7  1 44  0.0000000  0 18G01G10G12G14G16G20G22G25G26G29G31G32
                                R05R06R07R09R10R16
                                                                  25759041.340
 101084003.950 5
  21339291.780   112138723.935 9  21339293.420    87380823.98949  21339291.500
  83739948.403 9
  24837848.180   130523772.702 4

  21709739.440   114085456.409 8  21709738.380    88897727.79247

  24737193.600   129994825.073 7  24737194.760   101294672.77044

  23639283.980   124225236.120 8  23639283.980    96798860.35745

  24810192.580   130378442.000 7  24810189.700   101593589.13845

  21815918.960   114643418.234 8  21815920.980    89332527.47948  21815920.520
  85610346.661 9
  22000710.300   115614541.521 8  22000713.340    90089256.64748  22000711.920
  86335554.928 9
  24212438.340   127237215.373 8  24212439.300    99145929.17146

  21181311.080   111308546.059 9  21181309.860    86733897.15349

  20823827.120   109429951.592 9  20823828.180    85270104.82949  20823826.980
  81717154.955 9
  22042275.660   117828579.056 9  22042277.980    91644464.481 7

  19204303.740   102477863.795 8

  21442058.160   114781021.605 9  21442058.100    89274130.534 7

  19760683.640   105520983.643 9  19760684.000    82071855.062 8

  22066512.180   117626960.155 8

  21247126.460   113498326.508 8  21247127.920    88276470.227 6

 20  3  7  1 44 30.0000000  0 17G01G10G14G16G20G22G25G26G29G31G32R05
                                R06R07R09R10R16
  25762159.020   135381056.000 4  25762160.260   105491745.76244  25762161.420
 101096248.310 4
  21354239.360   112217273.767 9  21354241.040    87442031.61549  21354239.060
  83798605.708 9
  21700639.780   114037637.089 8  21700638.560    88860465.96847

  24714716.200   129876704.352 7  24714716.880   101202630.70544

  23659976.360   124333975.195 8  23659976.500    96883591.92245

  24794110.300   130293928.933 7  24794107.420   101527734.84945

  21830317.880   114719084.676 8  21830319.860    89391488.31248  21830319.480
  85666850.781 8
  21983251.380   115522794.383 8  21983254.340    90017765.38449  21983253.100
  86267042.470 8
  24203100.260   127188143.227 8  24203101.100    99107691.19846

  21180201.700   111302716.449 9  21180200.600    86729354.60249

  20820287.260   109411349.428 9  20820288.380    85255609.62449  20820287.120
  81703263.718 9
  22060135.920   117924052.127 9  22060138.420    91718721.228 7

  19201969.320   102465406.906 8

  21422362.900   114675592.923 9  21422363.260    89192130.483 8

  19758459.060   105509104.694 9  19758459.460    82062615.871 9

  22051483.920   117546850.259 8

  21265547.220   113596726.372 8  21265548.740    88353003.445 6

 20  3  7  1 45  0.0000000  0 18G01G10G12G14G16G20G22G25G26G29G31G32
                                R05R06R07R09R10R16
  25765347.820   135397808.856 5  25765350.660   105504799.96044  25765349.340
 101108758.613 4
  21369264.860   112296233.163 9  21369266.620    87503558.38749  21369264.480
  83857568.858 9
  24878259.660

  21691551.180   113989876.484 8  21691550.220    88823249.91847

  24692245.440   129758619.695 6  24692246.360   101110616.77945

  23680677.560   124442760.470 8  23680677.740    96968359.50245

  24778077.780   130209676.870 7  24778074.660   101462083.87945

  21844799.580   114795185.879 8  21844801.420    89450787.92848  21844801.000
  85723679.590 9
  21965854.860   115431374.575 8  21965857.740    89946529.18548  21965856.480
  86198774.457 9
  24193796.780   127139253.869 8  24193797.860    99069595.61346

  21179138.680   111297130.194 9  21179137.580    86725001.67849

  20816792.380   109392983.171 9  20816793.380    85241298.24949  20816792.160
  81689548.654 9
  22078077.440   118019959.625 9  22078080.060    91793315.861 7

  19199761.020   102453622.746 8

  21402707.840   114570378.043 9  21402708.320    89110296.694 7

  19756342.600   105497803.452 9  19756342.980    82053826.020 9

  22036540.180   117467190.613 8

  21283995.800   113695274.566 8  21283997.240    88429652.013 6

 20  3  7  1 45 30.0000000  0 17G01G10G14G16G20G22G25G26G29G31G32R05
                                R06R07R09R10R16
  25768601.220   135414913.930 4  25768605.840   105518125.36344  25768603.660
 101121528.822 4
  21384366.540   112375593.463 9  21384368.440    87565397.54949  21384366.220
  83916831.377 9
  21682472.960   113942170.113 8  21682472.000    88786076.11047

  24669780.880   129640567.832 7  24669782.200   101018628.42944

  23701385.900   124551583.303 8  23701386.320    97053156.31244

  24762094.120   130125682.096 7  24762090.780   101396633.42044

  21859362.240   114871713.116 8  21859364.000    89510419.51948  21859363.860
  85780826.515 9
  21948520.020   115340278.496 8  21948522.660    89875545.24748  21948521.380
  86130748.199 9
  24184527.480   127090543.954 8  24184528.440    99031639.87246

  21178120.620   111291779.874 9  21178119.460    86720832.60049

  20813341.580   109374848.588 9  20813342.480    85227167.39749  20813341.140
  81676006.581 9
  22096098.760   118116292.800 9  22096101.260    91868241.584 7

  19197678.080   102442507.355 8

  21383092.480   114465374.824 9  21383092.820    89028627.528 7

  19754333.000   105487072.100 9  19754333.280    82045479.413 9

  22021679.680   117387976.542 8

  21302470.200   113793961.676 8  21302471.620    88506408.644 6

 20  3  7  1 46  0.0000000  0 17G01G10G14G16G20G22G25G26G29G31G32R05
                                R06R07R09R10R16
  25771921.400   135432363.092 4  25771925.740   105531722.12244  25771924.060
 101134564.962 5
  21399544.300   112455353.853 9  21399546.340    87627548.46949  21399544.180
  83976392.672 9
  21673405.600   113894521.309 8  21673404.780    88748947.18447

  24647323.180   129522553.204 7  24647324.600   100926669.00344

  23722101.220   124660443.178 8  23722101.720    97137982.01945

  24746160.160   130041948.353 7  24746156.860   101331386.36845

  21874005.940   114948665.401 9  21874007.440    89570382.33349  21874007.460
  85838290.880 8
  21931247.420   115249510.420 8  21931250.120    89804816.89348  21931248.720
  86062966.875 9
  24175293.180   127042018.071 8  24175294.120    98993827.56146

  21177147.540   111286665.910 9  21177146.320    86716847.70349

  20809935.500   109356949.269 9  20809936.460    85213219.86849  20809934.880
  81662640.201 9
  22114199.780   118213051.637 9  22114202.120    91943498.360 7

  19195721.020   102432063.977 8

  21363517.640   114360589.058 9  21363517.660    88947127.496 8

  19752430.160   105476911.308 9  19752430.500    82037576.566 9

  22006903.500   117309210.908 8

  21320970.340   113892785.786 8  21320971.540    88583271.832 6

 20  3  7  1 46 30.0000000  0 17G01G10G14G16G20G22G25G26G29G31G32R05
                                R06R07R09R10R16
  25775307.580                    25775311.880                    25775311.140
 101147855.037 4
  21414798.160   112535513.544 9  21414800.200    87690010.53149  21414798.100
  84036252.140 9
  21664350.140   113846933.374 9  21664349.220    88711865.66647

  24624873.140   129404580.270 7  24624875.220   100834742.16445

  23742823.520   124769339.098 8  23742824.080    97222835.80645

  24730276.240   129958479.627 7  24730273.320   101266345.81845

  21888730.280   115026041.931 8  21888731.980    89630675.71848  21888731.640
  85896072.029 8
  21914037.920   115159074.591 9  21914040.840    89734347.43249  21914039.240
  85995433.631 8
  24166094.820   126993680.810 8  24166095.940    98956162.20646

  21176219.520   111281788.375 9  21176218.200    86713047.03249

  20806574.880   109339288.811 9  20806575.880    85199458.46349  20806574.180
  81649452.177 9
  22132380.400   118310235.751 9  22132382.200    92019085.919 7

  19193890.720   102422297.311 8

  21343984.180   114256026.133 9  21343984.560    88865800.807 8

  19750634.180   105467321.334 9  19750634.720    82030117.696 9

  21992212.360   117230897.189 8

  21339495.760   113991745.609 8  21339496.880    88660240.557 6

 20  3  7  1 47  0.0000000  0 17G01G10G14G16G20G22G25G26G29G31G32R05
                                R06R07R09R10R16
                                                                  25778763.660
 101161401.266 4
  21430126.900   112616066.737 9  21430129.040    87752779.23549  21430126.880
  84096405.463 9
  21655305.980   113799405.025 8  21655304.860    88674830.59947

  24602431.200   129286648.721 7  24602433.460   100742847.52945

  23763551.420   124878264.606 7  23763551.860    97307712.63545

  24714442.660   129875274.992 7  24714439.940   101201511.05245

  21903534.220   115103836.772 8  21903535.880    89691295.07348  21903535.540
  85954165.581 9
  21896891.520   115068970.274 8  21896894.580    89664136.30948  21896892.920
  85928147.978 9
  24156932.260   126945532.110 8  24156933.500    98918643.77946

  21175335.520   111277142.934 9  21175334.240    86709427.21149

  20803259.380   109321865.864 9  20803260.440    85185882.13949  20803258.740
  81636441.525 9
  22150639.400   118407839.501 9  22150641.000    92094999.864 7

  19192186.900   102413205.556 8

  21324492.900   114151687.396 9  21324493.120    88784648.465 8

  19748944.340   105458297.346 9  19748944.840    82023099.061 9

  21977605.180   117153032.750 8

  21358045.460   114090834.152 8  21358046.380    88737309.415 6

 20  3  7  1 47 30.0000000  0 17G01G10G14G16G20G22G25G26G29G31G32R05
                                R06R07R09R10R16
                                                                  25782281.460
 101175205.825 4
  21445530.920   112697015.503 9  21445533.100    87815856.14649  21445530.960
  84156854.178 9
  21646274.320   113751942.538 8  21646273.020    88637846.83347

  24579998.620   129168765.525 7  24580000.640   100650990.57445

  23784285.460   124987222.235 7  23784286.060    97392614.49245

  24698660.920   129792341.704 7  24698658.360   101136887.71744

  21918417.980   115182051.895 8  21918419.680    89752241.89348  21918419.520
  86012572.951 9
  21879809.540   114979204.604 8  21879812.720    89594189.04448  21879811.120
  85861115.185 9
  24147807.280   126897579.696 8  24147808.360    98881278.28846

  21174496.380   111272733.006 9  21174495.080    86705990.89049

  20799990.420   109304686.951 9  20799991.320    85172495.94949  20799989.780
  81623613.098 9
  22168977.380   118505865.301 9  22168978.720    92171242.046 7

  19190610.900   102404795.296 8

  21305045.020   114047581.212 9  21305045.160    88703676.982 8

  19747360.940   105449842.727 9  19747361.560    82016523.240 9

  21963083.280   117075624.125 8

  21376619.300   114190052.929 8  21376620.540    88814479.527 6

 20  3  7  1 48  0.0000000  0 17G01G10G14G16G20G22G25G26G29G31G32R05
                                R06R07R09R10R16
                                                                  25785862.720
 101189260.575 4
  21461008.060   112778348.013 9  21461010.180    87879232.10349  21461008.120
  84217589.468 9
  21637253.680   113704538.214 8  21637252.320    88600908.40847

  24557574.180   129050924.702 7  24557575.920   100559166.70045

  23805023.340   125096200.554 7  23805024.000    97477532.47845

  24682929.600   129709672.994 7  24682927.200   101072470.50345

  21933379.740   115260675.339 8  21933381.120    89813506.92148  21933381.200
  86071285.243 8
  21862790.620   114889770.811 8  21862793.980    89524500.39048  21862792.520
  85794330.235 9
  24138718.580   126849817.369 8  24138719.280    98844060.93645

  21173700.060   111268547.932 9  21173698.780    86702729.78649

  20796766.420   109287744.696 9  20796767.400    85159294.17749  20796765.820
  81610961.402 9
  22187391.940   118604301.843 9  22187393.540    92247803.712 7

  19189161.440   102397059.451 8

  21285639.560   113943702.476 9  21285639.700    88622882.406 8

  19745882.240   105441946.781 9  19745882.920    82010381.958 9

  21948645.460   116998662.740 8

  21395215.100   114289389.022 7  21395216.480    88891740.908 6

 20  3  7  1 48 30.0000000  0 17G01G10G14G16G20G22G25G26G29G31G32R05
                                R06R07R09R10R16
                                                                  25789508.880
 101203569.856 4
  21476559.220   112860069.563 9  21476561.300    87942911.19949  21476559.320
  84278615.262 9
  21628245.760   113657201.619 8  21628244.360    88564022.74047

  24535159.860   128933136.907 7  24535161.620   100467384.03745

  23825766.360   125205204.506 7  23825767.000    97562470.43645

  24667250.560   129627278.539 7  24667248.140   101008267.04244

  21948419.940   115339712.373 8  21948421.420    89875094.20448  21948421.200
  86130306.405 8
  21845837.060   114800679.244 8  21845840.380    89455078.41048  21845838.980
  85727800.837 9
  24129667.840   126802255.733 8  24129668.420    98806999.95446

  21172947.640   111264594.065 9  21172946.440    86699648.84449

  20793589.320   109271048.799 9  20793590.400    85146284.37549  20793588.640
  81598493.671 9
  22205884.420   118703154.944 9  22205886.220    92324689.347 7

  19187840.040   102390007.661 8

  21266278.780   113840063.267 9  21266279.160    88542274.157 8

  19744509.360   105434615.727 9  19744510.040    82004680.024 9

  21934293.560   116922157.966 9

  21413833.840   114388847.224 8  21413835.100    88969097.254 6

 20  3  7  1 49  0.0000000  0 17G01G10G14G16G20G22G25G26G29G31G32R05
                                R06R07R09R10R16
                                                                  25793219.780
 101218131.283 5
  21492183.720   112942176.258 9  21492185.760    88006890.41349  21492183.740
  84339928.656 9
  21619250.740   113609933.082 9  21619249.360    88527190.11847

  24512755.720   128815403.453 7  24512757.420   100375643.84144

  23846513.480   125314230.454 7  23846514.200    97647425.52644

  24651623.780   129545159.545 7  24651621.480   100944278.19544

  21963538.040   115419158.951 8  21963539.760    89937000.61148  21963539.360
  86189633.375 8
  21828948.900   114711931.096 8  21828952.100    89385924.03048  21828950.720
  85661527.884 9
  24120655.600   126754896.523 8  24120656.180    98770096.70646

  21172238.680   111260868.925 9  21172237.640    86696746.14049

  20790459.180   109254599.858 9  20790460.220    85133467.02049  20790458.480
  81586210.371 9
  22224454.120   118802420.818 8  22224456.000    92401896.053 7

  19186646.900   102383640.618 8

  21246963.340   113736666.205 9  21246963.580    88461854.234 8

  19743241.800   105427846.779 9  19743242.440    81999415.295 8

  21920027.140   116846109.461 8

  21432474.860   114488422.920 8  21432475.820    89046545.023 6

 20  3  7  1 49 30.0000000  0 17G01G10G14G16G20G22G25G26G29G31G32R05
                                R06R07R09R10R16
                                                                  25796993.640
 101232943.67314
  21507880.300   113024661.313 9  21507882.180    88071164.44449  21507880.080
  84401524.605 9
  21610268.160   113562730.280 8  21610267.040    88490408.71447

  24490361.720   128697723.268 7  24490363.340   100283945.11943

  23867263.560   125423272.164 7  23867264.380    97732392.86745

  24636049.120   129463314.277 7  24636046.720   100880502.66844

  21978732.780   115499008.237 8  21978734.560    89999220.82448  21978734.320
  86249261.077 9
  21812125.940   114623524.649 9  21812128.860    89317035.89849  21812127.440
  85595510.106 9
  24111681.800   126707738.631 8  24111682.240    98733350.31346

  21171572.040   111257367.038 9  21171571.180    86694017.38649

  20787375.600   109238395.651 9  20787376.660    85120840.35549  20787375.040
  81574109.817 9
  22243099.780   118902093.126 9  22243102.020    92479418.846 7

  19185581.520   102377955.995 8

  21227692.960   113633511.171 9  21227693.260    88381622.545 8

  19742078.500   105421634.306 9  19742078.980    81994583.366 9

  21905845.660   116770514.019 8

  21451136.300   114588108.489 8  21451137.080    89124078.206 6

 20  3  7  1 50  0.0000000  0 17G01G10G14G16G20G22G25G26G29G31G32R05
                                R06R07R09R10R16
  25800829.180   135584271.161 4  25800831.520   105650096.43854  25800831.340
 101248003.304 4
  21523649.320   113107527.457 9  21523651.160    88135735.42749  21523648.900
  84463405.132 9
  21601299.640   113515600.379 8  21601298.560    88453684.11147

  24467979.420   128580104.121 6  24467981.120   100192293.93644

  23888017.120   125532331.739 8  23888017.940    97817374.16145

  24620527.760   129381750.094 7  24620525.680   100816946.16445

  21994004.620   115579262.879 8  21994006.620    90061756.87248  21994006.360
  86309191.470 8
  21795369.380   114535467.704 9  21795372.120    89248420.12349  21795370.680
  85529753.320 9
  24102747.780   126660790.522 8  24102748.320    98696767.42846

  21170949.100   111254092.757 9  21170947.960    86691465.99049

  20784340.060   109222443.342 9  20784341.060    85108409.96849  20784339.360
  81562197.359 9
  22261822.100   119002174.910 9  22261824.180    92557260.124 7

  19184645.440   102372961.311 8

  21208469.900   113530607.715 9  21208470.160    88301586.529 8

  19741020.000   105415982.240 9  19741020.420    81990187.312 9

  21891750.000   116695378.293 8

  21469818.600   114687906.198 8  21469819.460    89201698.628 6

 20  3  7  1 50 30.0000000  0 17G01G10G14G16G20G22G25G26G29G31G32R05
                                R06R07R09R10R16
  25804728.460                    25804733.220                    25804732.540
 101263312.388 4
  21539489.900   113190770.188 9  21539491.740    88200599.85849  21539489.400
  84525566.855 9
  21592345.080   113468543.297 9  21592343.860    88417016.23947

  24445608.900   128462546.999 7  24445610.820   100100691.15744

  23908773.300   125641404.890 8  23908774.280    97902366.01244

  24605060.160   129300467.528 7  24605057.880   100753609.08945

  22009352.800   115659918.196 8  22009354.820    90124605.16449  22009354.720
  86369421.064 9
  21778679.480   114447760.762 9  21778681.940    89180077.07649  21778680.460
  85464257.910 9
  24093853.840   126614053.143 8  24093854.480    98660348.71846

  21170368.740   111251042.264 9  21170367.380    86689088.98049

  20781352.380   109206742.870 9  20781353.340    85096175.82649  20781351.680
  81550472.966 9
  22280620.440   119102661.976 9  22280622.420    92635416.623 7

  19183838.520   102368655.840 8

  21189294.160   113427957.894 9  21189294.340    88221747.773 8

  19740065.820   105410886.988 9  19740066.160    81986224.336 9

  21877740.520   116620701.219 8

  21488520.960   114787810.774 8  21488521.680    89279402.162 6

 20  3  7  1 51  0.0000000  0 17G01G10G14G16G20G22G25G26G29G31G32R05
                                R06R07R09R10R16
  25808692.020   135625586.605 4  25808697.040   105682295.62254

  21555400.820   113274382.808 9  21555402.740    88265752.52049  21555400.340
  84588004.809 9
  21583403.640   113421556.642 8  21583402.700    88380403.29048

  24423249.960   128345050.854 7  24423252.180   100009135.80244

  23929530.980   125750485.482 7  23929531.780    97987363.70045

  24589645.980   129219464.801 6  24589643.600   100690490.12246

  22024776.060   115740967.488 8  22024778.000    90187760.46348  22024778.000
  86429944.877 9
  21762055.920   114360402.298 9  21762058.140    89112005.58049  21762056.640
  85399022.709 9
  24085000.020   126567525.837 8  24085000.940    98624093.71946

  21169829.620   111248210.407 9  21169828.460    86686882.35349

  20778412.280   109191292.119 9  20778413.200    85084136.27849  20778411.580
  81538935.057 9
  22299493.400   119203548.066 8  22299495.400    92713883.484 7

  19183160.600   102365037.774 8

  21170165.820   113325561.964 9  21170165.900    88142106.515 8

  19739214.920   105406342.564 9  19739215.140    81982689.801 9

  21863816.740   116546480.087 8

  21507242.040   114887815.132 8  21507242.780    89357183.325 6

 20  3  7  1 51 30.0000000  0 17G01G10G14G16G20G22G25G26G29G31G32R05
                                R06R07R09R10R16
  25812717.480   135646745.716 3  25812720.900   105698778.82343  25812720.780
 101294657.201 4
  21571382.480   113358366.883 9  21571384.460    88331194.61749  21571381.940
  84650720.162 9
  21574476.980   113374646.252 8  21574476.020    88343849.72148

  24400903.840   128227622.360 6  24400906.000    99917633.26345

  23950290.180   125859575.110 7  23950291.020    98072368.35745

  24574286.360   129138747.942 7  24574283.800   100627593.87045

  22040274.300   115822412.321 8  22040276.480    90251223.93348  22040276.220
  86490764.039 8
  21745499.700   114273398.932 8  21745501.900    89044210.76648  21745500.480
  85334052.690 9
  24076187.300   126521215.451 8  24076188.480    98588007.71646

  21169332.780   111245600.075 9  21169331.700    86684848.32449

  20775520.680   109176097.197 9  20775521.720    85072296.05049  20775520.020
  81527588.180 9
  22318441.400   119304835.002 9  22318443.220    92792662.089 7

  19182612.620   102362112.983 8

  21151086.380   113223428.319 9  21151086.400    88062669.225 8

  19738467.640   105402351.770 9  19738467.900    81979585.834 9

  21849979.400   116472720.072 8

  21525981.860   114987919.873 8  21525982.780    89435042.531 6

 20  3  7  1 52  0.0000000  0 17G01G10G14G16G20G22G25G26G29G31G32R05
                                R06R07R09R10R16
  25816803.960                    25816807.320                    25816808.600
 101310695.126 5
  21587434.180   113442718.723 9  21587436.120    88396923.28949  21587433.520
  84713710.119 9
  21565564.660   113327812.814 8  21565563.720    88307356.13847

  24378570.960   128110263.707 7  24378573.420    99826185.06745

  23971050.440   125968670.069 7  23971051.440    98157377.22645

  24558981.320   129058318.613 7  24558978.660   100564921.69245

  22055847.180   115904248.797 8  22055849.440    90314992.58748  22055849.120
  86551875.667 8
  21729011.100   114186751.990 8  21729013.580    88976693.69548  21729012.060
  85269348.824 9
  24067416.420   126475123.577 7  24067417.460    98552091.99746

  21168877.840   111243208.908 9  21168876.760    86682985.07549

  20772677.940   109161158.853 9  20772678.960    85060655.77249  20772677.340
  81516432.909 9
  22337463.760   119406519.514 9  22337465.560    92871749.923 7

  19182194.400   102359881.969 8

  21132056.460   113121559.809 9  21132056.600    87983438.186 8

  19737823.720   105398912.013 9  19737823.780    81976910.471 9

  21836228.580   116399421.181 8

  21544739.740   115088120.778 8  21544740.780    89512976.564 6

 20  3  7  1 52 30.0000000  0 17G01G10G14G16G20G22G25G26G29G31G32R05
                                R06R07R09R10R16
  25820953.160   135690016.280 4  25820955.620   105732503.96654  25820955.040
 101326973.292 4
  21603555.100   113527433.970 9  21603556.940    88462935.13149  21603554.380
  84776971.470 9
  21556667.420   113281056.453 9  21556666.260    88270922.59547

  24356251.660   127992975.593 7  24356254.200    99734791.86044

  23991810.980   126077766.069 8  23991811.780    98242386.88744

  24543731.080   128978177.483 7  24543728.260   100502474.06545

  22071494.060   115986472.519 8  22071496.020    90379063.00748  22071495.660
  86613276.479 8
  21712590.540   114100462.200 9  21712593.200    88909454.91049  21712591.720
  85204911.669 9
  24058687.240   126429251.775 8  24058688.220    98516347.77946

  21168463.900   111241033.626 9  21168462.740    86681290.05649

  20769884.240   109146477.366 9  20769885.280    85049215.64049  20769883.600
  81505469.441 9
  22356559.560   119508597.402 9  22356561.540    92951143.719 7

  19181906.380   102358344.778 8

  21113076.640   113019959.018 9  21113076.640    87904415.336 8

  19737282.080   105396019.766 9  19737282.120    81974660.940 9

  21822564.280   116326582.605 8

  21563514.940   115188413.402 8  21563515.840    89590981.897 6

 20  3  7  1 53  0.0000000  0 17G01G10G14G16G20G22G25G26G29G31G32R05
                                R06R07R09R10R16
  25825162.400   135712142.431 4  25825165.820   105749733.40544  25825163.740
 101343491.502 5
  21619745.040   113612512.001 9  21619746.680    88529229.65449  21619744.360
  84840503.707 9
  21547785.580   113234381.294 8  21547784.380    88234552.33448

  24333946.680   127875763.104 7  24333948.900    99643457.61344

  24012571.760   126186862.994 7  24012572.500    98327397.25045

  24528536.460   128898329.013 8  24528533.380   100440254.49245

  22087214.380   116069082.814 8  22087216.260    90443434.63548  22087215.800
  86674965.956 8
  21696238.940   114014534.001 9  21696241.660    88842497.89549  21696240.160
  85140744.529 9
  24050000.960   126383605.134 8  24050001.960    98480778.98246

  21168091.300   111239075.245 9  21168090.040    86679764.04149

  20767140.000   109132056.577 9  20767141.080    85037978.65549  20767139.460
  81494700.664 9
  22375728.940   119611068.471 9  22375730.960    93030843.312 7

  19181749.060   102357505.011 8

  21094147.880   112918632.330 9  21094147.880    87825605.686 8

  19736842.900   105393675.560 9  19736843.180    81972837.658 9

  21808987.220   116254207.665 8

  21582306.760   115288796.059 8  21582307.660    89669057.274 6

